{"data": "{\"timestamp\": 1756825455.735232, \"event\": {\"timestamp_ns\": 1756825455696592128, \"agent_id\": \"apo\", \"domain\": \"drone\", \"source_format\": \"json\", \"position\": {\"x\": -0.0024406947195529933, \"y\": 0.0008094744384288781, \"z\": 0.0}, \"velocity\": {\"vx\": -0.02440694719552993, \"vy\": 0.0, \"vz\": 0.0}, \"acceleration\": {\"ax\": -0.2440694719552993, \"ay\": 0.0, \"az\": 0.0}, \"orientation\": {\"yaw\": 0.0, \"pitch\": 0.0, \"roll\": 0.0}, \"sensor\": \"fusion\", \"extras\": {}, \"record_hash\": \"2966730f420613941db11229ebe882856dee0876bda432b7e82576f8b26f46f1\", \"anomaly_flag\": 1}}", "sha3": "0e70268f38cc4c5b2a1af94d54e21acbf4d6e41ae22b9402fd900e5c66792e41872a8fab208622a0ce5bb9a8d5c4d2acc808d18f7919a21cf010a6d41fce194b"}
{"data": "{\"timestamp\": 1756825455.789832, \"event\": {\"timestamp_ns\": 1756825455756464128, \"agent_id\": \"apo\", \"domain\": \"drone\", \"source_format\": \"json\", \"position\": {\"x\": -0.006941660642623899, \"y\": 0.001618939489126204, \"z\": 0.0}, \"velocity\": {\"vx\": -0.04500965923070906, \"vy\": 0.0, \"vz\": 0.0}, \"acceleration\": {\"ax\": -0.2060271203517913, \"ay\": 0.0, \"az\": 0.0}, \"orientation\": {\"yaw\": 0.0, \"pitch\": 0.0, \"roll\": 0.0}, \"sensor\": \"fusion\", \"extras\": {}, \"record_hash\": \"552ca408874f35c1ee6618aafbd595e7480b6716a4b2875c8295b484b7ac8861\", \"anomaly_flag\": 1}}", "sha3": "5a1a5b2c83988373f4fa7063cd7980abcf3aed352fc82686437189eb543b488851a009827ae5ec67dd3ef91746e3579c6694b7cabd508609d8702969175922a5"}
{"data": "{\"timestamp\": 1756825455.8405514, \"event\": {\"timestamp_ns\": 1756825455811049984, \"agent_id\": \"apo\", \"domain\": \"drone\", \"source_format\": \"json\", \"position\": {\"x\": -0.013712545186281202, \"y\": 0.00203337326645851, \"z\": 0.0}, \"velocity\": {\"vx\": -0.06770884543657302, \"vy\": 0.0, \"vz\": 0.0}, \"acceleration\": {\"ax\": -0.2269918620586395, \"ay\": 0.0, \"az\": 0.0}, \"orientation\": {\"yaw\": 0.0, \"pitch\": 0.0, \"roll\": 0.0}, \"sensor\": \"fusion\", \"extras\": {}, \"record_hash\": \"44cf7cd54d2bd85c27dea9471a2fe52554771fda58e7c65139e5089224e17f56\", \"anomaly_flag\": 1}}", "sha3": "3ecd86f4d6c6152a87dac16f6fc9e2a9a20456480a70b774bd3218ecbe175f9fc9f61e62948e09a664345593195daee9038e4ff30effbacda3def0b3a914f503"}
{"data": "{\"timestamp\": 1756825455.9190803, \"event\": {\"timestamp_ns\": 1756825455861383936, \"agent_id\": \"apo\", \"domain\": \"drone\", \"source_format\": \"json\", \"position\": {\"x\": -0.022733879685401914, \"y\": 0.002852539643645285, \"z\": 0.0}, \"velocity\": {\"vx\": -0.0902133449912071, \"vy\": 0.0, \"vz\": 0.0}, \"acceleration\": {\"ax\": -0.2250449955463409, \"ay\": 0.0, \"az\": 0.0}, \"orientation\": {\"yaw\": 0.0, \"pitch\": 0.0, \"roll\": 0.0}, \"sensor\": \"fusion\", \"extras\": {}, \"record_hash\": \"5e0d555c309067c26d4233b38bbd29f0897c1cf7320ab7bfc94f0bc9d47ea218\", \"anomaly_flag\": 1}}", "sha3": "3151b57d0d76038bf4bd7e192f30ea29120ada2b02fc9dc0a4873b84b11ae3768bbd7581d6c10468cc12a5f390637ada79305cd0fff30c94485d8edbb5b4bc0a"}
{"data": "{\"timestamp\": 1756825455.9804995, \"event\": {\"timestamp_ns\": 1756825455940388864, \"agent_id\": \"apo\", \"domain\": \"drone\", \"source_format\": \"json\", \"position\": {\"x\": -0.03402513280510902, \"y\": 0.00327667474746704, \"z\": 0.0}, \"velocity\": {\"vx\": -0.11291253119707105, \"vy\": 0.0, \"vz\": 0.0}, \"acceleration\": {\"ax\": -0.2269918620586395, \"ay\": 0.0, \"az\": 0.0}, \"orientation\": {\"yaw\": 0.0, \"pitch\": 0.0, \"roll\": 0.0}, \"sensor\": \"fusion\", \"extras\": {}, \"record_hash\": \"8aac47129ea46f3b76407be16bb4f574df0d1fc6489899b82d7e8c2ad77033a0\", \"anomaly_flag\": 1}}", "sha3": "25e8e28722a5445991b389893c9bc7fe2d144e609f028aae46205a4f29687abbf5fd3b79ed37601843a7e81f546c9500c6b7cd54204c1bf5a299ed136ae402f2"}
{"data": "{\"timestamp\": 1756825456.0389118, \"event\": {\"timestamp_ns\": 1756825456001490176, \"agent_id\": \"apo\", \"domain\": \"drone\", \"source_format\": \"json\", \"position\": {\"x\": -0.047586304545402525, \"y\": 0.003305778577923775, \"z\": 0.0}, \"velocity\": {\"vx\": -0.135611717402935, \"vy\": 0.0, \"vz\": 0.0}, \"acceleration\": {\"ax\": -0.2269918620586395, \"ay\": 0.0, \"az\": 0.0}, \"orientation\": {\"yaw\": 0.0, \"pitch\": 0.0, \"roll\": 0.0}, \"sensor\": \"fusion\", \"extras\": {}, \"record_hash\": \"af491937ff7d0d6b489aada6313ebad647a7c6461add6c981747cbbe9ee56443\", \"anomaly_flag\": 1}}", "sha3": "e28ec017a655e887ca047e6dc617d0b8a5029b51b4bd0034550c059a5ac2e1e4da4fe354a3249f4b5767191f607749917e1b1b28e4f2d9b29c9ae4bb7eadf203"}
{"data": "{\"timestamp\": 1756825456.091586, \"event\": {\"timestamp_ns\": 1756825456060359936, \"agent_id\": \"apo\", \"domain\": \"drone\", \"source_format\": \"json\", \"position\": {\"x\": -0.06320768177509307, \"y\": 0.0033348729461431517, \"z\": 0.0}, \"velocity\": {\"vx\": -0.1562137722969055, \"vy\": 0.0, \"vz\": 0.0}, \"acceleration\": {\"ax\": -0.2060205489397049, \"ay\": 0.0, \"az\": 0.0}, \"orientation\": {\"yaw\": 0.0, \"pitch\": 0.0, \"roll\": 0.0}, \"sensor\": \"fusion\", \"extras\": {}, \"record_hash\": \"625e2d5bfee65940a58ef81279f304d3d650a571a1a973e766906bf79b525a8a\", \"anomaly_flag\": 1}}", "sha3": "b292ae16171f8d977ecee1c4bd38827c946c3c1978f35969e832ce68abf72fc2aaa98e79f00ab5302c34bcd20e59d2f5641ced96c88a360cbaad0f6c521c8f74"}
{"data": "{\"timestamp\": 1756825456.148325, \"event\": {\"timestamp_ns\": 1756825456113084928, \"agent_id\": \"apo\", \"domain\": \"drone\", \"source_format\": \"json\", \"position\": {\"x\": -0.08108925968408584, \"y\": 0.0033688179403543496, \"z\": 0.0}, \"velocity\": {\"vx\": -0.17881577908992766, \"vy\": 0.0, \"vz\": 0.0}, \"acceleration\": {\"ax\": -0.2260200679302216, \"ay\": 0.0, \"az\": 0.0}, \"orientation\": {\"yaw\": 0.0, \"pitch\": 0.0, \"roll\": 0.0}, \"sensor\": \"fusion\", \"extras\": {}, \"record_hash\": \"0ef996634dc93418aeeb9ca263c290764ef239f1f86758c50d19109b0fdd351b\", \"anomaly_flag\": 1}}", "sha3": "c48604734c177815106f6e7eaea499a029cf28d7febdf81c5bb3115d166174d51eca26040f1a2dbb2a1035915e22f4c3feab742591197eb843b2e090d75030f9"}
{"data": "{\"timestamp\": 1756825456.1989446, \"event\": {\"timestamp_ns\": 1756825456169449984, \"agent_id\": \"apo\", \"domain\": \"drone\", \"source_format\": \"json\", \"position\": {\"x\": -0.1010408267378807, \"y\": 0.0030028716474771533, \"z\": 0.0}, \"velocity\": {\"vx\": -0.19951567053794858, \"vy\": 0.0, \"vz\": 0.0}, \"acceleration\": {\"ax\": -0.2069989144802093, \"ay\": 0.0, \"az\": 0.0}, \"orientation\": {\"yaw\": 0.0, \"pitch\": 0.0, \"roll\": 0.0}, \"sensor\": \"fusion\", \"extras\": {}, \"record_hash\": \"301a479266b163f648fa1fb91ac678c5067216f5c1ce7075727469582ecbc105\", \"anomaly_flag\": 1}}", "sha3": "e1e378d9791898dbc3d65dbc9cfe0d73d6c926ab7c6c9b4d5e5ffe1c81787f84bf680c28410147b66cad0b22a9d314fd737801541bed66a885187b8e6c6d7ae9"}
{"data": "{\"timestamp\": 1756825456.2580879, \"event\": {\"timestamp_ns\": 1756825456220187904, \"agent_id\": \"apo\", \"domain\": \"drone\", \"source_format\": \"json\", \"position\": {\"x\": -0.1228721384704113, \"y\": 0.001832292079925542, \"z\": 0.0}, \"velocity\": {\"vx\": -0.21831311732530592, \"vy\": 0.0, \"vz\": 0.0}, \"acceleration\": {\"ax\": -0.1879744678735733, \"ay\": 0.0, \"az\": 0.0}, \"orientation\": {\"yaw\": 0.0, \"pitch\": 0.0, \"roll\": 0.0}, \"sensor\": \"fusion\", \"extras\": {}, \"record_hash\": \"185c7fafcf7d1ca2d91c24a641b438646993c08147e5174d7ddd63335bc25ba1\", \"anomaly_flag\": 1}}", "sha3": "2687f4ffce28b8082cf152a2d9c70e1ec4b0b2282cd4223dbe382e67e9f9cfa40b50054c21121db7f31dee7cf8789899acac4449f0ec636cc49377359ba182e4"}
{"data": "{\"timestamp\": 1756825456.3092299, \"event\": {\"timestamp_ns\": 1756825456279258112, \"agent_id\": \"apo\", \"domain\": \"drone\", \"source_format\": \"json\", \"position\": {\"x\": -0.1467637214064598, \"y\": 0.0006617031246423785, \"z\": 0.0}, \"velocity\": {\"vx\": -0.23891582936048505, \"vy\": 0.0, \"vz\": 0.0}, \"acceleration\": {\"ax\": -0.2060271203517913, \"ay\": 0.0, \"az\": 0.0}, \"orientation\": {\"yaw\": 0.0, \"pitch\": 0.0, \"roll\": 0.0}, \"sensor\": \"fusion\", \"extras\": {}, \"record_hash\": \"4f81e338740590bf4102599909b92c3ca443dbccfe3387d2cc3da6fb3c4543ba\", \"anomaly_flag\": 1}}", "sha3": "2be375454313058daa38c32c0fa902556b9c97cea17a0a70f4c784110c8c240182c6dca0e4bf44917f6ffe894f04f9fcedf80da31c2f0ec71be8a88bac87977f"}
{"data": "{\"timestamp\": 1756825456.362066, \"event\": {\"timestamp_ns\": 1756825456330210048, \"agent_id\": \"apo\", \"domain\": \"drone\", \"source_format\": \"json\", \"position\": {\"x\": -0.1725351145863533, \"y\": -0.001313519030809394, \"z\": 0.0}, \"velocity\": {\"vx\": -0.2577139317989349, \"vy\": 0.0, \"vz\": 0.0}, \"acceleration\": {\"ax\": -0.1879810243844986, \"ay\": 0.0, \"az\": 0.0}, \"orientation\": {\"yaw\": 0.0, \"pitch\": 0.0, \"roll\": 0.0}, \"sensor\": \"fusion\", \"extras\": {}, \"record_hash\": \"ca8a193a8d43df5f935636f7eb17393fed7bd46240e2b97bb12a83fb2ebb3e0a\", \"anomaly_flag\": 1}}", "sha3": "d919d926f15475ceef63938d6b6b29cf5713187e71305d4461156327c1831bddb0f75cfa3c807e29ea02e9e9954340de436c1db390ac047db6ebe57b0ab0bec1"}
{"data": "{\"timestamp\": 1756825456.4722412, \"event\": {\"timestamp_ns\": 1756825456383620096, \"agent_id\": \"apo\", \"domain\": \"drone\", \"source_format\": \"json\", \"position\": {\"x\": -0.200566708445549, \"y\": -0.0032838905602693455, \"z\": 0.0}, \"velocity\": {\"vx\": -0.2803159385919571, \"vy\": 0.0, \"vz\": 0.0}, \"acceleration\": {\"ax\": -0.2260200679302216, \"ay\": 0.0, \"az\": 0.0}, \"orientation\": {\"yaw\": 0.0, \"pitch\": 0.0, \"roll\": 0.0}, \"sensor\": \"fusion\", \"extras\": {}, \"record_hash\": \"9f6e06ab125b7da348d025ec9d54a013e2ad9089bc515da24c1beb3634c72378\", \"anomaly_flag\": 1}}", "sha3": "1df8eba612bb9af8d7c088d630702b5498af40e5f85bb963474f8079aee998130c691f299220bd8bbce9b9b0920ee7d906b851a2e912e5d6201208940bb5769a"}
{"data": "{\"timestamp\": 1756825456.5395105, \"event\": {\"timestamp_ns\": 1756825456493233920, \"agent_id\": \"apo\", \"domain\": \"drone\", \"source_format\": \"json\", \"position\": {\"x\": -0.2304586437344551, \"y\": -0.005259131640195834, \"z\": 0.0}, \"velocity\": {\"vx\": -0.29891935288906096, \"vy\": 0.0, \"vz\": 0.0}, \"acceleration\": {\"ax\": -0.1860341429710388, \"ay\": 0.0, \"az\": 0.0}, \"orientation\": {\"yaw\": 0.0, \"pitch\": 0.0, \"roll\": 0.0}, \"sensor\": \"fusion\", \"extras\": {}, \"record_hash\": \"2c49cbfbd04e7a343523c47f0b614bb1cf19ed6741b61f29475432c443abe9ee\", \"anomaly_flag\": 1}}", "sha3": "3daf576258e73ec4dde9e7fdbf4e1824d05dd67d98a433bec901925354b110c9db37d814c36281946abf659e92a2954e963e8827c13a33549c4ab51ecbd93ec7"}
{"data": "{\"timestamp\": 1756825456.609676, \"event\": {\"timestamp_ns\": 1756825456560587776, \"agent_id\": \"apo\", \"domain\": \"drone\", \"source_format\": \"json\", \"position\": {\"x\": -0.2620207744836807, \"y\": -0.007643984183669074, \"z\": 0.0}, \"velocity\": {\"vx\": -0.31562130749225614, \"vy\": 0.0, \"vz\": 0.0}, \"acceleration\": {\"ax\": -0.1670195460319519, \"ay\": 0.0, \"az\": 0.0}, \"orientation\": {\"yaw\": 0.0, \"pitch\": 0.0, \"roll\": 0.0}, \"sensor\": \"fusion\", \"extras\": {}, \"record_hash\": \"180ed6cbf94699dd711204d11cc3f5d4362c838c385934ae7bd8c5a95022525c\", \"anomaly_flag\": 1}}", "sha3": "d4596abd13263b024a433fd83dfc2a1e7eb2a39cd4a0a55233227ee262dda32096ff39de0e07efdc9b9bd39b95d8aa525d62c627062d157a0ac13d9fa1a8d8db"}
{"data": "{\"timestamp\": 1756825456.6972253, \"event\": {\"timestamp_ns\": 1756825456630553088, \"agent_id\": \"apo\", \"domain\": \"drone\", \"source_format\": \"json\", \"position\": {\"x\": -0.29565286144614217, \"y\": -0.010428728088736515, \"z\": 0.0}, \"velocity\": {\"vx\": -0.3363208696246147, \"vy\": 0.0, \"vz\": 0.0}, \"acceleration\": {\"ax\": -0.2069956213235855, \"ay\": 0.0, \"az\": 0.0}, \"orientation\": {\"yaw\": 0.0, \"pitch\": 0.0, \"roll\": 0.0}, \"sensor\": \"fusion\", \"extras\": {}, \"record_hash\": \"001fb6c2498087104fd48e2601174aa0b9e89a74fbff4cea6d373a5f1751f54e\", \"anomaly_flag\": 1}}", "sha3": "b899aed8dcdf4c34ef2ce71357e0c3deab361c2c97d2ac78b1426f326ba133eab3ec5665daacbdfc8b35b013a583c9219713994ca22f6feb19300bf70f3a4b06"}
{"data": "{\"timestamp\": 1756825456.7862487, \"event\": {\"timestamp_ns\": 1756825456718278912, \"agent_id\": \"apo\", \"domain\": \"drone\", \"source_format\": \"json\", \"position\": {\"x\": -0.3309647962450981, \"y\": -0.014022965431213357, \"z\": 0.0}, \"velocity\": {\"vx\": -0.3531193479895592, \"vy\": 0.0, \"vz\": 0.0}, \"acceleration\": {\"ax\": -0.1679847836494445, \"ay\": 0.0, \"az\": 0.0}, \"orientation\": {\"yaw\": 0.0, \"pitch\": 0.0, \"roll\": 0.0}, \"sensor\": \"fusion\", \"extras\": {}, \"record_hash\": \"3f0d49c14472f878318989768b459d1ee68c0d8e1628192479c309dd8909b910\", \"anomaly_flag\": 1}}", "sha3": "ef66b89cf4e46960dd4b6d912b5601705d1c5919596d4ca79059b4bb5068f29ae9da67ab640c71c9a0d01aece73967746329d0ed91968f48bb7910cf57f16857"}
{"data": "{\"timestamp\": 1756825456.8682241, \"event\": {\"timestamp_ns\": 1756825456808192000, \"agent_id\": \"apo\", \"domain\": \"drone\", \"source_format\": \"json\", \"position\": {\"x\": -0.36854658395051954, \"y\": -0.01801223397254941, \"z\": 0.0}, \"velocity\": {\"vx\": -0.3758178770542145, \"vy\": 0.0, \"vz\": 0.0}, \"acceleration\": {\"ax\": -0.226985290646553, \"ay\": 0.0, \"az\": 0.0}, \"orientation\": {\"yaw\": 0.0, \"pitch\": 0.0, \"roll\": 0.0}, \"sensor\": \"fusion\", \"extras\": {}, \"record_hash\": \"cada58f785ec91d7510967962af346130c40dda4a9823220bc0d9edd3693721b\", \"anomaly_flag\": 1}}", "sha3": "593fab2895496c0d0c6414dbcb59da2cd28aae0ee4f8f624d2e2cca6c3b21d4af53896473f51bf56b202caffb6192f45855cba488d3265daf59a605dce9c08f4"}
{"data": "{\"timestamp\": 1756825456.9347079, \"event\": {\"timestamp_ns\": 1756825456889538048, \"agent_id\": \"apo\", \"domain\": \"drone\", \"source_format\": \"json\", \"position\": {\"x\": -0.40818867564201355, \"y\": -0.022001511976122826, \"z\": 0.0}, \"velocity\": {\"vx\": -0.3964209169149399, \"vy\": 0.0, \"vz\": 0.0}, \"acceleration\": {\"ax\": -0.206030398607254, \"ay\": 0.0, \"az\": 0.0}, \"orientation\": {\"yaw\": 0.0, \"pitch\": 0.0, \"roll\": 0.0}, \"sensor\": \"fusion\", \"extras\": {}, \"record_hash\": \"2862badc4a823aa8d024e7bcfe96f81e07eb8ef43e5e890dac461d56d061404a\", \"anomaly_flag\": 1}}", "sha3": "4279068c97c1d2d9dff2f225a8ff075a9328db6cd9c1d74e0018821ea9ae94b0fcfb33954692cc5ee0d972b5cb699889839945e434bced63a52ba301f04fa888"}
{"data": "{\"timestamp\": 1756825457.02319, \"event\": {\"timestamp_ns\": 1756825456955558912, \"agent_id\": \"apo\", \"domain\": \"drone\", \"source_format\": \"json\", \"position\": {\"x\": -0.4500811842083931, \"y\": -0.02558605737984177, \"z\": 0.0}, \"velocity\": {\"vx\": -0.4189250856637955, \"vy\": 0.0, \"vz\": 0.0}, \"acceleration\": {\"ax\": -0.2250416874885559, \"ay\": 0.0, \"az\": 0.0}, \"orientation\": {\"yaw\": 0.0, \"pitch\": 0.0, \"roll\": 0.0}, \"sensor\": \"fusion\", \"extras\": {}, \"record_hash\": \"1144bb7325e1f23c057306dbc7263fc2c0aaf685edf5dee82ebca660c23cfaeb\", \"anomaly_flag\": 1}}", "sha3": "9bbbcf523cdce73c63a8374b3831752f0e96e96386fffeb35b4f55121a8d1c30b905c301be1c73ed6887a05e611504c6b83aca6335d82d0f0ce7e77ecbdd63be"}
{"data": "{\"timestamp\": 1756825457.1011155, \"event\": {\"timestamp_ns\": 1756825457044176128, \"agent_id\": \"apo\", \"domain\": \"drone\", \"source_format\": \"json\", \"position\": {\"x\": -0.49402424588799476, \"y\": -0.028770730271935427, \"z\": 0.0}, \"velocity\": {\"vx\": -0.4394306167960167, \"vy\": 0.0, \"vz\": 0.0}, \"acceleration\": {\"ax\": -0.2050553113222122, \"ay\": 0.0, \"az\": 0.0}, \"orientation\": {\"yaw\": 0.0, \"pitch\": 0.0, \"roll\": 0.0}, \"sensor\": \"fusion\", \"extras\": {}, \"record_hash\": \"8f1ac84ecf1c12f0bf926584fb8889699d55f7f657d0c6aa83d0b8bb865441f1\", \"anomaly_flag\": 1}}", "sha3": "e91019c0fd533bd9f4dd7d61109f3eba9fa7c914ca1615f15c8920bdce68761b3d5a6810380ee1a66d3860190270cbe2af36b79d741297b005ef8956ea927207"}
{"data": "{\"timestamp\": 1756825457.1913826, \"event\": {\"timestamp_ns\": 1756825457122309888, \"agent_id\": \"apo\", \"domain\": \"drone\", \"source_format\": \"json\", \"position\": {\"x\": -0.5396375030279159, \"y\": -0.032365014627575836, \"z\": 0.0}, \"velocity\": {\"vx\": -0.4561325713992119, \"vy\": 0.0, \"vz\": 0.0}, \"acceleration\": {\"ax\": -0.1670195460319519, \"ay\": 0.0, \"az\": 0.0}, \"orientation\": {\"yaw\": 0.0, \"pitch\": 0.0, \"roll\": 0.0}, \"sensor\": \"fusion\", \"extras\": {}, \"record_hash\": \"c5036743f8df530a92445f2fbf74f80a5fa8a0fcb8b620b81d9bea0a468a43b3\", \"anomaly_flag\": 1}}", "sha3": "e2887612c39a5e18cedfbc195cd9a7f64c5d9873571a1b4fe12bffc31da46a089b638ddb0bc06e597ec7f177329378ccc4c6e3ead2581382fcd46064b60dd3d1"}
{"data": "{\"timestamp\": 1756825457.2500768, \"event\": {\"timestamp_ns\": 1756825457212910848, \"agent_id\": \"apo\", \"domain\": \"drone\", \"source_format\": \"json\", \"position\": {\"x\": -0.5873013460636138, \"y\": -0.035559426546096756, \"z\": 0.0}, \"velocity\": {\"vx\": -0.47663843035697934, \"vy\": 0.0, \"vz\": 0.0}, \"acceleration\": {\"ax\": -0.2050585895776748, \"ay\": 0.0, \"az\": 0.0}, \"orientation\": {\"yaw\": 0.0, \"pitch\": 0.0, \"roll\": 0.0}, \"sensor\": \"fusion\", \"extras\": {}, \"record_hash\": \"c17061abd7afc360a88b7d73fe51a72242cd56ae663a1f2aca997d2fb8854494\", \"anomaly_flag\": 1}}", "sha3": "c2026ef66494ca02b3908156684c6edd824455a335b689a63f6aeb848322bbbe9df8c1e2f524ee20d302219aea6fe2220c5f9bb7f8fee29af5dd52f0729f5d76"}
{"data": "{\"timestamp\": 1756825457.3118172, \"event\": {\"timestamp_ns\": 1756825457271248128, \"agent_id\": \"apo\", \"domain\": \"drone\", \"source_format\": \"json\", \"position\": {\"x\": -0.6368255633115768, \"y\": -0.038758707866072606, \"z\": 0.0}, \"velocity\": {\"vx\": -0.4952421724796295, \"vy\": 0.0, \"vz\": 0.0}, \"acceleration\": {\"ax\": -0.1860374212265014, \"ay\": 0.0, \"az\": 0.0}, \"orientation\": {\"yaw\": 0.0, \"pitch\": 0.0, \"roll\": 0.0}, \"sensor\": \"fusion\", \"extras\": {}, \"record_hash\": \"1a7422c2b448a5bed19fe2c15ecbc748118a435a508b6a64979ef550e135aea8\", \"anomaly_flag\": 1}}", "sha3": "eeb0fbfe6778ec5da8dd84e48d099a388d806f52e6faa311475895f740469d12fd370e1156c59fcb4b111221b97aebe9e1e3cf84e32308d3cf20284f18366254"}
{"data": "{\"timestamp\": 1756825457.369427, \"event\": {\"timestamp_ns\": 1756825457333060096, \"agent_id\": \"apo\", \"domain\": \"drone\", \"source_format\": \"json\", \"position\": {\"x\": -0.6883635854721069, \"y\": -0.0419579984992742, \"z\": 0.0}, \"velocity\": {\"vx\": -0.5153802216053008, \"vy\": 0.0, \"vz\": 0.0}, \"acceleration\": {\"ax\": -0.2013804912567138, \"ay\": 0.0, \"az\": 0.0}, \"orientation\": {\"yaw\": 0.0, \"pitch\": 0.0, \"roll\": 0.0}, \"sensor\": \"fusion\", \"extras\": {}, \"record_hash\": \"ade6adf6c5510aeb8c3f02c90311b072d747deb0975d576f4cfce280c14fda40\", \"anomaly_flag\": 1}}", "sha3": "4e0f774b91e3f25738a44ed124f04430f3041b9655615a33ca78207e0e01a7ae0e3f37572e4ad39868edbf7187406120431b38eea2ec1c283674289f5360eec0"}
{"data": "{\"timestamp\": 1756825457.4200013, \"event\": {\"timestamp_ns\": 1756825457390557952, \"agent_id\": \"apo\", \"domain\": \"drone\", \"source_format\": \"json\", \"position\": {\"x\": -0.742361457645893, \"y\": -0.044747698381543105, \"z\": 0.0}, \"velocity\": {\"vx\": -0.5399787217378615, \"vy\": 0.0, \"vz\": 0.0}, \"acceleration\": {\"ax\": -0.2459850013256073, \"ay\": 0.0, \"az\": 0.0}, \"orientation\": {\"yaw\": 0.0, \"pitch\": 0.0, \"roll\": 0.0}, \"sensor\": \"fusion\", \"extras\": {}, \"record_hash\": \"602ee80c37381ab4ff7b0b79097f0a935e7262d5c70cc1122f40047f3d10fc77\", \"anomaly_flag\": 1}}", "sha3": "e2bcccd0d979d6af525fb52ce79987e0573f2d6bef551e4a24c12e83e169603bbe12c08e3960e04ba52a4d9bb0b24515026a4d9212a161429d4af50342523e91"}
{"data": "{\"timestamp\": 1756825457.4752095, \"event\": {\"timestamp_ns\": 1756825457441339136, \"agent_id\": \"apo\", \"domain\": \"drone\", \"source_format\": \"json\", \"position\": {\"x\": -0.798431896418333, \"y\": -0.04753741160035128, \"z\": 0.0}, \"velocity\": {\"vx\": -0.5607043877243995, \"vy\": 0.0, \"vz\": 0.0}, \"acceleration\": {\"ax\": -0.2072566598653793, \"ay\": 0.0, \"az\": 0.0}, \"orientation\": {\"yaw\": 0.0, \"pitch\": 0.0, \"roll\": 0.0}, \"sensor\": \"fusion\", \"extras\": {}, \"record_hash\": \"378e759ab3b691923e81512683e191f2deacdf2ffdcc2bcedc2ceef2f425f49c\", \"anomaly_flag\": 1}}", "sha3": "61a103075e1618b42e399c7987da46b0e5559682bc5312a013cdc5df3b97347d56236a37558f7fd7685c606543b237a2400e86e247cbf39b83b84c72da0ff8e6"}
{"data": "{\"timestamp\": 1756825457.5294297, \"event\": {\"timestamp_ns\": 1756825457496684032, \"agent_id\": \"apo\", \"domain\": \"drone\", \"source_format\": \"json\", \"position\": {\"x\": -0.8563755261898041, \"y\": -0.050332001149654325, \"z\": 0.0}, \"velocity\": {\"vx\": -0.5794362977147102, \"vy\": 0.0, \"vz\": 0.0}, \"acceleration\": {\"ax\": -0.1873190999031067, \"ay\": 0.0, \"az\": 0.0}, \"orientation\": {\"yaw\": 0.0, \"pitch\": 0.0, \"roll\": 0.0}, \"sensor\": \"fusion\", \"extras\": {}, \"record_hash\": \"0b053bd054b1b8f73f4e4b9f292adb22f668d9091695b59582078c85e6b1a5bb\", \"anomaly_flag\": 1}}", "sha3": "360275285af24bcde51539df506c1c98d46e54a2d0bd35fcdf9abff8acd27dcb6b76651820a8f8339cf793b156f9a404edec2c02153c9467b2dbd565f07fa714"}
{"data": "{\"timestamp\": 1756825457.5800908, \"event\": {\"timestamp_ns\": 1756825457550376960, \"agent_id\": \"apo\", \"domain\": \"drone\", \"source_format\": \"json\", \"position\": {\"x\": -0.9171559126675128, \"y\": -0.05230740815401071, \"z\": 0.0}, \"velocity\": {\"vx\": -0.6078038647770881, \"vy\": 0.0, \"vz\": 0.0}, \"acceleration\": {\"ax\": -0.2836756706237793, \"ay\": 0.0, \"az\": 0.0}, \"orientation\": {\"yaw\": 0.0, \"pitch\": 0.0, \"roll\": 0.0}, \"sensor\": \"fusion\", \"extras\": {}, \"record_hash\": \"979052f0c31622068699dfc9a65277baf8a783c8f1c69e1c1899ddc3aad2a94e\", \"anomaly_flag\": 1}}", "sha3": "8f6545ec66cd6a2a625e9d4c99439b63a7a469713b20ce015d62f6a87cc10dc243c0029194ef764d5f94252516c7849596165057f5b9e368500c09e530c235d7"}
{"data": "{\"timestamp\": 1756825457.6330645, \"event\": {\"timestamp_ns\": 1756825457601212928, \"agent_id\": \"apo\", \"domain\": \"drone\", \"source_format\": \"json\", \"position\": {\"x\": -0.9798321387171745, \"y\": -0.05508745700120919, \"z\": 0.0}, \"velocity\": {\"vx\": -0.6267622604966163, \"vy\": 0.0, \"vz\": 0.0}, \"acceleration\": {\"ax\": -0.189583957195282, \"ay\": 0.0, \"az\": 0.0}, \"orientation\": {\"yaw\": 0.0, \"pitch\": 0.0, \"roll\": 0.0}, \"sensor\": \"fusion\", \"extras\": {}, \"record_hash\": \"c950abb85ef039db28cff402a50a6a35ec40eb95cfe659b701cc5dbf3d405f9a\", \"anomaly_flag\": 1}}", "sha3": "b56a2264215fe7951df5f365caa5d88756ff74df42ed199037d9c269fd28e01d5e7c03100d760c17719bd00acbf1ca09e472692170ca1b2f05b7176e8b77abe9"}
{"data": "{\"timestamp\": 1756825457.6895308, \"event\": {\"timestamp_ns\": 1756825457654208000, \"agent_id\": \"apo\", \"domain\": \"drone\", \"source_format\": \"json\", \"position\": {\"x\": -1.0443741284310817, \"y\": -0.05867215037345879, \"z\": 0.0}, \"velocity\": {\"vx\": -0.6454198971390723, \"vy\": 0.0, \"vz\": 0.0}, \"acceleration\": {\"ax\": -0.1865763664245605, \"ay\": 0.0, \"az\": 0.0}, \"orientation\": {\"yaw\": 0.0, \"pitch\": 0.0, \"roll\": 0.0}, \"sensor\": \"fusion\", \"extras\": {}, \"record_hash\": \"099dcc19cd35be06cdd77967ea063db48937d407182195af1f795e6b232479c0\", \"anomaly_flag\": 1}}", "sha3": "86dfe47e86b7fb2c6b8b6128e975c1762fefc931b8282bbd0f20dea0aa2ae10b094e2641640fcbc293f4bf51d5174f4cdff3009cc50173092990328f49b25901"}
{"data": "{\"timestamp\": 1756825457.7466195, \"event\": {\"timestamp_ns\": 1756825457710877952, \"agent_id\": \"apo\", \"domain\": \"drone\", \"source_format\": \"json\", \"position\": {\"x\": -1.110978117585182, \"y\": -0.06185698270797722, \"z\": 0.0}, \"velocity\": {\"vx\": -0.6660398915410041, \"vy\": 0.0, \"vz\": 0.0}, \"acceleration\": {\"ax\": -0.2061999440193176, \"ay\": 0.0, \"az\": 0.0}, \"orientation\": {\"yaw\": 0.0, \"pitch\": 0.0, \"roll\": 0.0}, \"sensor\": \"fusion\", \"extras\": {}, \"record_hash\": \"e2048f8faa23f7093f2c492320d50710a820c9bc87b9b937498efd55b6666582\", \"anomaly_flag\": 1}}", "sha3": "484fbb017ce5887c30bc00717a6cf12bb15e41f3fd43d554df55ee889a98abf3991cd4af16ce6fd7a923845a3d0f2c517571293324b14723c87cc09289894603"}
{"data": "{\"timestamp\": 1756825457.8028543, \"event\": {\"timestamp_ns\": 1756825457767942912, \"agent_id\": \"apo\", \"domain\": \"drone\", \"source_format\": \"json\", \"position\": {\"x\": -1.1798432962596415, \"y\": -0.06503697551786893, \"z\": 0.0}, \"velocity\": {\"vx\": -0.6886517867445945, \"vy\": 0.0, \"vz\": 0.0}, \"acceleration\": {\"ax\": -0.2261189520359039, \"ay\": 0.0, \"az\": 0.0}, \"orientation\": {\"yaw\": 0.0, \"pitch\": 0.0, \"roll\": 0.0}, \"sensor\": \"fusion\", \"extras\": {}, \"record_hash\": \"c9361f8520513661dd4bda692998e804a9a8c0125e1197012cdf2ab61a239383\", \"anomaly_flag\": 1}}", "sha3": "296ce961023e5a1be6c6f285f2d6354c9a738b9ed049f652fc9b65daf9d352f3a69d739ab987103d981e8b0798714f6f92d3b2c969a3055a333dfe224add88f9"}
{"data": "{\"timestamp\": 1756825457.8612437, \"event\": {\"timestamp_ns\": 1756825457823842048, \"agent_id\": \"apo\", \"domain\": \"drone\", \"source_format\": \"json\", \"position\": {\"x\": -1.2505691990256307, \"y\": -0.06822184734046452, \"z\": 0.0}, \"velocity\": {\"vx\": -0.7072590276598929, \"vy\": 0.0, \"vz\": 0.0}, \"acceleration\": {\"ax\": -0.1860724091529846, \"ay\": 0.0, \"az\": 0.0}, \"orientation\": {\"yaw\": 0.0, \"pitch\": 0.0, \"roll\": 0.0}, \"sensor\": \"fusion\", \"extras\": {}, \"record_hash\": \"a4574030e755593aea2017cd436108c6b8e087f82b6fc5cfa438c288b8ff9d28\", \"anomaly_flag\": 1}}", "sha3": "0ea11190a9420adadb4bbb82114351633807f8f2623314d7c5c1ee8bb78db7b4e189e7d1d94600e99e343e481962bf9d703e2316d71ed01cd9ce7b104c88e10a"}
{"data": "{\"timestamp\": 1756825457.9156477, \"event\": {\"timestamp_ns\": 1756825457882322944, \"agent_id\": \"apo\", \"domain\": \"drone\", \"source_format\": \"json\", \"position\": {\"x\": -1.3231366853415962, \"y\": -0.07061183325946324, \"z\": 0.0}, \"velocity\": {\"vx\": -0.7256748631596563, \"vy\": 0.0, \"vz\": 0.0}, \"acceleration\": {\"ax\": -0.1841583549976349, \"ay\": 0.0, \"az\": 0.0}, \"orientation\": {\"yaw\": 0.0, \"pitch\": 0.0, \"roll\": 0.0}, \"sensor\": \"fusion\", \"extras\": {}, \"record_hash\": \"43361f0f899551b925ef2644068d46e7189f163fae5fecb25e4af610751f6f97\", \"anomaly_flag\": 1}}", "sha3": "c4ce3efcb5837b31d55ec5705f78dc9005597eb7c240ca256dc0b35670c48640e85318f6eba0604816395e7b652c6b512309cde8465d5803c0957c6c3b395ceb"}
{"data": "{\"timestamp\": 1756825457.9678285, \"event\": {\"timestamp_ns\": 1756825457937060096, \"agent_id\": \"apo\", \"domain\": \"drone\", \"source_format\": \"json\", \"position\": {\"x\": -1.397570636719465, \"y\": -0.07340657982975238, \"z\": 0.0}, \"velocity\": {\"vx\": -0.7443395137786863, \"vy\": 0.0, \"vz\": 0.0}, \"acceleration\": {\"ax\": -0.1866465061903, \"ay\": 0.0, \"az\": 0.0}, \"orientation\": {\"yaw\": 0.0, \"pitch\": 0.0, \"roll\": 0.0}, \"sensor\": \"fusion\", \"extras\": {}, \"record_hash\": \"48218210ffa49c93fe7016f64ed7597512e70d9dc05f1886891e79c241ac7a34\", \"anomaly_flag\": 1}}", "sha3": "7bb86cd42336e271c71b3f6e718777ca1deeba940077864f22f29165e1576aba9a5440a07cfbcb83c27bf818aafff88c11e6a88e181e6eeb255990d0dbe8771e"}
{"data": "{\"timestamp\": 1756825458.0201283, \"event\": {\"timestamp_ns\": 1756825457989430016, \"agent_id\": \"apo\", \"domain\": \"drone\", \"source_format\": \"json\", \"position\": {\"x\": -1.4744384649395939, \"y\": -0.07539185985922806, \"z\": 0.0}, \"velocity\": {\"vx\": -0.76867828220129, \"vy\": 0.0, \"vz\": 0.0}, \"acceleration\": {\"ax\": -0.2433876842260361, \"ay\": 0.0, \"az\": 0.0}, \"orientation\": {\"yaw\": 0.0, \"pitch\": 0.0, \"roll\": 0.0}, \"sensor\": \"fusion\", \"extras\": {}, \"record_hash\": \"91e7bcc570ab7cc80b4c7ded7949372ae8228f65b7a498977534fda87c512d86\", \"anomaly_flag\": 1}}", "sha3": "e4274e6de60e68969bd70899a37843618543af73eab2d5ac5bbb8b91d200505ae8a75e82f9518d658ff56f6059e3f24021b57f86360560f2ad78de638e163fa2"}
{"data": "{\"timestamp\": 1756825458.073629, \"event\": {\"timestamp_ns\": 1756825458041420032, \"agent_id\": \"apo\", \"domain\": \"drone\", \"source_format\": \"json\", \"position\": {\"x\": -1.5529967287182804, \"y\": -0.0785865217819809, \"z\": 0.0}, \"velocity\": {\"vx\": -0.7855826377868651, \"vy\": 0.0, \"vz\": 0.0}, \"acceleration\": {\"ax\": -0.169043555855751, \"ay\": 0.0, \"az\": 0.0}, \"orientation\": {\"yaw\": 0.0, \"pitch\": 0.0, \"roll\": 0.0}, \"sensor\": \"fusion\", \"extras\": {}, \"record_hash\": \"1cc1af7e335e76f0ae27b9042bc3c16c181d3642ef11e9cbb9f09d72df554676\", \"anomaly_flag\": 1}}", "sha3": "83cb1ab81cf5af0e92739bc9108e8c8fcf8fdcf21c822c658c9d3729099c96d440078f3048aa791079035d41edd37d4930248208dea7ff4a8d4b43500e91d3ab"}
{"data": "{\"timestamp\": 1756825458.1373792, \"event\": {\"timestamp_ns\": 1756825458094973952, \"agent_id\": \"apo\", \"domain\": \"drone\", \"source_format\": \"json\", \"position\": {\"x\": -1.6335901151597496, \"y\": -0.08138131655752649, \"z\": 0.0}, \"velocity\": {\"vx\": -0.8059338644146918, \"vy\": 0.0, \"vz\": 0.0}, \"acceleration\": {\"ax\": -0.2035122662782669, \"ay\": 0.0, \"az\": 0.0}, \"orientation\": {\"yaw\": 0.0, \"pitch\": 0.0, \"roll\": 0.0}, \"sensor\": \"fusion\", \"extras\": {}, \"record_hash\": \"84d49ebc43632700c0f1d9c024f075f27c4308deb56ba4ffe9debb5336a75a60\", \"anomaly_flag\": 1}}", "sha3": "04338a5ef60b0e953efbd98038a97259ed6df1b42deb3a09e46fe288a877c144be58582f411ac18ac5fcd02c56356f2f86b92aa4b6683ff36b426684214f0387"}
{"data": "{\"timestamp\": 1756825458.1889713, \"event\": {\"timestamp_ns\": 1756825458158576128, \"agent_id\": \"apo\", \"domain\": \"drone\", \"source_format\": \"json\", \"position\": {\"x\": -1.7162650746107098, \"y\": -0.08497588980942955, \"z\": 0.0}, \"velocity\": {\"vx\": -0.8267495945096015, \"vy\": 0.0, \"vz\": 0.0}, \"acceleration\": {\"ax\": -0.2081573009490966, \"ay\": 0.0, \"az\": 0.0}, \"orientation\": {\"yaw\": 0.0, \"pitch\": 0.0, \"roll\": 0.0}, \"sensor\": \"fusion\", \"extras\": {}, \"record_hash\": \"fae4bc2c3edb93285a1d7ceaba6ce4ff884c7b798617ad7460f873a5ba4ed2c6\", \"anomaly_flag\": 1}}", "sha3": "5bdc9ee75bd2bf39bea2c27d4aeb4c1d38d442469a2367a2aa00a14b48bd33e2c7c670c6540458f10a5779b8c38edea6df17841705f8e3113d37e8e96d39653a"}
{"data": "{\"timestamp\": 1756825458.247118, \"event\": {\"timestamp_ns\": 1756825458210223872, \"agent_id\": \"apo\", \"domain\": \"drone\", \"source_format\": \"json\", \"position\": {\"x\": -1.8011855836212631, \"y\": -0.08816573597490777, \"z\": 0.0}, \"velocity\": {\"vx\": -0.8492050901055335, \"vy\": 0.0, \"vz\": 0.0}, \"acceleration\": {\"ax\": -0.22455495595932, \"ay\": 0.0, \"az\": 0.0}, \"orientation\": {\"yaw\": 0.0, \"pitch\": 0.0, \"roll\": 0.0}, \"sensor\": \"fusion\", \"extras\": {}, \"record_hash\": \"9aaa5aaa2d76e94f71ae0695576f3334f3255a437386be2bffa03b14cbf0fe7b\", \"anomaly_flag\": 1}}", "sha3": "892ecf642e8327962e992a9c2c048fa708cb4daf9036c63b7343e45cb0c6174f5f4059f8592de8a936fe609b0344078f1ee799d48f31c4cb6abaf52deaaad2f7"}
{"data": "{\"timestamp\": 1756825458.3131428, \"event\": {\"timestamp_ns\": 1756825458268574976, \"agent_id\": \"apo\", \"domain\": \"drone\", \"source_format\": \"json\", \"position\": {\"x\": -1.8877624455094333, \"y\": -0.09176519881933917, \"z\": 0.0}, \"velocity\": {\"vx\": -0.8657686188817023, \"vy\": 0.0, \"vz\": 0.0}, \"acceleration\": {\"ax\": -0.1656352877616882, \"ay\": 0.0, \"az\": 0.0}, \"orientation\": {\"yaw\": 0.0, \"pitch\": 0.0, \"roll\": 0.0}, \"sensor\": \"fusion\", \"extras\": {}, \"record_hash\": \"7359e0cdf25a9d861f97630b9d665e26a4d548d76b062c4e670e9057d37b1c99\", \"anomaly_flag\": 1}}", "sha3": "ecdce2d1a6cc9f0317fff3c50356884b26b27b21fc396c35794b25ec035fb038c7f20224b2fe59bb8e428405ec68b76542bc8184cea6e747e70e7ad2cd8a8b25"}
{"data": "{\"timestamp\": 1756825458.3639734, \"event\": {\"timestamp_ns\": 1756825458334456064, \"agent_id\": \"apo\", \"domain\": \"drone\", \"source_format\": \"json\", \"position\": {\"x\": -1.9762224051356312, \"y\": -0.09616930030286301, \"z\": 0.0}, \"velocity\": {\"vx\": -0.884599596261978, \"vy\": 0.0, \"vz\": 0.0}, \"acceleration\": {\"ax\": -0.1883097738027572, \"ay\": 0.0, \"az\": 0.0}, \"orientation\": {\"yaw\": 0.0, \"pitch\": 0.0, \"roll\": 0.0}, \"sensor\": \"fusion\", \"extras\": {}, \"record_hash\": \"c398337d14716133ce24153161385dc3b28b4e5dc9d596d9752b924c7e070071\", \"anomaly_flag\": 1}}", "sha3": "b47bcaba3abc4e8290176873f1e5c26cef81f64ce482176e4abbdc01379cae6355315e652cb1609edb3e41a0ac9e83b72817c2bd9d49dda36a8796baf8ee71f1"}
{"data": "{\"timestamp\": 1756825458.4293816, \"event\": {\"timestamp_ns\": 1756825458385312000, \"agent_id\": \"apo\", \"domain\": \"drone\", \"source_format\": \"json\", \"position\": {\"x\": -2.066920004636049, \"y\": -0.09976879227906454, \"z\": 0.0}, \"velocity\": {\"vx\": -0.906975995004177, \"vy\": 0.0, \"vz\": 0.0}, \"acceleration\": {\"ax\": -0.2237639874219894, \"ay\": 0.0, \"az\": 0.0}, \"orientation\": {\"yaw\": 0.0, \"pitch\": 0.0, \"roll\": 0.0}, \"sensor\": \"fusion\", \"extras\": {}, \"record_hash\": \"19e9838d851054e63df045066813ca2981788f08d9800c0d8a2e1b644d0b44ac\", \"anomaly_flag\": 1}}", "sha3": "6bf1cb00a78b94f53ca325b262c361e4391aafd7f1a4036ccd4b05d5cbff7f202b19f1698fd210ebaee58bd33b2235d95b2b5cb2320c6f98d7beea07eefcfc62"}
{"data": "{\"timestamp\": 1756825458.487733, \"event\": {\"timestamp_ns\": 1756825458450694144, \"agent_id\": \"apo\", \"domain\": \"drone\", \"source_format\": \"json\", \"position\": {\"x\": -2.159863423109054, \"y\": -0.1029635566473006, \"z\": 0.0}, \"velocity\": {\"vx\": -0.9294341847300529, \"vy\": 0.0, \"vz\": 0.0}, \"acceleration\": {\"ax\": -0.2245818972587585, \"ay\": 0.0, \"az\": 0.0}, \"orientation\": {\"yaw\": 0.0, \"pitch\": 0.0, \"roll\": 0.0}, \"sensor\": \"fusion\", \"extras\": {}, \"record_hash\": \"25b87c6d47cff0563e2881d82519c13c4787dd19014e847a617585c1a7ad0650\", \"anomaly_flag\": 1}}", "sha3": "04233056718d2697250f803b31c230ea602275324378de6f1b991382093fb21f4e772a5f17237b7329e97e8a5225c0ccfb17d55f5c4d72ffed0f126806fe3c6d"}
{"data": "{\"timestamp\": 1756825458.552317, \"event\": {\"timestamp_ns\": 1756825458508708096, \"agent_id\": \"apo\", \"domain\": \"drone\", \"source_format\": \"json\", \"position\": {\"x\": -2.2540722094476218, \"y\": -0.10697753947228181, \"z\": 0.0}, \"velocity\": {\"vx\": -0.9420878633856773, \"vy\": 0.0, \"vz\": 0.0}, \"acceleration\": {\"ax\": -0.1265367865562439, \"ay\": 0.0, \"az\": 0.0}, \"orientation\": {\"yaw\": 0.0, \"pitch\": 0.0, \"roll\": 0.0}, \"sensor\": \"fusion\", \"extras\": {}, \"record_hash\": \"2adc6ff765931ae04576f2d6fae7274f0a1b0a9edf89c9f669ab8ecfa53f939a\", \"anomaly_flag\": 1}}", "sha3": "e4cb15e812097dfd4d964e566e71f54867e8d482ab3ee12a7c888d6cf405f2b320a3be6c5797cbcd9f67f3e429eeacb3755ab83c0eae5e905eb92691539be81a"}
{"data": "{\"timestamp\": 1756825458.6137753, \"event\": {\"timestamp_ns\": 1756825458573142016, \"agent_id\": \"apo\", \"domain\": \"drone\", \"source_format\": \"json\", \"position\": {\"x\": -2.350925785005092, \"y\": -0.11017719618976103, \"z\": 0.0}, \"velocity\": {\"vx\": -0.9685357555747032, \"vy\": 0.0, \"vz\": 0.0}, \"acceleration\": {\"ax\": -0.2644789218902588, \"ay\": 0.0, \"az\": 0.0}, \"orientation\": {\"yaw\": 0.0, \"pitch\": 0.0, \"roll\": 0.0}, \"sensor\": \"fusion\", \"extras\": {}, \"record_hash\": \"5a87b17715d47f62efa3c5077c7411d675c289e0a125878803dfd63a3838fc66\", \"anomaly_flag\": 1}}", "sha3": "08278b12c26bcc305601a7acf86cd12df204cd3c5649c055f6a9b5353cc7a8f11204903bb7acf0b12a292fcdf7498c07de770508bbdb25d6c862e8f41ca4355e"}
{"data": "{\"timestamp\": 1756825458.6859908, \"event\": {\"timestamp_ns\": 1756825458634668032, \"agent_id\": \"apo\", \"domain\": \"drone\", \"source_format\": \"json\", \"position\": {\"x\": -2.449646609872579, \"y\": -0.113781612664461, \"z\": 0.0}, \"velocity\": {\"vx\": -0.9872082486748694, \"vy\": 0.0, \"vz\": 0.0}, \"acceleration\": {\"ax\": -0.1867249310016632, \"ay\": 0.0, \"az\": 0.0}, \"orientation\": {\"yaw\": 0.0, \"pitch\": 0.0, \"roll\": 0.0}, \"sensor\": \"fusion\", \"extras\": {}, \"record_hash\": \"2bebe33be3ac8114fd563474ae424cb80918de713e6c2d9943f15a61fd6030a2\", \"anomaly_flag\": 1}}", "sha3": "d59860ce559f3f305d93fae4fb14b1a77e7dc9febace2bad672223337f1a21f44a5ae4c96d680626e36ee0891f7ea45ce91414148c0e9cb75ff042f6e95b708c"}
{"data": "{\"timestamp\": 1756825458.7521946, \"event\": {\"timestamp_ns\": 1756825458707015936, \"agent_id\": \"apo\", \"domain\": \"drone\", \"source_format\": \"json\", \"position\": {\"x\": -2.5502236109971994, \"y\": -0.11739090234041201, \"z\": 0.0}, \"velocity\": {\"vx\": -1.0057700112462042, \"vy\": 0.0, \"vz\": 0.0}, \"acceleration\": {\"ax\": -0.1856176257133484, \"ay\": 0.0, \"az\": 0.0}, \"orientation\": {\"yaw\": 0.0, \"pitch\": 0.0, \"roll\": 0.0}, \"sensor\": \"fusion\", \"extras\": {}, \"record_hash\": \"b68e9d6131775c3d6854e4c7d4df02be452aeaf2585ef6a03ff01b0f1c7445e0\", \"anomaly_flag\": 1}}", "sha3": "72ec14ddd21c18eb3bb92baae3f5924689136540497cccd1b7ecc35a532216e08421dd34e8cfb4cbfcfa9cd771c110d3176eb8425f4b1464ccdc3083637d11d4"}
{"data": "{\"timestamp\": 1756825458.8262138, \"event\": {\"timestamp_ns\": 1756825458773240064, \"agent_id\": \"apo\", \"domain\": \"drone\", \"source_format\": \"json\", \"position\": {\"x\": -2.6530297131836407, \"y\": -0.1201955813914536, \"z\": 0.0}, \"velocity\": {\"vx\": -1.0280610218644142, \"vy\": 0.0, \"vz\": 0.0}, \"acceleration\": {\"ax\": -0.2229101061820984, \"ay\": 0.0, \"az\": 0.0}, \"orientation\": {\"yaw\": 0.0, \"pitch\": 0.0, \"roll\": 0.0}, \"sensor\": \"fusion\", \"extras\": {}, \"record_hash\": \"cd48ed16c3f6b84d68443d3fdd8fd6c53694cec00360ce70199951e167ecf199\", \"anomaly_flag\": 1}}", "sha3": "8167b47912242415ce96aca01ae5b0ff125ee045f057c23504c8de68a6a56d0b184c54b82b97dd2bdfc6fc287616e66e3dc65b6a2d1c6c67e5bc05b7ff9bc647"}
{"data": "{\"timestamp\": 1756825458.9085429, \"event\": {\"timestamp_ns\": 1756825458847634944, \"agent_id\": \"apo\", \"domain\": \"drone\", \"source_format\": \"json\", \"position\": {\"x\": -2.757905928492545, \"y\": -0.12340015560388551, \"z\": 0.0}, \"velocity\": {\"vx\": -1.0487621530890465, \"vy\": 0.0, \"vz\": 0.0}, \"acceleration\": {\"ax\": -0.2070113122463226, \"ay\": 0.0, \"az\": 0.0}, \"orientation\": {\"yaw\": 0.0, \"pitch\": 0.0, \"roll\": 0.0}, \"sensor\": \"fusion\", \"extras\": {}, \"record_hash\": \"a772366ccd3fcdb4f3e6d2fad93225cc58645d16a4ee8c6919995a6c456c7008\", \"anomaly_flag\": 1}}", "sha3": "fd1e1244f4bedc4b2b425f10ac6c1bf27554455cbd315b36a3c88413655000b166bf3b83cdbaee95cf763811f5fee6567daceede41b82e93aea6f83be39e32a6"}
{"data": "{\"timestamp\": 1756825458.9781804, \"event\": {\"timestamp_ns\": 1756825458929501184, \"agent_id\": \"apo\", \"domain\": \"drone\", \"source_format\": \"json\", \"position\": {\"x\": -2.865220810919999, \"y\": -0.12619514085352407, \"z\": 0.0}, \"velocity\": {\"vx\": -1.07314882427454, \"vy\": 0.0, \"vz\": 0.0}, \"acceleration\": {\"ax\": -0.2438667118549347, \"ay\": 0.0, \"az\": 0.0}, \"orientation\": {\"yaw\": 0.0, \"pitch\": 0.0, \"roll\": 0.0}, \"sensor\": \"fusion\", \"extras\": {}, \"record_hash\": \"6590383e3d82d771705b0595d66ecd8e1442a229607bed494cec4d416400a282\", \"anomaly_flag\": 1}}", "sha3": "8e30ec8972fbb3de6eaa60f2c874e4a06ef3317bfd48e8412c586d3905d414e67c08dbd618b6fe1cd097f4cf4c2e6d8f4bbcef4d16a4ccbdbc247123bfad1535"}
{"data": "{\"timestamp\": 1756825459.0320733, \"event\": {\"timestamp_ns\": 1756825458998994944, \"agent_id\": \"apo\", \"domain\": \"drone\", \"source_format\": \"json\", \"position\": {\"x\": -2.974401155114173, \"y\": -0.12899499177932724, \"z\": 0.0}, \"velocity\": {\"vx\": -1.0918034419417382, \"vy\": 0.0, \"vz\": 0.0}, \"acceleration\": {\"ax\": -0.1865461766719818, \"ay\": 0.0, \"az\": 0.0}, \"orientation\": {\"yaw\": 0.0, \"pitch\": 0.0, \"roll\": 0.0}, \"sensor\": \"fusion\", \"extras\": {}, \"record_hash\": \"a334049b873ed85bbc9dafed5bffc2a2f42f7378ca8178b84075a06514229149\", \"anomaly_flag\": 1}}", "sha3": "b845bfeb9021501f6c2cbfe7f5e6c60ec39e195d5ce7d366e1eb8aefa288ea6307de9289031587340cdefc659487b266b9e46d7e4c06655656e50d15467a72d0"}
{"data": "{\"timestamp\": 1756825459.09465, \"event\": {\"timestamp_ns\": 1756825459053446144, \"agent_id\": \"apo\", \"domain\": \"drone\", \"source_format\": \"json\", \"position\": {\"x\": -3.0854392014443865, \"y\": -0.13179970838129504, \"z\": 0.0}, \"velocity\": {\"vx\": -1.1103804633021355, \"vy\": 0.0, \"vz\": 0.0}, \"acceleration\": {\"ax\": -0.1857702136039734, \"ay\": 0.0, \"az\": 0.0}, \"orientation\": {\"yaw\": 0.0, \"pitch\": 0.0, \"roll\": 0.0}, \"sensor\": \"fusion\", \"extras\": {}, \"record_hash\": \"812749b561f3ab96dfef98b90de4acd4a10cf8dc4ff8d437fdeefa1e95348777\", \"anomaly_flag\": 1}}", "sha3": "93722c201ddfe3b6d5c0d3a216190dfca6b66997e10903a75fe5d6cb248793a4d2d6ac076e2debd6057c6e3571b427a1a03a92ba3aa37c59692a5a6203d37c76"}
{"data": "{\"timestamp\": 1756825459.153175, \"event\": {\"timestamp_ns\": 1756825459116141056, \"agent_id\": \"apo\", \"domain\": \"drone\", \"source_format\": \"json\", \"position\": {\"x\": -3.1985298050940028, \"y\": -0.13460443057119828, \"z\": 0.0}, \"velocity\": {\"vx\": -1.1309060364961625, \"vy\": 0.0, \"vz\": 0.0}, \"acceleration\": {\"ax\": -0.2052557319402694, \"ay\": 0.0, \"az\": 0.0}, \"orientation\": {\"yaw\": 0.0, \"pitch\": 0.0, \"roll\": 0.0}, \"sensor\": \"fusion\", \"extras\": {}, \"record_hash\": \"bb5f233e29a784d8ff3af57d4c3b5a80ac4ef6675a2f544094a4236388716d7c\", \"anomaly_flag\": 1}}", "sha3": "ac9bf317a10acbd469390f7a760d4483a8218cc91d1bfb2e345f673cdafc8845d9dba08e13deadebf75ea568e60b93e9ea08e9a4326fa72453b683f81b9ebbb3"}
{"data": "{\"timestamp\": 1756825459.234089, \"event\": {\"timestamp_ns\": 1756825459174416896, \"agent_id\": \"apo\", \"domain\": \"drone\", \"source_format\": \"json\", \"position\": {\"x\": -3.3134972850978364, \"y\": -0.13821378231048564, \"z\": 0.0}, \"velocity\": {\"vx\": -1.1496748000383379, \"vy\": 0.0, \"vz\": 0.0}, \"acceleration\": {\"ax\": -0.1876876354217529, \"ay\": 0.0, \"az\": 0.0}, \"orientation\": {\"yaw\": 0.0, \"pitch\": 0.0, \"roll\": 0.0}, \"sensor\": \"fusion\", \"extras\": {}, \"record_hash\": \"841faa025248da94f31241a94c43fea852e8606c60c472d4f905bee4890e15dc\", \"anomaly_flag\": 1}}", "sha3": "c2de3567f7d3cbf3347ff668426ca519eab1b011e1e10a4d7d82464f66a2ce384a8bf082a629ed4745b047e801c32bf594a0522323d419d11cfc503092bb2de2"}
{"data": "{\"timestamp\": 1756825459.298197, \"event\": {\"timestamp_ns\": 1756825459255322880, \"agent_id\": \"apo\", \"domain\": \"drone\", \"source_format\": \"json\", \"position\": {\"x\": -3.430337569415568, \"y\": -0.14262775786221008, \"z\": 0.0}, \"velocity\": {\"vx\": -1.1684028431773188, \"vy\": 0.0, \"vz\": 0.0}, \"acceleration\": {\"ax\": -0.1872804313898086, \"ay\": 0.0, \"az\": 0.0}, \"orientation\": {\"yaw\": 0.0, \"pitch\": 0.0, \"roll\": 0.0}, \"sensor\": \"fusion\", \"extras\": {}, \"record_hash\": \"74139f2c4c142e3a3dae9a6ab182f9f14744ad3113fd994ffb12ee9def6d5896\", \"anomaly_flag\": 1}}", "sha3": "d135481e57be186ee52fef9dd6de439b4dfc62613268742d63aab60676c22385388bbddf89f2774bc8eed33deb59c1898e192b3c6c8eb67b756462b0b236ad08"}
{"data": "{\"timestamp\": 1756825459.3601925, \"event\": {\"timestamp_ns\": 1756825459319403776, \"agent_id\": \"apo\", \"domain\": \"drone\", \"source_format\": \"json\", \"position\": {\"x\": -3.54981350198388, \"y\": -0.14622738927602746, \"z\": 0.0}, \"velocity\": {\"vx\": -1.194759325683117, \"vy\": 0.0, \"vz\": 0.0}, \"acceleration\": {\"ax\": -0.2635648250579834, \"ay\": 0.0, \"az\": 0.0}, \"orientation\": {\"yaw\": 0.0, \"pitch\": 0.0, \"roll\": 0.0}, \"sensor\": \"fusion\", \"extras\": {}, \"record_hash\": \"7e27c027d6362e31a8ddc830bba0b9f20f1329537dff633af5021b593d3879e5\", \"anomaly_flag\": 1}}", "sha3": "2c384c492854f90356bdef9e477eb0344d074f3844cb6b898437e3effcaef723f1ca9855de0f158e4ff051d42e4e3bfbdde39c0fcdf7ce3935718d6d5bc83303"}
{"data": "{\"timestamp\": 1756825459.4233522, \"event\": {\"timestamp_ns\": 1756825459381496064, \"agent_id\": \"apo\", \"domain\": \"drone\", \"source_format\": \"json\", \"position\": {\"x\": -3.6711360639333717, \"y\": -0.14943199872970558, \"z\": 0.0}, \"velocity\": {\"vx\": -1.2132256194949151, \"vy\": 0.0, \"vz\": 0.0}, \"acceleration\": {\"ax\": -0.1846629381179809, \"ay\": 0.0, \"az\": 0.0}, \"orientation\": {\"yaw\": 0.0, \"pitch\": 0.0, \"roll\": 0.0}, \"sensor\": \"fusion\", \"extras\": {}, \"record_hash\": \"bd78469e4da17e3d480ea6442926d584cefcaff845616785f71a478a5b697a58\", \"anomaly_flag\": 1}}", "sha3": "3de465f80c7d5bb457f4526c540e06ecb783e84c986cb06ed2e290846d482a536e1ef138982e4d556c39e301653712a1b7ed71332e6ea65b3f763abf9f0b7e62"}
{"data": "{\"timestamp\": 1756825459.483106, \"event\": {\"timestamp_ns\": 1756825459444657920, \"agent_id\": \"apo\", \"domain\": \"drone\", \"source_format\": \"json\", \"position\": {\"x\": -3.794521254003047, \"y\": -0.15263660825788952, \"z\": 0.0}, \"velocity\": {\"vx\": -1.2338519006967545, \"vy\": 0.0, \"vz\": 0.0}, \"acceleration\": {\"ax\": -0.2062628120183944, \"ay\": 0.0, \"az\": 0.0}, \"orientation\": {\"yaw\": 0.0, \"pitch\": 0.0, \"roll\": 0.0}, \"sensor\": \"fusion\", \"extras\": {}, \"record_hash\": \"ffc14d18dcb8b2b076318948fc13ca485c1e2d2b7de1c465e8a3751bbff0b627\", \"anomaly_flag\": 1}}", "sha3": "c4fbff6f717c19c370e78a6c37252972fb0508b0907b5fd1f0b699ea1a8f8f56a22fd76b35788238b4ef4461ddc1b35888ee1e9441e7c2fd92a452cc76fd3467"}
{"data": "{\"timestamp\": 1756825459.5436327, \"event\": {\"timestamp_ns\": 1756825459504636928, \"agent_id\": \"apo\", \"domain\": \"drone\", \"source_format\": \"json\", \"position\": {\"x\": -3.9201352599263184, \"y\": -0.1550365940481422, \"z\": 0.0}, \"velocity\": {\"vx\": -1.2561400592327119, \"vy\": 0.0, \"vz\": 0.0}, \"acceleration\": {\"ax\": -0.2228815853595733, \"ay\": 0.0, \"az\": 0.0}, \"orientation\": {\"yaw\": 0.0, \"pitch\": 0.0, \"roll\": 0.0}, \"sensor\": \"fusion\", \"extras\": {}, \"record_hash\": \"6b61da898d3151e455532c77756a9aee0ab60a2617b07631b7f0416ec6a23020\", \"anomaly_flag\": 1}}", "sha3": "42511dd6376618746818de27b103328ad087f419a32b4b7afa9096457cd92ff4ab41bc7ee5398af0b48986a1000520d8646ff743145a7c088812db30e5d9221f"}
{"data": "{\"timestamp\": 1756825459.609163, \"event\": {\"timestamp_ns\": 1756825459564804096, \"agent_id\": \"apo\", \"domain\": \"drone\", \"source_format\": \"json\", \"position\": {\"x\": -4.048192836344241, \"y\": -0.1570269777625797, \"z\": 0.0}, \"velocity\": {\"vx\": -1.28057576417923, \"vy\": 0.0, \"vz\": 0.0}, \"acceleration\": {\"ax\": -0.2443570494651794, \"ay\": 0.0, \"az\": 0.0}, \"orientation\": {\"yaw\": 0.0, \"pitch\": 0.0, \"roll\": 0.0}, \"sensor\": \"fusion\", \"extras\": {}, \"record_hash\": \"915dba6206293eb07b75b17f43363171836564f1eb14d3bc1be32f0c2863f73c\", \"anomaly_flag\": 1}}", "sha3": "7d197564118fd5c9bdf2aca1b8d3b791e397940434e2ed2f7cf7eaab10607d0647fc18983eb60239869228ce7c3742bd288a0e8b897d48bc48949690a109bee2"}
{"data": "{\"timestamp\": 1756825459.6678321, \"event\": {\"timestamp_ns\": 1756825459630522112, \"agent_id\": \"apo\", \"domain\": \"drone\", \"source_format\": \"json\", \"position\": {\"x\": -4.178119587898253, \"y\": -0.1594221035763619, \"z\": 0.0}, \"velocity\": {\"vx\": -1.2992675155401232, \"vy\": 0.0, \"vz\": 0.0}, \"acceleration\": {\"ax\": -0.1869175136089325, \"ay\": 0.0, \"az\": 0.0}, \"orientation\": {\"yaw\": 0.0, \"pitch\": 0.0, \"roll\": 0.0}, \"sensor\": \"fusion\", \"extras\": {}, \"record_hash\": \"cbab7dbb422abaf3aa13cc48254b2f8c4daa88128c7ff092ddb609265e12ffcf\", \"anomaly_flag\": 1}}", "sha3": "307a50382801bac9c6d1ec7c1bbca9f2ae34ae5b12ed1a5896d20f5f4468940b6a023f049fb135c3e5bd16aa58756ed36f74ef33037c87a93a71f342083f5c2f"}
{"data": "{\"timestamp\": 1756825459.7229567, \"event\": {\"timestamp_ns\": 1756825459689089024, \"agent_id\": \"apo\", \"domain\": \"drone\", \"source_format\": \"json\", \"position\": {\"x\": -4.310119237154721, \"y\": -0.16261699326336362, \"z\": 0.0}, \"velocity\": {\"vx\": -1.3199964925646783, \"vy\": 0.0, \"vz\": 0.0}, \"acceleration\": {\"ax\": -0.207289770245552, \"ay\": 0.0, \"az\": 0.0}, \"orientation\": {\"yaw\": 0.0, \"pitch\": 0.0, \"roll\": 0.0}, \"sensor\": \"fusion\", \"extras\": {}, \"record_hash\": \"e22ddcac7f8b8e90ed55372a50e2704e118d6368a6ebdc82cb91fc407d69c82c\", \"anomaly_flag\": 1}}", "sha3": "4ffc300317b808059a94f1b7824a9da6bd215971e472d42ce0468f9522eb51c0c00cef18e9ccfeff2ab62bdd22d1b3105f28a88923285a60b73f3dd8b115879b"}
{"data": "{\"timestamp\": 1756825459.7770333, \"event\": {\"timestamp_ns\": 1756825459744103936, \"agent_id\": \"apo\", \"domain\": \"drone\", \"source_format\": \"json\", \"position\": {\"x\": -4.443995062708853, \"y\": -0.1666165068373082, \"z\": 0.0}, \"velocity\": {\"vx\": -1.3387582555413247, \"vy\": 0.0, \"vz\": 0.0}, \"acceleration\": {\"ax\": -0.1876176297664642, \"ay\": 0.0, \"az\": 0.0}, \"orientation\": {\"yaw\": 0.0, \"pitch\": 0.0, \"roll\": 0.0}, \"sensor\": \"fusion\", \"extras\": {}, \"record_hash\": \"24a8730f2270dc79f9c7101c60de7f69a64aec8fe80340ed5ff1a673d4eb66b9\", \"anomaly_flag\": 1}}", "sha3": "9ea85594d133dc2a0f3645e5d5247a54736636fd366fa353f58f4a64a1300afac6174f3837a45fb63e686897aaa9f074caca9468105fc17aec4813cbefedfec7"}
{"data": "{\"timestamp\": 1756825459.8385978, \"event\": {\"timestamp_ns\": 1756825459798423040, \"agent_id\": \"apo\", \"domain\": \"drone\", \"source_format\": \"json\", \"position\": {\"x\": -4.5797307452559455, \"y\": -0.17142064437270144, \"z\": 0.0}, \"velocity\": {\"vx\": -1.3573568254709245, \"vy\": 0.0, \"vz\": 0.0}, \"acceleration\": {\"ax\": -0.1859856992959976, \"ay\": 0.0, \"az\": 0.0}, \"orientation\": {\"yaw\": 0.0, \"pitch\": 0.0, \"roll\": 0.0}, \"sensor\": \"fusion\", \"extras\": {}, \"record_hash\": \"9b7b4abf01ad3a94db33d7cd445875893274bc688a2a2d6bb523dbd26bda5a23\", \"anomaly_flag\": 1}}", "sha3": "8e19ced7859be714a2b79e3834b6e5d3be1d8d07102ba711763cba5affaf1b168a2fbc1b2ceeeb51ea5e44600b83beed182382d6b0af7bb595c9580e4a7e0d1e"}
{"data": "{\"timestamp\": 1756825459.9019186, \"event\": {\"timestamp_ns\": 1756825459860110080, \"agent_id\": \"apo\", \"domain\": \"drone\", \"source_format\": \"json\", \"position\": {\"x\": -4.717545877993105, \"y\": -0.1766246638074515, \"z\": 0.0}, \"velocity\": {\"vx\": -1.3781513273715975, \"vy\": 0.0, \"vz\": 0.0}, \"acceleration\": {\"ax\": -0.2079450190067291, \"ay\": 0.0, \"az\": 0.0}, \"orientation\": {\"yaw\": 0.0, \"pitch\": 0.0, \"roll\": 0.0}, \"sensor\": \"fusion\", \"extras\": {}, \"record_hash\": \"d3ab9ea2fc7d93c60151441e66c67d0c4a9ca3456e0b472100abd800524ae86f\", \"anomaly_flag\": 1}}", "sha3": "84625db7ab06a9900553581bd1a7e9d7458ab2a39358b2d96818e9ae2676e1a6ff6ab43f30ddbf639554a8157828a3fff1c05ccfd39c15047017f70b2f458480"}
{"data": "{\"timestamp\": 1756825460.0059955, \"event\": {\"timestamp_ns\": 1756825459923083008, \"agent_id\": \"apo\", \"domain\": \"drone\", \"source_format\": \"json\", \"position\": {\"x\": -4.8574067516624915, \"y\": -0.18142880141735054, \"z\": 0.0}, \"velocity\": {\"vx\": -1.3986087366938593, \"vy\": 0.0, \"vz\": 0.0}, \"acceleration\": {\"ax\": -0.2045740932226181, \"ay\": 0.0, \"az\": 0.0}, \"orientation\": {\"yaw\": 0.0, \"pitch\": 0.0, \"roll\": 0.0}, \"sensor\": \"fusion\", \"extras\": {}, \"record_hash\": \"f80e0fe1e6dab75cc8fdd0352eb3c0dbe0398dc95a89970a4ac208af36bd2368\", \"anomaly_flag\": 1}}", "sha3": "72823087a4572046aee91faad110d771e5418d843a699d455ac58f568b0de9a565b5b5205bff84d88ad265568f49a3810b108f6e84d6b89838829ebda674466c"}
{"data": "{\"timestamp\": 1756825460.0988474, \"event\": {\"timestamp_ns\": 1756825460027659776, \"agent_id\": \"apo\", \"domain\": \"drone\", \"source_format\": \"json\", \"position\": {\"x\": -4.999134974330662, \"y\": -0.18663768112659432, \"z\": 0.0}, \"velocity\": {\"vx\": -1.4172822266817096, \"vy\": 0.0, \"vz\": 0.0}, \"acceleration\": {\"ax\": -0.1867348998785019, \"ay\": 0.0, \"az\": 0.0}, \"orientation\": {\"yaw\": 0.0, \"pitch\": 0.0, \"roll\": 0.0}, \"sensor\": \"fusion\", \"extras\": {}, \"record_hash\": \"2f698517f40ef7e3d81b6e88a9763fcf520dccb96beb71bfce6d6622cf916f38\", \"anomaly_flag\": 1}}", "sha3": "32b786526ed40ab30f2f0ddc7179570e4a1c44dd2748dc1a7912953f9ee1a0708fdbef6662097868dfaad2f66a6746f0bbc1dc38379997bdb304e293ff2628f7"}
{"data": "{\"timestamp\": 1756825460.183085, \"event\": {\"timestamp_ns\": 1756825460120456960, \"agent_id\": \"apo\", \"domain\": \"drone\", \"source_format\": \"json\", \"position\": {\"x\": -5.143295943588017, \"y\": -0.19103707700967765, \"z\": 0.0}, \"velocity\": {\"vx\": -1.4416096925735475, \"vy\": 0.0, \"vz\": 0.0}, \"acceleration\": {\"ax\": -0.2432746589183807, \"ay\": 0.0, \"az\": 0.0}, \"orientation\": {\"yaw\": 0.0, \"pitch\": 0.0, \"roll\": 0.0}, \"sensor\": \"fusion\", \"extras\": {}, \"record_hash\": \"ba536191b266c14f5337e68aac0ade819cef384d49f04eb1b588111ffc8595b9\", \"anomaly_flag\": 1}}", "sha3": "471a6561195817d994db69b5cf9360d752cb728a1bb99a823362480af408c35a3bbd6844aec43eed66b8b3d11f633701742cda202968f41ceedab19ea0314178"}
{"data": "{\"timestamp\": 1756825460.2933185, \"event\": {\"timestamp_ns\": 1756825460204826112, \"agent_id\": \"apo\", \"domain\": \"drone\", \"source_format\": \"json\", \"position\": {\"x\": -5.289926870316266, \"y\": -0.19542675286531425, \"z\": 0.0}, \"velocity\": {\"vx\": -1.4663092672824862, \"vy\": 0.0, \"vz\": 0.0}, \"acceleration\": {\"ax\": -0.246995747089386, \"ay\": 0.0, \"az\": 0.0}, \"orientation\": {\"yaw\": 0.0, \"pitch\": 0.0, \"roll\": 0.0}, \"sensor\": \"fusion\", \"extras\": {}, \"record_hash\": \"c3e3fc735ea5b4fb3085b5b5810a948b1deed0067c718e97c61d6b16e48d5191\", \"anomaly_flag\": 1}}", "sha3": "1a9a6f4186997f821641fb12db4e47569ec7fe7815fda3a52c4153fce2ac0a7b3086ce6deb609241d9806f08ccf354d83b774eb8705d4fbb250001b9a63bdd6a"}
{"data": "{\"timestamp\": 1756825460.4167585, \"event\": {\"timestamp_ns\": 1756825460319184128, \"agent_id\": \"apo\", \"domain\": \"drone\", \"source_format\": \"json\", \"position\": {\"x\": -5.438973427563904, \"y\": -0.1986070632934568, \"z\": 0.0}, \"velocity\": {\"vx\": -1.4904655724763873, \"vy\": 0.0, \"vz\": 0.0}, \"acceleration\": {\"ax\": -0.2415630519390106, \"ay\": 0.0, \"az\": 0.0}, \"orientation\": {\"yaw\": 0.0, \"pitch\": 0.0, \"roll\": 0.0}, \"sensor\": \"fusion\", \"extras\": {}, \"record_hash\": \"974ea5b391cd34669f6b96b45c946f9d2cfaead060b571546d4251937ed1ca5a\", \"anomaly_flag\": 1}}", "sha3": "39e29ab3d7d2bad67ca11d972dc3d5ffeeeea08555d37c5c0aa2f18d20ad97d621b0b3e489f41fca76c69329eaf88fa59ee066dcf19af8ed589213437c1e2fd6"}
{"data": "{\"timestamp\": 1756825460.5421493, \"event\": {\"timestamp_ns\": 1756825460437671936, \"agent_id\": \"apo\", \"domain\": \"drone\", \"source_format\": \"json\", \"position\": {\"x\": -5.589896527975796, \"y\": -0.20259199760854218, \"z\": 0.0}, \"velocity\": {\"vx\": -1.5092310041189196, \"vy\": 0.0, \"vz\": 0.0}, \"acceleration\": {\"ax\": -0.1876543164253235, \"ay\": 0.0, \"az\": 0.0}, \"orientation\": {\"yaw\": 0.0, \"pitch\": 0.0, \"roll\": 0.0}, \"sensor\": \"fusion\", \"extras\": {}, \"record_hash\": \"84b3a0ccc1a59eeb4db82f74c8614f13a83840c88bb7c5e1f77cfe8d487aab8d\", \"anomaly_flag\": 1}}", "sha3": "08d61ed4a2508c930766adb3636c48674a906704274de5288da5a1aad2cf652421fcf03ecb10870f9548826464df86aee40077e6ca3b96b50b2197c74885cb73"}
{"data": "{\"timestamp\": 1756825460.6730871, \"event\": {\"timestamp_ns\": 1756825460568343040, \"agent_id\": \"apo\", \"domain\": \"drone\", \"source_format\": \"json\", \"position\": {\"x\": -5.7424853779375535, \"y\": -0.2069865340739486, \"z\": 0.0}, \"velocity\": {\"vx\": -1.5258884996175768, \"vy\": 0.0, \"vz\": 0.0}, \"acceleration\": {\"ax\": -0.1665749549865722, \"ay\": 0.0, \"az\": 0.0}, \"orientation\": {\"yaw\": 0.0, \"pitch\": 0.0, \"roll\": 0.0}, \"sensor\": \"fusion\", \"extras\": {}, \"record_hash\": \"a6d23435942556920a653f0350334c5f5409906f6f9c705f9cab520f68a3616e\", \"anomaly_flag\": 1}}", "sha3": "bcb990e663a2217578251cf586fc4f880930fb16948730611c434d9f694cacf929a081f66507cf54c8c9434e905adb69be668ebc28fdebcd71c3f09d577a5ada"}
{"data": "{\"timestamp\": 1756825460.8105717, \"event\": {\"timestamp_ns\": 1756825460702301952, \"agent_id\": \"apo\", \"domain\": \"drone\", \"source_format\": \"json\", \"position\": {\"x\": -5.897316730171441, \"y\": -0.2109763284772632, \"z\": 0.0}, \"velocity\": {\"vx\": -1.5483135223388673, \"vy\": 0.0, \"vz\": 0.0}, \"acceleration\": {\"ax\": -0.2242502272129058, \"ay\": 0.0, \"az\": 0.0}, \"orientation\": {\"yaw\": 0.0, \"pitch\": 0.0, \"roll\": 0.0}, \"sensor\": \"fusion\", \"extras\": {}, \"record_hash\": \"002d1567d4fd7b152a91475b2526aa364a1392cab1047786936e8946bd9c8bd0\", \"anomaly_flag\": 1}}", "sha3": "7a5cd50b776afae3442a7fdca5eb762c5861ff2fa0219bda80de2db089873f748f66baaa6a6d9d6e9dde3bae83077fb020524af034f14b47c15e1ecb6eb0c8c9"}
{"data": "{\"timestamp\": 1756825460.8953967, \"event\": {\"timestamp_ns\": 1756825460834052096, \"agent_id\": \"apo\", \"domain\": \"drone\", \"source_format\": \"json\", \"position\": {\"x\": -6.054411563426255, \"y\": -0.2149612627923486, \"z\": 0.0}, \"velocity\": {\"vx\": -1.5709483325481417, \"vy\": 0.0, \"vz\": 0.0}, \"acceleration\": {\"ax\": -0.2263481020927429, \"ay\": 0.0, \"az\": 0.0}, \"orientation\": {\"yaw\": 0.0, \"pitch\": 0.0, \"roll\": 0.0}, \"sensor\": \"fusion\", \"extras\": {}, \"record_hash\": \"16519eee994a9c42e21ccaabfea178c75a361a27a0149d549b8f9db7ab6f0fe6\", \"anomaly_flag\": 1}}", "sha3": "f7198fbcbdc23d741c72e9bc142fd1a0cfd3dc0af4ed283f152b3cf6305d12075592dc46d917aa142410f786e80e1e94f67c152bad414df7c979993cab9ed714"}
{"data": "{\"timestamp\": 1756825461.0400302, \"event\": {\"timestamp_ns\": 1756825460916919040, \"agent_id\": \"apo\", \"domain\": \"drone\", \"source_format\": \"json\", \"position\": {\"x\": -6.213747298866509, \"y\": -0.21814157322049113, \"z\": 0.0}, \"velocity\": {\"vx\": -1.5933573544025423, \"vy\": 0.0, \"vz\": 0.0}, \"acceleration\": {\"ax\": -0.2240902185440063, \"ay\": 0.0, \"az\": 0.0}, \"orientation\": {\"yaw\": 0.0, \"pitch\": 0.0, \"roll\": 0.0}, \"sensor\": \"fusion\", \"extras\": {}, \"record_hash\": \"aa44e08988b674606a109be7dbae34506e2a288f620b8fcb716799c3b191fa03\", \"anomaly_flag\": 1}}", "sha3": "44c444ec83a727f45cfb0a37c95aa2a1136bfe8e4786c53c2ae728f0c33228230f09dc9e42ac81ec1649f9913be810fbceb1b2a61e2f444f5c334136ec02328b"}
{"data": "{\"timestamp\": 1756825461.105386, \"event\": {\"timestamp_ns\": 1756825461061611776, \"agent_id\": \"apo\", \"domain\": \"drone\", \"source_format\": \"json\", \"position\": {\"x\": -6.327259946614502, \"y\": -0.22128378912806482, \"z\": 0.0}, \"velocity\": {\"vx\": -1.1351264774799348, \"vy\": 0.0, \"vz\": 0.0}, \"acceleration\": {\"ax\": 4.582308769226074, \"ay\": 0.0, \"az\": 0.0}, \"orientation\": {\"yaw\": 0.0, \"pitch\": 0.0, \"roll\": 0.0}, \"sensor\": \"fusion\", \"extras\": {}, \"record_hash\": \"cd8153146bd2e32d33ed15b7c99c533a96d4539fb7cea72d7722acaab434f2b7\", \"anomaly_flag\": -1}}", "sha3": "753662646d790bc10443c41d29e6ba28cb8b1c54ff30916937fb087980cb049ef09c5e8c6ce2423c4fc6b1858ba30b6c64acbaf5d2420dd25d4313162eb1eb7b"}
{"data": "{\"timestamp\": 1756825461.1982923, \"event\": {\"timestamp_ns\": 1756825461126173952, \"agent_id\": \"apo\", \"domain\": \"drone\", \"source_format\": \"json\", \"position\": {\"x\": -6.394322346597908, \"y\": -0.22400256887078257, \"z\": 0.0}, \"velocity\": {\"vx\": -0.6706239998340607, \"vy\": 0.0, \"vz\": 0.0}, \"acceleration\": {\"ax\": 4.64502477645874, \"ay\": 0.0, \"az\": 0.0}, \"orientation\": {\"yaw\": 0.0, \"pitch\": 0.0, \"roll\": 0.0}, \"sensor\": \"fusion\", \"extras\": {}, \"record_hash\": \"9850a9d5381d63ff0efb0be0068b6f7dab453f6cfacf1658227cbd84af7069cd\", \"anomaly_flag\": -1}}", "sha3": "b18e2e8ab375924783692e7e0edeaad63a5a3c47b3a84ce0a8444c593ef623bcee667400151117ef5818d91b8d4588a17aebccfcd6f468a08c8d58b6c9c08fb4"}
