{"data": "{\"timestamp\": 1756836029.4998598, \"event\": {\"timestamp_ns\": 1756836029447283968, \"agent_id\": \"onder\", \"domain\": \"drone\", \"source_format\": \"json\", \"position\": {\"x\": 388926.1953621143, \"y\": -1264613.4365757687, \"z\": 0.0}, \"velocity\": {\"vx\": 775.4068417925812, \"vy\": 0.0, \"vz\": 0.0}, \"acceleration\": {\"ax\": -0.187320664525032, \"ay\": 0.0, \"az\": 0.0}, \"orientation\": {\"yaw\": 0.0, \"pitch\": 0.0, \"roll\": 0.0}, \"sensor\": \"fusion\", \"extras\": {}, \"record_hash\": \"f6d6a7fda20389510c75e756588aa9bf0a3285d3e015674b69823c4ef7fc8b35\", \"anomaly_flag\": -1}}", "sha3": "79757b95390c3bf328a3f47404f57567686b6d0b97ec9210969bba5b039e6d9840ca94b4264b92e29b529e9b54e19d507eba7978a561bfc9b19e771de58a7112"}
{"data": "{\"timestamp\": 1756836029.5732214, \"event\": {\"timestamp_ns\": 1756836029521370880, \"agent_id\": \"onder\", \"domain\": \"drone\", \"source_format\": \"json\", \"position\": {\"x\": 389003.73434392334, \"y\": -1264865.687055119, \"z\": 0.0}, \"velocity\": {\"vx\": 775.3898180906153, \"vy\": 0.0, \"vz\": 0.0}, \"acceleration\": {\"ax\": -0.1702370196580886, \"ay\": 0.0, \"az\": 0.0}, \"orientation\": {\"yaw\": 0.0, \"pitch\": 0.0, \"roll\": 0.0}, \"sensor\": \"fusion\", \"extras\": {}, \"record_hash\": \"896e2c0628f8a622927d5f22c9a14251bbc1334587a0e76f7c474dece2e8e0e3\", \"anomaly_flag\": -1}}", "sha3": "4f0eca062df39f9a60b9bd81706b20199238d04239f6d8f26f81ba36934f6d4752d4631390848117b997f406a279dc72e95326c5f585778a2c875cf8e0fc8428"}
{"data": "{\"timestamp\": 1756836029.63839, \"event\": {\"timestamp_ns\": 1756836029594185984, \"agent_id\": \"onder\", \"domain\": \"drone\", \"source_format\": \"json\", \"position\": {\"x\": 389081.27126238233, \"y\": -1265117.93713465, \"z\": 0.0}, \"velocity\": {\"vx\": 775.3691845898009, \"vy\": 0.0, \"vz\": 0.0}, \"acceleration\": {\"ax\": -0.2063350081443786, \"ay\": 0.0, \"az\": 0.0}, \"orientation\": {\"yaw\": 0.0, \"pitch\": 0.0, \"roll\": 0.0}, \"sensor\": \"fusion\", \"extras\": {}, \"record_hash\": \"8ef2ad6957f49679c88e50833c556f3e8f2eeca973ba200e71417d8ed4231bcd\", \"anomaly_flag\": -1}}", "sha3": "906d5c495ca43abfc51f5a5440223fc73db0ae99f6ad8f81f1899845fb0c24cad72b1e1dbeb56343d37d2c7db96b7d50a25986435fb30dda8f795ddd1719a54c"}
{"data": "{\"timestamp\": 1756836029.6952617, \"event\": {\"timestamp_ns\": 1756836029659885824, \"agent_id\": \"onder\", \"domain\": \"drone\", \"source_format\": \"json\", \"position\": {\"x\": 389158.80609803525, \"y\": -1265370.1876141254, \"z\": 0.0}, \"velocity\": {\"vx\": 775.348356528995, \"vy\": 0.0, \"vz\": 0.0}, \"acceleration\": {\"ax\": -0.2082806080579757, \"ay\": 0.0, \"az\": 0.0}, \"orientation\": {\"yaw\": 0.0, \"pitch\": 0.0, \"roll\": 0.0}, \"sensor\": \"fusion\", \"extras\": {}, \"record_hash\": \"09a95d73967fd4d429733a45fbd690dde78c73333a299d7318c36e0410e5754c\", \"anomaly_flag\": -1}}", "sha3": "514e81d71f18d89576d8782438ae80fc76eae6978ebafe48b7fa3c26d2fb9ec6bd193188a587f46e888fa5a598b8d8c5c8d0fff59bf6b5781dc4c41f3190600c"}
{"data": "{\"timestamp\": 1756836029.7823894, \"event\": {\"timestamp_ns\": 1756836029716476928, \"agent_id\": \"onder\", \"domain\": \"drone\", \"source_format\": \"json\", \"position\": {\"x\": 389236.3388508821, \"y\": -1265622.4384935452, \"z\": 0.0}, \"velocity\": {\"vx\": 775.3275284681893, \"vy\": 0.0, \"vz\": 0.0}, \"acceleration\": {\"ax\": -0.2082806080579757, \"ay\": 0.0, \"az\": 0.0}, \"orientation\": {\"yaw\": 0.0, \"pitch\": 0.0, \"roll\": 0.0}, \"sensor\": \"fusion\", \"extras\": {}, \"record_hash\": \"5eb3d96f028fc0b8d5d8587b80d841d2f63fe2775f2c7bbdf7837921d912868c\", \"anomaly_flag\": -1}}", "sha3": "bee2489a4ce31711edf9e1d8af87b95b5a78119a7fdb3ab00983439b7b55fff24dad618224e448335a33c7685c4f1141aef0502ceaf93f7f40f40da5fda2a81e"}
{"data": "{\"timestamp\": 1756836029.8512614, \"event\": {\"timestamp_ns\": 1756836029805388032, \"agent_id\": \"onder\", \"domain\": \"drone\", \"source_format\": \"json\", \"position\": {\"x\": 389313.8700915516, \"y\": -1265874.6909871378, \"z\": 0.0}, \"velocity\": {\"vx\": 775.3124066953039, \"vy\": 0.0, \"vz\": 0.0}, \"acceleration\": {\"ax\": -0.1512177288532257, \"ay\": 0.0, \"az\": 0.0}, \"orientation\": {\"yaw\": 0.0, \"pitch\": 0.0, \"roll\": 0.0}, \"sensor\": \"fusion\", \"extras\": {}, \"record_hash\": \"a452cbebd5af71cd0eb2d6dcfd49a03ca27e1e771d58004b23719b8ea8d6db74\", \"anomaly_flag\": -1}}", "sha3": "364e48e9c0b39b0cdca7513a78159dfcb4e2d7ef9e659f4b5513cd181961a52e2c30f54c363bbdf0d4596592264c17694dfd4c0f9afca84646e02951302e3f91"}
{"data": "{\"timestamp\": 1756836029.9444206, \"event\": {\"timestamp_ns\": 1756836029872601088, \"agent_id\": \"onder\", \"domain\": \"drone\", \"source_format\": \"json\", \"position\": {\"x\": 389391.39924943174, \"y\": -1266126.9438806751, \"z\": 0.0}, \"velocity\": {\"vx\": 775.2915788013911, \"vy\": 0.0, \"vz\": 0.0}, \"acceleration\": {\"ax\": -0.208278939127922, \"ay\": 0.0, \"az\": 0.0}, \"orientation\": {\"yaw\": 0.0, \"pitch\": 0.0, \"roll\": 0.0}, \"sensor\": \"fusion\", \"extras\": {}, \"record_hash\": \"73b300d3df34674281bb33ab11988a4abec9f4e7b9fa349711c6117035fb8430\", \"anomaly_flag\": -1}}", "sha3": "b0da79ba9a903ef32d1a89cba63344cd544be82449d0f0f5aa6a186ec3499d06afab0409c3f3877e0ee5909918fe5a847d53d0c739739dc3daf71b4636a8f230"}
{"data": "{\"timestamp\": 1756836030.032276, \"event\": {\"timestamp_ns\": 1756836029965733120, \"agent_id\": \"onder\", \"domain\": \"drone\", \"source_format\": \"json\", \"position\": {\"x\": 389468.9263245554, \"y\": -1266379.1971741568, \"z\": 0.0}, \"velocity\": {\"vx\": 775.270751236794, \"vy\": 0.0, \"vz\": 0.0}, \"acceleration\": {\"ax\": -0.2082756459712982, \"ay\": 0.0, \"az\": 0.0}, \"orientation\": {\"yaw\": 0.0, \"pitch\": 0.0, \"roll\": 0.0}, \"sensor\": \"fusion\", \"extras\": {}, \"record_hash\": \"e72146ffa164366cc38f7b20074e1aa10e7e2fa90e0dde440a93dbb69294e8f5\", \"anomaly_flag\": -1}}", "sha3": "2fb3139bf232f9ff8232d7e19dabfff3febbf941219eec95c77ea302891a7400e73cef4fb745ec37803230de529baf8b1c3f9a1291ca7f2349f31abbe6c1e1a8"}
{"data": "{\"timestamp\": 1756836030.1167893, \"event\": {\"timestamp_ns\": 1756836030053780992, \"agent_id\": \"onder\", \"domain\": \"drone\", \"source_format\": \"json\", \"position\": {\"x\": 389546.4515265055, \"y\": -1266631.450472562, \"z\": 0.0}, \"velocity\": {\"vx\": 775.2520195011473, \"vy\": 0.0, \"vz\": 0.0}, \"acceleration\": {\"ax\": -0.1873173564672469, \"ay\": 0.0, \"az\": 0.0}, \"orientation\": {\"yaw\": 0.0, \"pitch\": 0.0, \"roll\": 0.0}, \"sensor\": \"fusion\", \"extras\": {}, \"record_hash\": \"03ea6c02a521c6124f431a906e520744e415a396dbe05d65957573d14f098e88\", \"anomaly_flag\": -1}}", "sha3": "6ec8da7e186f4558d2976910929dfa50b517de1927064b3b981013eebf942e3eb48cf81e30ec3f053aeb2044ab6e2e765ffd9b39d679a1a0afda1a7442a97459"}
{"data": "{\"timestamp\": 1756836030.1732113, \"event\": {\"timestamp_ns\": 1756836030137600000, \"agent_id\": \"onder\", \"domain\": \"drone\", \"source_format\": \"json\", \"position\": {\"x\": 389623.9748358426, \"y\": -1266883.7045756548, \"z\": 0.0}, \"velocity\": {\"vx\": 775.2330933709121, \"vy\": 0.0, \"vz\": 0.0}, \"acceleration\": {\"ax\": -0.1892613023519516, \"ay\": 0.0, \"az\": 0.0}, \"orientation\": {\"yaw\": 0.0, \"pitch\": 0.0, \"roll\": 0.0}, \"sensor\": \"fusion\", \"extras\": {}, \"record_hash\": \"337d9910f33122b1a0e682efcb6d4f996077ad93118266d238c353c45620ffac\", \"anomaly_flag\": -1}}", "sha3": "d266e7b8ea1f438c5c17887a12672e1649cae91f468932460680cafe675800496aebbf9244b62ec461e1d9842edc006c0f37b0c49aca6922627e3c55c8a15ecb"}
{"data": "{\"timestamp\": 1756836030.2356129, \"event\": {\"timestamp_ns\": 1756836030194196992, \"agent_id\": \"onder\", \"domain\": \"drone\", \"source_format\": \"json\", \"position\": {\"x\": 389701.4954821077, \"y\": -1267135.9582643455, \"z\": 0.0}, \"velocity\": {\"vx\": 775.2064626504159, \"vy\": 0.0, \"vz\": 0.0}, \"acceleration\": {\"ax\": -0.2663072049617767, \"ay\": 0.0, \"az\": 0.0}, \"orientation\": {\"yaw\": 0.0, \"pitch\": 0.0, \"roll\": 0.0}, \"sensor\": \"fusion\", \"extras\": {}, \"record_hash\": \"435d573058075ef5931501ba74b54636f8036722ce206b17b80616da23e436c5\", \"anomaly_flag\": -1}}", "sha3": "ed6fb846869577a46bda0d1943b2a451d200e3dff7c7db07c5fa7db3b129945de349aa3d30ba3ea1dadc69b45a92e4d629901bb25085e79a550b4cae965c40fa"}
{"data": "{\"timestamp\": 1756836030.3423982, \"event\": {\"timestamp_ns\": 1756836030256997120, \"agent_id\": \"onder\", \"domain\": \"drone\", \"source_format\": \"json\", \"position\": {\"x\": 389779.01425516605, \"y\": -1267388.21195796, \"z\": 0.0}, \"velocity\": {\"vx\": 775.1877305839635, \"vy\": 0.0, \"vz\": 0.0}, \"acceleration\": {\"ax\": -0.187320664525032, \"ay\": 0.0, \"az\": 0.0}, \"orientation\": {\"yaw\": 0.0, \"pitch\": 0.0, \"roll\": 0.0}, \"sensor\": \"fusion\", \"extras\": {}, \"record_hash\": \"3d419fcfcd0d6ca806d143037ff6005e77af42aba4ff25f3a1b1011c1b2e6b1f\", \"anomaly_flag\": -1}}", "sha3": "8d827af62343b4434c8692a7b491f2e9e970128899dc064215dc2c4e736ea3bb55bdcc908dd3d1fc8147abf20f56e7b7ecf2035c6a638d99475d4e56b49e9023"}
{"data": "{\"timestamp\": 1756836030.4135494, \"event\": {\"timestamp_ns\": 1756836030363325184, \"agent_id\": \"onder\", \"domain\": \"drone\", \"source_format\": \"json\", \"position\": {\"x\": 389856.5309552208, \"y\": -1267640.465651637, \"z\": 0.0}, \"velocity\": {\"vx\": 775.1670005474664, \"vy\": 0.0, \"vz\": 0.0}, \"acceleration\": {\"ax\": -0.2073003649711609, \"ay\": 0.0, \"az\": 0.0}, \"orientation\": {\"yaw\": 0.0, \"pitch\": 0.0, \"roll\": 0.0}, \"sensor\": \"fusion\", \"extras\": {}, \"record_hash\": \"c7d0b687b61a96657f2540c76f346704191fcd0352a615cd9b6c1c7a54513fbc\", \"anomaly_flag\": -1}}", "sha3": "3497f25e154d52ded6671e0c50d77006a0892fff6dc18c9fa4ace77ae4b174496377742147fc86b9785b93cab0de36e28b41da1076731dd269108a0add05b10d"}
{"data": "{\"timestamp\": 1756836030.479334, \"event\": {\"timestamp_ns\": 1756836030434429952, \"agent_id\": \"onder\", \"domain\": \"drone\", \"source_format\": \"json\", \"position\": {\"x\": 389934.04558217264, \"y\": -1267892.7193453766, \"z\": 0.0}, \"velocity\": {\"vx\": 775.1462695185519, \"vy\": 0.0, \"vz\": 0.0}, \"acceleration\": {\"ax\": -0.207310289144516, \"ay\": 0.0, \"az\": 0.0}, \"orientation\": {\"yaw\": 0.0, \"pitch\": 0.0, \"roll\": 0.0}, \"sensor\": \"fusion\", \"extras\": {}, \"record_hash\": \"4950da864db9c4239141b85e24e5c444a5d5019fb85d4470a32b4c8b8a61a9d4\", \"anomaly_flag\": -1}}", "sha3": "b3960a067ce5a0b773b795a9fef004928640b6eb9f8ed1b0f237ab2398a434a483d26a4fc750d55024c07ed3d312431b0bb27e314fedfba99f6ce2a41a8a7e2c"}
{"data": "{\"timestamp\": 1756836030.5415165, \"event\": {\"timestamp_ns\": 1756836030500401920, \"agent_id\": \"onder\", \"domain\": \"drone\", \"source_format\": \"json\", \"position\": {\"x\": 390011.5583456708, \"y\": -1268144.972644158, \"z\": 0.0}, \"velocity\": {\"vx\": 775.1276349816895, \"vy\": 0.0, \"vz\": 0.0}, \"acceleration\": {\"ax\": -0.1863453686237335, \"ay\": 0.0, \"az\": 0.0}, \"orientation\": {\"yaw\": 0.0, \"pitch\": 0.0, \"roll\": 0.0}, \"sensor\": \"fusion\", \"extras\": {}, \"record_hash\": \"a7004e72bc77a368e3617450a03391e63a3d1409fc770a8a63964796075f764a\", \"anomaly_flag\": -1}}", "sha3": "25a0ff1ad163fb8e9ddb21544cb74a1d20708b62bdbdfc1b0f6989c89af81232a18e77b07bd05e4df6fece162cc23023a159f0594621db3679211feca63bcfd8"}
{"data": "{\"timestamp\": 1756836030.6275027, \"event\": {\"timestamp_ns\": 1756836030562649856, \"agent_id\": \"onder\", \"domain\": \"drone\", \"source_format\": \"json\", \"position\": {\"x\": 390089.06941648544, \"y\": -1268397.2267524875, \"z\": 0.0}, \"velocity\": {\"vx\": 775.1107081462122, \"vy\": 0.0, \"vz\": 0.0}, \"acceleration\": {\"ax\": -0.1692683547735214, \"ay\": 0.0, \"az\": 0.0}, \"orientation\": {\"yaw\": 0.0, \"pitch\": 0.0, \"roll\": 0.0}, \"sensor\": \"fusion\", \"extras\": {}, \"record_hash\": \"6f82da4c076987b96848e0b124032177b6f92091b2e9154691d4f45ec111ffe5\", \"anomaly_flag\": -1}}", "sha3": "adad6dcd0a34162be76c6a2e2f96beac0233bfbf8471b5e14a8ac10a5647390b80d56151ceebf8f393df9a2bc6dc5a033a820a0468932d351fc7d564bc9ab78a"}
{"data": "{\"timestamp\": 1756836030.6939368, \"event\": {\"timestamp_ns\": 1756836030648659968, \"agent_id\": \"onder\", \"domain\": \"drone\", \"source_format\": \"json\", \"position\": {\"x\": 390166.5784142633, \"y\": -1268649.4808608796, \"z\": 0.0}, \"velocity\": {\"vx\": 775.0899777789093, \"vy\": 0.0, \"vz\": 0.0}, \"acceleration\": {\"ax\": -0.2073036730289459, \"ay\": 0.0, \"az\": 0.0}, \"orientation\": {\"yaw\": 0.0, \"pitch\": 0.0, \"roll\": 0.0}, \"sensor\": \"fusion\", \"extras\": {}, \"record_hash\": \"f52710f32f2e86199b824011ebfe313bbe7947909c3752515ec8e9806150a10e\", \"anomaly_flag\": -1}}", "sha3": "cc9866cb1c143362bdcf06f37fe8d88ea98b01a5810972a399b4bb16b4c3d326b9ec88bf72a314f3d0c8715db6d65749d14ec8a8c1b9356eaf6eac134996fe41"}
{"data": "{\"timestamp\": 1756836030.773372, \"event\": {\"timestamp_ns\": 1756836030715034112, \"agent_id\": \"onder\", \"domain\": \"drone\", \"source_format\": \"json\", \"position\": {\"x\": 390244.08573878044, \"y\": -1268901.7349790565, \"z\": 0.0}, \"velocity\": {\"vx\": 775.0732451711274, \"vy\": 0.0, \"vz\": 0.0}, \"acceleration\": {\"ax\": -0.1673260778188705, \"ay\": 0.0, \"az\": 0.0}, \"orientation\": {\"yaw\": 0.0, \"pitch\": 0.0, \"roll\": 0.0}, \"sensor\": \"fusion\", \"extras\": {}, \"record_hash\": \"aa5a22f2da5ff1078c7681364c3ccd65b648ee6e44deee79f88059c8b2e6514a\", \"anomaly_flag\": -1}}", "sha3": "37339f6cf7589a60e8f17ed2b00760b022ab4f0f87a7e87dac68658f465900b83b3ac9ea489f4daea3d71ec0c4f0f31095fc6ae42317282004ce73f9ccf37bf7"}
{"data": "{\"timestamp\": 1756836030.8459122, \"event\": {\"timestamp_ns\": 1756836030794411008, \"agent_id\": \"onder\", \"domain\": \"drone\", \"source_format\": \"json\", \"position\": {\"x\": 390321.59118040424, \"y\": -1269153.9895020388, \"z\": 0.0}, \"velocity\": {\"vx\": 775.0544162381864, \"vy\": 0.0, \"vz\": 0.0}, \"acceleration\": {\"ax\": -0.1882893294095993, \"ay\": 0.0, \"az\": 0.0}, \"orientation\": {\"yaw\": 0.0, \"pitch\": 0.0, \"roll\": 0.0}, \"sensor\": \"fusion\", \"extras\": {}, \"record_hash\": \"2c1273dd26c700a60da9a02907f53247d419dd587c612df67acb4a8d775a60ef\", \"anomaly_flag\": -1}}", "sha3": "7c11ee0b78b628c08bfef482f40e48dd0143256572af3dcbb4c792cadd84b1d0a140a2864d37935188251af7e254bbdb3614fa751aea9c5c6e15248931ccfab6"}
{"data": "{\"timestamp\": 1756836030.9091759, \"event\": {\"timestamp_ns\": 1756836030867216128, \"agent_id\": \"onder\", \"domain\": \"drone\", \"source_format\": \"json\", \"position\": {\"x\": 390399.0947392011, \"y\": -1269406.2444298265, \"z\": 0.0}, \"velocity\": {\"vx\": 775.035587968347, \"vy\": 0.0, \"vz\": 0.0}, \"acceleration\": {\"ax\": -0.188282698392868, \"ay\": 0.0, \"az\": 0.0}, \"orientation\": {\"yaw\": 0.0, \"pitch\": 0.0, \"roll\": 0.0}, \"sensor\": \"fusion\", \"extras\": {}, \"record_hash\": \"0ff223e2598672b518db320ae496e08871270441c090ae16997cbed621f1aba6\", \"anomaly_flag\": -1}}", "sha3": "ad01ed876b42e3825bc608a15c6c4866ee92f46ea167fc6a707e709d098021905218d7ba4d2295ce9e1e41b4c3bcd2bc975c3f3c43e268922c795f3fee924071"}
{"data": "{\"timestamp\": 1756836030.980288, \"event\": {\"timestamp_ns\": 1756836030932539904, \"agent_id\": \"onder\", \"domain\": \"drone\", \"source_format\": \"json\", \"position\": {\"x\": 390476.5960250319, \"y\": -1269658.4993528158, \"z\": 0.0}, \"velocity\": {\"vx\": 775.0128583077765, \"vy\": 0.0, \"vz\": 0.0}, \"acceleration\": {\"ax\": -0.2272966057062149, \"ay\": 0.0, \"az\": 0.0}, \"orientation\": {\"yaw\": 0.0, \"pitch\": 0.0, \"roll\": 0.0}, \"sensor\": \"fusion\", \"extras\": {}, \"record_hash\": \"51c3b31879174272ae3e0535172e209d474de95020637690b514b2d2aa947ea7\", \"anomaly_flag\": -1}}", "sha3": "73f8f56fd817645931708928709eebef0f34cf43bcbb9bf3ceffed8522e5527783c13d20f31f5e4eb186ecbd93a01ef87446f14b8f8fe995156175c168b070b2"}
{"data": "{\"timestamp\": 1756836031.050574, \"event\": {\"timestamp_ns\": 1756836031001605120, \"agent_id\": \"onder\", \"domain\": \"drone\", \"source_format\": \"json\", \"position\": {\"x\": 390554.094667197, \"y\": -1269910.7530616394, \"z\": 0.0}, \"velocity\": {\"vx\": 774.986421651063, \"vy\": 0.0, \"vz\": 0.0}, \"acceleration\": {\"ax\": -0.2643665671348572, \"ay\": 0.0, \"az\": 0.0}, \"orientation\": {\"yaw\": 0.0, \"pitch\": 0.0, \"roll\": 0.0}, \"sensor\": \"fusion\", \"extras\": {}, \"record_hash\": \"9e0de6868cca68bf8ed9784721c3e7d5f40b6dac3ca5a4c8d8cbe7c6f998b257\", \"anomaly_flag\": -1}}", "sha3": "123eefd95335dc6070c096f018c67f37f9c34d96edacdfc169a9232f5bff7395bca5b19ff85060ac446eb5cefa763a10dedbed9581efcde9c22cb99b7c7e72fc"}
{"data": "{\"timestamp\": 1756836031.1156318, \"event\": {\"timestamp_ns\": 1756836031071741184, \"agent_id\": \"onder\", \"domain\": \"drone\", \"source_format\": \"json\", \"position\": {\"x\": 390631.5914167823, \"y\": -1270163.00757515, \"z\": 0.0}, \"velocity\": {\"vx\": 774.9674958531236, \"vy\": 0.0, \"vz\": 0.0}, \"acceleration\": {\"ax\": -0.1892579793930053, \"ay\": 0.0, \"az\": 0.0}, \"orientation\": {\"yaw\": 0.0, \"pitch\": 0.0, \"roll\": 0.0}, \"sensor\": \"fusion\", \"extras\": {}, \"record_hash\": \"bf3912ec4af5b56a8663a3844470ef4038be8ef37fb435bcdfc4e7393b942bfe\", \"anomaly_flag\": -1}}", "sha3": "207330eaea7a71558267681c082708542fd25765da24f5521e9ffc4caf38c8188c428925e3cc272e857f26b574fc8584163fc592085cd52d7fc096268deb9e56"}
{"data": "{\"timestamp\": 1756836031.187253, \"event\": {\"timestamp_ns\": 1756836031136670976, \"agent_id\": \"onder\", \"domain\": \"drone\", \"source_format\": \"json\", \"position\": {\"x\": 390709.0860932978, \"y\": -1270415.2620887237, \"z\": 0.0}, \"velocity\": {\"vx\": 774.946765155015, \"vy\": 0.0, \"vz\": 0.0}, \"acceleration\": {\"ax\": -0.2073069810867309, \"ay\": 0.0, \"az\": 0.0}, \"orientation\": {\"yaw\": 0.0, \"pitch\": 0.0, \"roll\": 0.0}, \"sensor\": \"fusion\", \"extras\": {}, \"record_hash\": \"1c016d290511e8138480471fdda9882d12c1396a0217ccf612296f9b77d9bd75\", \"anomaly_flag\": -1}}", "sha3": "2b51cc42df3ce90459d41ccce90e4dc85808320da380db5f8c8e53efd8f41bf4b1e551f186a4aacfe907798703bb0cda43d63700bd0f6111e67ad27fc3310648"}
{"data": "{\"timestamp\": 1756836031.2527301, \"event\": {\"timestamp_ns\": 1756836031208455936, \"agent_id\": \"onder\", \"domain\": \"drone\", \"source_format\": \"json\", \"position\": {\"x\": 390786.5789063927, \"y\": -1270667.5162073388, \"z\": 0.0}, \"velocity\": {\"vx\": 774.9281309489584, \"vy\": 0.0, \"vz\": 0.0}, \"acceleration\": {\"ax\": -0.1863420605659485, \"ay\": 0.0, \"az\": 0.0}, \"orientation\": {\"yaw\": 0.0, \"pitch\": 0.0, \"roll\": 0.0}, \"sensor\": \"fusion\", \"extras\": {}, \"record_hash\": \"81ceccc7a4fa80309614c52809411f3d8b8cf0bde1355a783beb79d7c6d8ab7e\", \"anomaly_flag\": -1}}", "sha3": "a61d2f5fd2577e01d9361f9331a98cf8730a6fcb3f4a8b2f48ac07dc29be36ebcd376fe602d326a5c99d3e11ac38198ec8555e1ca525fad7c87a381118adf34c"}
{"data": "{\"timestamp\": 1756836031.3189943, \"event\": {\"timestamp_ns\": 1756836031273904128, \"agent_id\": \"onder\", \"domain\": \"drone\", \"source_format\": \"json\", \"position\": {\"x\": 390864.0698560339, \"y\": -1270919.7699309955, \"z\": 0.0}, \"velocity\": {\"vx\": 774.909496412096, \"vy\": 0.0, \"vz\": 0.0}, \"acceleration\": {\"ax\": -0.1863453686237335, \"ay\": 0.0, \"az\": 0.0}, \"orientation\": {\"yaw\": 0.0, \"pitch\": 0.0, \"roll\": 0.0}, \"sensor\": \"fusion\", \"extras\": {}, \"record_hash\": \"ec2708e19d2ff9c2c0b1de77c5b07fa917437f6bbd6816bb580217f37aec6672\", \"anomaly_flag\": -1}}", "sha3": "a88beca205db9587ef898ab4f82b4280f5b1e2df13f247c95a713d4dc78f85c8f21c6777800a0843b8263ec947e22bd67d58613e192c5603e6830956a85c46fd"}
{"data": "{\"timestamp\": 1756836031.3786836, \"event\": {\"timestamp_ns\": 1756836031339783936, \"agent_id\": \"onder\", \"domain\": \"drone\", \"source_format\": \"json\", \"position\": {\"x\": 390941.5587229186, \"y\": -1271172.024054597, \"z\": 0.0}, \"velocity\": {\"vx\": 774.8886688474989, \"vy\": 0.0, \"vz\": 0.0}, \"acceleration\": {\"ax\": -0.2082756459712982, \"ay\": 0.0, \"az\": 0.0}, \"orientation\": {\"yaw\": 0.0, \"pitch\": 0.0, \"roll\": 0.0}, \"sensor\": \"fusion\", \"extras\": {}, \"record_hash\": \"5d6ba4d9c74359453dd82dd113025649b0fdc8a2729aabb2c46d932b0eb7d61c\", \"anomaly_flag\": -1}}", "sha3": "87a62ac5eed92942c4613250e4730a04d61dc7ec2b41e71f6fc1b0be79cb2acccae37933b276999bec2c6374d2e5fe3beaf4b7c92ebe69294d9aeb87d2ce5df3"}
{"data": "{\"timestamp\": 1756836031.4400864, \"event\": {\"timestamp_ns\": 1756836031400201984, \"agent_id\": \"onder\", \"domain\": \"drone\", \"source_format\": \"json\", \"position\": {\"x\": 391019.04531680426, \"y\": -1271424.2781733999, \"z\": 0.0}, \"velocity\": {\"vx\": 774.8659388561225, \"vy\": 0.0, \"vz\": 0.0}, \"acceleration\": {\"ax\": -0.2272999137639999, \"ay\": 0.0, \"az\": 0.0}, \"orientation\": {\"yaw\": 0.0, \"pitch\": 0.0, \"roll\": 0.0}, \"sensor\": \"fusion\", \"extras\": {}, \"record_hash\": \"bafc186ebcf75582bf56fe297d671f5970157fe18e1e7cc7fcce5bc844b22dd4\", \"anomaly_flag\": -1}}", "sha3": "82c6ef9146c0edc74335b16b0741e441c43fa5925446299ad66b75e0e65b3a259cfc04d06a421df0e7323575ecc524e91b0ef7e18cb8ae61ff24117786f169ea"}
{"data": "{\"timestamp\": 1756836031.5034957, \"event\": {\"timestamp_ns\": 1756836031460879104, \"agent_id\": \"onder\", \"domain\": \"drone\", \"source_format\": \"json\", \"position\": {\"x\": 391096.52963775705, \"y\": -1271676.5322874046, \"z\": 0.0}, \"velocity\": {\"vx\": 774.8432095278478, \"vy\": 0.0, \"vz\": 0.0}, \"acceleration\": {\"ax\": -0.2272932827472687, \"ay\": 0.0, \"az\": 0.0}, \"orientation\": {\"yaw\": 0.0, \"pitch\": 0.0, \"roll\": 0.0}, \"sensor\": \"fusion\", \"extras\": {}, \"record_hash\": \"0f7e6e366e4b829d5e8ad34d81efc315e1ee403d6481e38bcdeb684c485ac95d\", \"anomaly_flag\": -1}}", "sha3": "3d223ab0735b853475502512f6ba0a26aff9ccecdfa8dfb8d50872949ca444e5091056e95a2ab4f69122825ff3220f15bb01ac16765e464e41e4770937a416bc"}
{"data": "{\"timestamp\": 1756836031.5609493, \"event\": {\"timestamp_ns\": 1756836031524559872, \"agent_id\": \"onder\", \"domain\": \"drone\", \"source_format\": \"json\", \"position\": {\"x\": 391174.01168567775, \"y\": -1271928.786396611, \"z\": 0.0}, \"velocity\": {\"vx\": 774.8204792071557, \"vy\": 0.0, \"vz\": 0.0}, \"acceleration\": {\"ax\": -0.2273032069206237, \"ay\": 0.0, \"az\": 0.0}, \"orientation\": {\"yaw\": 0.0, \"pitch\": 0.0, \"roll\": 0.0}, \"sensor\": \"fusion\", \"extras\": {}, \"record_hash\": \"7d53577a47764a1e74f6324066582c9ec1a6dbf43220df2163432d8e2891802e\", \"anomaly_flag\": -1}}", "sha3": "35c581a431b2af78d5833b7fd20b26e5bb46914566accb6790b6104ea889c9014f9be40938d8c2890763be7d7e48990f27a4b630c48c6c8bb94d058648670a4e"}
{"data": "{\"timestamp\": 1756836031.6336482, \"event\": {\"timestamp_ns\": 1756836031582087936, \"agent_id\": \"onder\", \"domain\": \"drone\", \"source_format\": \"json\", \"position\": {\"x\": 391251.4914703189, \"y\": -1272181.0401011372, \"z\": 0.0}, \"velocity\": {\"vx\": 774.7978464115835, \"vy\": 0.0, \"vz\": 0.0}, \"acceleration\": {\"ax\": -0.2263279557228088, \"ay\": 0.0, \"az\": 0.0}, \"orientation\": {\"yaw\": 0.0, \"pitch\": 0.0, \"roll\": 0.0}, \"sensor\": \"fusion\", \"extras\": {}, \"record_hash\": \"661d8b266de96ca3fb3df9532f2619ead8c8222cc595faf2a601ce08519aa90a\", \"anomaly_flag\": -1}}", "sha3": "29c04568f2b29005beabbadbd4216c8e38169723d9539e583436eac346f7f3fd8ef01ad9c096f1a53a4a257e9b6ca575e2636574e1fcbb2d963876a577a4110c"}
{"data": "{\"timestamp\": 1756836031.7022326, \"event\": {\"timestamp_ns\": 1756836031654689024, \"agent_id\": \"onder\", \"domain\": \"drone\", \"source_format\": \"json\", \"position\": {\"x\": 391328.96918192337, \"y\": -1272433.2938057259, \"z\": 0.0}, \"velocity\": {\"vx\": 774.7771160442805, \"vy\": 0.0, \"vz\": 0.0}, \"acceleration\": {\"ax\": -0.2073036730289459, \"ay\": 0.0, \"az\": 0.0}, \"orientation\": {\"yaw\": 0.0, \"pitch\": 0.0, \"roll\": 0.0}, \"sensor\": \"fusion\", \"extras\": {}, \"record_hash\": \"3d908de1fa14666ba6dd0a98a7824aca50446a84389aa327105c01896609383f\", \"anomaly_flag\": -1}}", "sha3": "73b525335b3c93a12636712393b526c25f80306af25c2ebdc9f55769efd2368935633bcbe40fc747264d4fe432131405b2ace7fd15f4a2c9e837e968cf0092a5"}
{"data": "{\"timestamp\": 1756836031.768849, \"event\": {\"timestamp_ns\": 1756836031723517952, \"agent_id\": \"onder\", \"domain\": \"drone\", \"source_format\": \"json\", \"position\": {\"x\": 391406.4448301777, \"y\": -1272685.5471104954, \"z\": 0.0}, \"velocity\": {\"vx\": 774.7564825434661, \"vy\": 0.0, \"vz\": 0.0}, \"acceleration\": {\"ax\": -0.2063350081443786, \"ay\": 0.0, \"az\": 0.0}, \"orientation\": {\"yaw\": 0.0, \"pitch\": 0.0, \"roll\": 0.0}, \"sensor\": \"fusion\", \"extras\": {}, \"record_hash\": \"6f4bde1257f34d7182f6ab17ee302db4340ac01eb13c255c1825adb4f91b65fe\", \"anomaly_flag\": -1}}", "sha3": "7dab1090ff165d9ac52cc16b5bf95ae45f9f14a60b0a8e28e63d9a12bf1b7ebcbd6630c22f9b5d48ee4b09ccd4dcffe9525cc9ea8e5aa33213d619f6f889f5b4"}
{"data": "{\"timestamp\": 1756836031.8281827, \"event\": {\"timestamp_ns\": 1756836031790184960, \"agent_id\": \"onder\", \"domain\": \"drone\", \"source_format\": \"json\", \"position\": {\"x\": 391483.91840536223, \"y\": -1272937.8004153275, \"z\": 0.0}, \"velocity\": {\"vx\": 774.7357518453574, \"vy\": 0.0, \"vz\": 0.0}, \"acceleration\": {\"ax\": -0.2073069810867309, \"ay\": 0.0, \"az\": 0.0}, \"orientation\": {\"yaw\": 0.0, \"pitch\": 0.0, \"roll\": 0.0}, \"sensor\": \"fusion\", \"extras\": {}, \"record_hash\": \"d736abea448ab924dab370eb6eb91aaad120832d82dc344d7576679dd4d4598e\", \"anomaly_flag\": -1}}", "sha3": "e85c780a3e616fed2c63f65218692da93099cea23fee97e2c44f900330f8ed07cd317df903c827bae53a4a0cfb4f3485419d49fc585cbce7969f5aabf3e6a33b"}
{"data": "{\"timestamp\": 1756836031.889618, \"event\": {\"timestamp_ns\": 1756836031849311232, \"agent_id\": \"onder\", \"domain\": \"drone\", \"source_format\": \"json\", \"position\": {\"x\": 391561.3897173006, \"y\": -1273190.0533154795, \"z\": 0.0}, \"velocity\": {\"vx\": 774.7131193835711, \"vy\": 0.0, \"vz\": 0.0}, \"acceleration\": {\"ax\": -0.2263246178627014, \"ay\": 0.0, \"az\": 0.0}, \"orientation\": {\"yaw\": 0.0, \"pitch\": 0.0, \"roll\": 0.0}, \"sensor\": \"fusion\", \"extras\": {}, \"record_hash\": \"5186ecb8a079850b6fabb097dada300640b7c7f5dfb9bd2aa03aef08bc781136\", \"anomaly_flag\": -1}}", "sha3": "70134a32ea6b9d600d98b8de7cc6d2055ce3cb30599a1c2c5bedd8fb0ccce9c0a5afbd94cba5ea1c0b2680aa2cbb71ff1869d839522ae18f6bf31ae0d63eb292"}
{"data": "{\"timestamp\": 1756836031.9550807, \"event\": {\"timestamp_ns\": 1756836031910638080, \"agent_id\": \"onder\", \"domain\": \"drone\", \"source_format\": \"json\", \"position\": {\"x\": 391638.8587659594, \"y\": -1273442.3058109514, \"z\": 0.0}, \"velocity\": {\"vx\": 774.6904865879989, \"vy\": 0.0, \"vz\": 0.0}, \"acceleration\": {\"ax\": -0.2263279557228088, \"ay\": 0.0, \"az\": 0.0}, \"orientation\": {\"yaw\": 0.0, \"pitch\": 0.0, \"roll\": 0.0}, \"sensor\": \"fusion\", \"extras\": {}, \"record_hash\": \"976aafd4d59da1cf726b3fdcfbf9b503ff2873fbbe58c4bf728b63b0a6e717ac\", \"anomaly_flag\": -1}}", "sha3": "1a94cf1122bd25fdc6706c13751d809d99fc0c24ca00a1a27399eea2f7a0ef81c931c7af554df9450bf96ba8bd761d77287fa6bdd3330aa954dfe4a658f0bcfb"}
{"data": "{\"timestamp\": 1756836032.013068, \"event\": {\"timestamp_ns\": 1756836031976336128, \"agent_id\": \"onder\", \"domain\": \"drone\", \"source_format\": \"json\", \"position\": {\"x\": 391716.32611221477, \"y\": -1273694.5595158534, \"z\": 0.0}, \"velocity\": {\"vx\": 774.6734625537372, \"vy\": 0.0, \"vz\": 0.0}, \"acceleration\": {\"ax\": -0.1702403426170349, \"ay\": 0.0, \"az\": 0.0}, \"orientation\": {\"yaw\": 0.0, \"pitch\": 0.0, \"roll\": 0.0}, \"sensor\": \"fusion\", \"extras\": {}, \"record_hash\": \"0b247a53e75c85eaa34ecc4a0e8b6b4c704cae114fb34615afb0208b8bdb1d42\", \"anomaly_flag\": -1}}", "sha3": "d365cc39e832067761783d69948bbffd10b65739d65bf0c4e5586aff15fdcfc7e3a6294f9f5b4924e5be72ec3a2e2d2ccfb26228399b6adb91a27a61845d55ac"}
{"data": "{\"timestamp\": 1756836032.0756657, \"event\": {\"timestamp_ns\": 1756836032033891072, \"agent_id\": \"onder\", \"domain\": \"drone\", \"source_format\": \"json\", \"position\": {\"x\": 391793.79156585713, \"y\": -1273946.8140254426, \"z\": 0.0}, \"velocity\": {\"vx\": 774.654536423502, \"vy\": 0.0, \"vz\": 0.0}, \"acceleration\": {\"ax\": -0.1892613023519516, \"ay\": 0.0, \"az\": 0.0}, \"orientation\": {\"yaw\": 0.0, \"pitch\": 0.0, \"roll\": 0.0}, \"sensor\": \"fusion\", \"extras\": {}, \"record_hash\": \"266bb746d49f5a7bf7db2a05808d64f691a66f7328104491580b7304903ae192\", \"anomaly_flag\": -1}}", "sha3": "830c7f20865911d5506f979b0650440afbc8916c302d65ef91d986f2789d00c3e7fcc1b564e25bc1a7b9af895b0f061668f170d73c05cbd9846b0a475a39dbe5"}
{"data": "{\"timestamp\": 1756836032.1436324, \"event\": {\"timestamp_ns\": 1756836032096816896, \"agent_id\": \"onder\", \"domain\": \"drone\", \"source_format\": \"json\", \"position\": {\"x\": 391871.2551366393, \"y\": -1274199.0689398374, \"z\": 0.0}, \"velocity\": {\"vx\": 774.6357078213669, \"vy\": 0.0, \"vz\": 0.0}, \"acceleration\": {\"ax\": -0.1882860213518142, \"ay\": 0.0, \"az\": 0.0}, \"orientation\": {\"yaw\": 0.0, \"pitch\": 0.0, \"roll\": 0.0}, \"sensor\": \"fusion\", \"extras\": {}, \"record_hash\": \"81c9946ba2734cd0c5fb0ccad0b46546ef9a422960eb914dd369b04157bb4f5b\", \"anomaly_flag\": -1}}", "sha3": "ee13bd1285df371e373193f278025a5ba266dfcf7f024f608dd60235d61c2f013a2c9586324327d6bea552b687f6c9a817e58d0781edd471ccd29eff9607545d"}
{"data": "{\"timestamp\": 1756836032.2057333, \"event\": {\"timestamp_ns\": 1756836032165440000, \"agent_id\": \"onder\", \"domain\": \"drone\", \"source_format\": \"json\", \"position\": {\"x\": 391948.7160540527, \"y\": -1274451.3230399482, \"z\": 0.0}, \"velocity\": {\"vx\": 774.6091741342522, \"vy\": 0.0, \"vz\": 0.0}, \"acceleration\": {\"ax\": -0.2653368711471557, \"ay\": 0.0, \"az\": 0.0}, \"orientation\": {\"yaw\": 0.0, \"pitch\": 0.0, \"roll\": 0.0}, \"sensor\": \"fusion\", \"extras\": {}, \"record_hash\": \"18e39d0ccbfcf09bff00ead03cf28104ad38e04243094cd38e89b824530cf8a8\", \"anomaly_flag\": -1}}", "sha3": "bd747d2cefd827050722ea5fbe96996ce0f2ca6622228dc42ee0e6d2c5d1553bc25df5f793120f124ca20b031d5ae103e178667f79232d2d46937d586215f16d"}
{"data": "{\"timestamp\": 1756836032.263295, \"event\": {\"timestamp_ns\": 1756836032226957056, \"agent_id\": \"onder\", \"domain\": \"drone\", \"source_format\": \"json\", \"position\": {\"x\": 392026.17509832577, \"y\": -1274703.5771449825, \"z\": 0.0}, \"velocity\": {\"vx\": 774.5904427309014, \"vy\": 0.0, \"vz\": 0.0}, \"acceleration\": {\"ax\": -0.1873140335083008, \"ay\": 0.0, \"az\": 0.0}, \"orientation\": {\"yaw\": 0.0, \"pitch\": 0.0, \"roll\": 0.0}, \"sensor\": \"fusion\", \"extras\": {}, \"record_hash\": \"c2bed789c9e5f37354a3387906177519332ea949870a83e795f2b3d8f6831725\", \"anomaly_flag\": -1}}", "sha3": "99cd64fa8b10835fb0b31ecd2fc5eb31a19e4fb0857af7442b7c909c0b1702d65e9cf3c548ea025200460ef97864b44706d5021c49acad3aae439fc4deba1374"}
{"data": "{\"timestamp\": 1756836032.3324497, \"event\": {\"timestamp_ns\": 1756836032284364032, \"agent_id\": \"onder\", \"domain\": \"drone\", \"source_format\": \"json\", \"position\": {\"x\": 392103.6318793527, \"y\": -1274955.8308453367, \"z\": 0.0}, \"velocity\": {\"vx\": 774.5678102691151, \"vy\": 0.0, \"vz\": 0.0}, \"acceleration\": {\"ax\": -0.2263246178627014, \"ay\": 0.0, \"az\": 0.0}, \"orientation\": {\"yaw\": 0.0, \"pitch\": 0.0, \"roll\": 0.0}, \"sensor\": \"fusion\", \"extras\": {}, \"record_hash\": \"de7a4e8c0e51759a31116f1de296a69ad4d97de629ff87459df5fc239c58fdd3\", \"anomaly_flag\": -1}}", "sha3": "968154f0b664637c408b2337f3d7d46c8dbcf526c750ce1e202a7539540a2e9d3e66d5c99f8e9fcd483fdcc54a5ba01bf44315f7f1b313d28537265fdbf685a7"}
{"data": "{\"timestamp\": 1756836032.3913112, \"event\": {\"timestamp_ns\": 1756836032353351168, \"agent_id\": \"onder\", \"domain\": \"drone\", \"source_format\": \"json\", \"position\": {\"x\": 392181.08657755697, \"y\": -1275208.0849456354, \"z\": 0.0}, \"velocity\": {\"vx\": 774.5469820429064, \"vy\": 0.0, \"vz\": 0.0}, \"acceleration\": {\"ax\": -0.2082822620868683, \"ay\": 0.0, \"az\": 0.0}, \"orientation\": {\"yaw\": 0.0, \"pitch\": 0.0, \"roll\": 0.0}, \"sensor\": \"fusion\", \"extras\": {}, \"record_hash\": \"4153acf8986d3e5c9d4130f715c152ae0ae87f0a72ae24c64e9ddc7338dff9bc\", \"anomaly_flag\": -1}}", "sha3": "c68e04efc577448b9f332327bb8d2eab6db97847df1e02d8537832c4b54f441faf127d5f3611714ec650baeb5d1343978f14daf5994ddf5065f0736082a44730"}
{"data": "{\"timestamp\": 1756836032.4509792, \"event\": {\"timestamp_ns\": 1756836032413444096, \"agent_id\": \"onder\", \"domain\": \"drone\", \"source_format\": \"json\", \"position\": {\"x\": 392258.53939290106, \"y\": -1275460.3394507398, \"z\": 0.0}, \"velocity\": {\"vx\": 774.5281534407712, \"vy\": 0.0, \"vz\": 0.0}, \"acceleration\": {\"ax\": -0.1882860213518142, \"ay\": 0.0, \"az\": 0.0}, \"orientation\": {\"yaw\": 0.0, \"pitch\": 0.0, \"roll\": 0.0}, \"sensor\": \"fusion\", \"extras\": {}, \"record_hash\": \"5ceff1e73484477f97775b7b8de358e9c72e8e7f48cd5ed0250829d5f49cb49c\", \"anomaly_flag\": -1}}", "sha3": "29c5b3332f584ffa1a97984ea695accc88f0730331f928fca9d1406747e54b7909edf499239012a47539e15df13755cf4f452bed974a25fc5fa2e81d669a0e2a"}
{"data": "{\"timestamp\": 1756836032.509685, \"event\": {\"timestamp_ns\": 1756836032472649984, \"agent_id\": \"onder\", \"domain\": \"drone\", \"source_format\": \"json\", \"position\": {\"x\": 392335.9899255592, \"y\": -1275712.5943509277, \"z\": 0.0}, \"velocity\": {\"vx\": 774.5053265814163, \"vy\": 0.0, \"vz\": 0.0}, \"acceleration\": {\"ax\": -0.2282685935497284, \"ay\": 0.0, \"az\": 0.0}, \"orientation\": {\"yaw\": 0.0, \"pitch\": 0.0, \"roll\": 0.0}, \"sensor\": \"fusion\", \"extras\": {}, \"record_hash\": \"f75b5e25d571bfa14ccdb6c046adbe0a4a9a440344b2af32ed7d64e4d4e6c61d\", \"anomaly_flag\": -1}}", "sha3": "4db28b1bb4402c4e6ce60c274203813886006a88c3bc5f22234629934f083e72b63d0106382bf57ef555fb1a28cab50e51704ab161432f0835ebbaca296fcba7"}
{"data": "{\"timestamp\": 1756836032.5692773, \"event\": {\"timestamp_ns\": 1756836032530964992, \"agent_id\": \"onder\", \"domain\": \"drone\", \"source_format\": \"json\", \"position\": {\"x\": 392413.43819500424, \"y\": -1275964.8488464355, \"z\": 0.0}, \"velocity\": {\"vx\": 774.4826944504358, \"vy\": 0.0, \"vz\": 0.0}, \"acceleration\": {\"ax\": -0.2263213098049164, \"ay\": 0.0, \"az\": 0.0}, \"orientation\": {\"yaw\": 0.0, \"pitch\": 0.0, \"roll\": 0.0}, \"sensor\": \"fusion\", \"extras\": {}, \"record_hash\": \"177e4c1bb5b95cd40d3b828bce91bd279369cba9ee5c108c3d02d7bfc6e09f35\", \"anomaly_flag\": -1}}", "sha3": "ae59680ee731a5834bce9e06e35997f2d30655297a2bf934cd47a4fbf0fde9935781b03cd2e2b8a4d5e319c6151d91028645adf7e113dcc2de761a44f394bb3e"}
{"data": "{\"timestamp\": 1756836032.6408958, \"event\": {\"timestamp_ns\": 1756836032590476032, \"agent_id\": \"onder\", \"domain\": \"drone\", \"source_format\": \"json\", \"position\": {\"x\": 392490.8845912757, \"y\": -1276217.103346867, \"z\": 0.0}, \"velocity\": {\"vx\": 774.4639627147891, \"vy\": 0.0, \"vz\": 0.0}, \"acceleration\": {\"ax\": -0.1873173564672469, \"ay\": 0.0, \"az\": 0.0}, \"orientation\": {\"yaw\": 0.0, \"pitch\": 0.0, \"roll\": 0.0}, \"sensor\": \"fusion\", \"extras\": {}, \"record_hash\": \"372197cdc857040b6c519dc8945a27a18eeb8abff6ea3cc37134d3d73f76c7c8\", \"anomaly_flag\": -1}}", "sha3": "e79a2de33cafec288147807f7effe4e4cf5cbf291a1a39b213e9cec88713725e6a0c5bce4a7ffb3efabad7d1b1aeb19f623f5628448cf3071e7295b0d8a32072"}
{"data": "{\"timestamp\": 1756836032.705284, \"event\": {\"timestamp_ns\": 1756836032662110208, \"agent_id\": \"onder\", \"domain\": \"drone\", \"source_format\": \"json\", \"position\": {\"x\": 392568.3289144774, \"y\": -1276469.3578473611, \"z\": 0.0}, \"velocity\": {\"vx\": 774.4432320166804, \"vy\": 0.0, \"vz\": 0.0}, \"acceleration\": {\"ax\": -0.2073069810867309, \"ay\": 0.0, \"az\": 0.0}, \"orientation\": {\"yaw\": 0.0, \"pitch\": 0.0, \"roll\": 0.0}, \"sensor\": \"fusion\", \"extras\": {}, \"record_hash\": \"9204c321632d6fc45704388fe6a7cc4d5325aae006a867ac7914b0d0c0f7d098\", \"anomaly_flag\": -1}}", "sha3": "d44af49f4eeb1cda6dfd33bc763bcebb26c0cb06bd0e02cbb2a38ff00b86e34d4b9d5e7bfefbd9c076b6f8f925ce0de54a47b02ad769bbe59a47d5a67e21993f"}
{"data": "{\"timestamp\": 1756836032.7680821, \"event\": {\"timestamp_ns\": 1756836032726213888, \"agent_id\": \"onder\", \"domain\": \"drone\", \"source_format\": \"json\", \"position\": {\"x\": 392645.7711645762, \"y\": -1276721.6123479179, \"z\": 0.0}, \"velocity\": {\"vx\": 774.4225009877659, \"vy\": 0.0, \"vz\": 0.0}, \"acceleration\": {\"ax\": -0.207310289144516, \"ay\": 0.0, \"az\": 0.0}, \"orientation\": {\"yaw\": 0.0, \"pitch\": 0.0, \"roll\": 0.0}, \"sensor\": \"fusion\", \"extras\": {}, \"record_hash\": \"7117c21ddd55066710c9261c73c80dfe7840803cba34e0dd88446b5ce1a4324a\", \"anomaly_flag\": -1}}", "sha3": "ca2a03c191383f5f7718113689b89ca61cce5c9a73123a5291a1f5eea3bbd7dfe47139924df0e6cfe107f0b54e62210f0fcb1d248a1354e6caf664f5c1602b24"}
{"data": "{\"timestamp\": 1756836032.8323934, \"event\": {\"timestamp_ns\": 1756836032789321984, \"agent_id\": \"onder\", \"domain\": \"drone\", \"source_format\": \"json\", \"position\": {\"x\": 392723.2117317111, \"y\": -1276973.867258141, \"z\": 0.0}, \"velocity\": {\"vx\": 774.4056713495828, \"vy\": 0.0, \"vz\": 0.0}, \"acceleration\": {\"ax\": -0.1682963818311691, \"ay\": 0.0, \"az\": 0.0}, \"orientation\": {\"yaw\": 0.0, \"pitch\": 0.0, \"roll\": 0.0}, \"sensor\": \"fusion\", \"extras\": {}, \"record_hash\": \"db78581f43393fb79c7a6d63187270f87c39ac3dddd0966eabf50abaccf9b2b8\", \"anomaly_flag\": -1}}", "sha3": "3c3d5b3700ad60e6b0d364fad7088717f3b1aa50ecaf1d53b7c9c406931b615fd22f047cdf64c54713ae8d1d0da43b8e16b729c433f32957a68c31e5b4c63e59"}
{"data": "{\"timestamp\": 1756836032.89267, \"event\": {\"timestamp_ns\": 1756836032853629184, \"agent_id\": \"onder\", \"domain\": \"drone\", \"source_format\": \"json\", \"position\": {\"x\": 392800.64984542324, \"y\": -1277226.1213589413, \"z\": 0.0}, \"velocity\": {\"vx\": 774.3811371211387, \"vy\": 0.0, \"vz\": 0.0}, \"acceleration\": {\"ax\": -0.2453422844409942, \"ay\": 0.0, \"az\": 0.0}, \"orientation\": {\"yaw\": 0.0, \"pitch\": 0.0, \"roll\": 0.0}, \"sensor\": \"fusion\", \"extras\": {}, \"record_hash\": \"28467179229a544ad06923f1f5bf8377e1f0fae47214c351701f84fc370f9255\", \"anomaly_flag\": -1}}", "sha3": "914845a5852347312c8a18b4f409472bb0a3cd2552ac21e94eac865152b14686aef66b2ceb171cc5a3416b9cf487957845e6e42489cc54f6bdf8c5ec6e31170a"}
{"data": "{\"timestamp\": 1756836032.9527922, \"event\": {\"timestamp_ns\": 1756836032914240000, \"agent_id\": \"onder\", \"domain\": \"drone\", \"source_format\": \"json\", \"position\": {\"x\": 392878.08548627305, \"y\": -1277478.3754500824, \"z\": 0.0}, \"velocity\": {\"vx\": 774.3564084981061, \"vy\": 0.0, \"vz\": 0.0}, \"acceleration\": {\"ax\": -0.2472862303256988, \"ay\": 0.0, \"az\": 0.0}, \"orientation\": {\"yaw\": 0.0, \"pitch\": 0.0, \"roll\": 0.0}, \"sensor\": \"fusion\", \"extras\": {}, \"record_hash\": \"8783f261cc0d6564d24d56f89fef59978e1490229876e2832a54694d2184dd23\", \"anomaly_flag\": -1}}", "sha3": "1d7250de991bca99d487157433136906414662a691eae12859e7987f56931b4c1420da667119b71e7e09ba6bf8dd992e346a62b4fc16a8dfb67474f3a2ae1f0a"}
{"data": "{\"timestamp\": 1756836033.0195215, \"event\": {\"timestamp_ns\": 1756836032973947904, \"agent_id\": \"onder\", \"domain\": \"drone\", \"source_format\": \"json\", \"position\": {\"x\": 392955.51924422954, \"y\": -1277730.629946029, \"z\": 0.0}, \"velocity\": {\"vx\": 774.3375795651651, \"vy\": 0.0, \"vz\": 0.0}, \"acceleration\": {\"ax\": -0.1882893294095993, \"ay\": 0.0, \"az\": 0.0}, \"orientation\": {\"yaw\": 0.0, \"pitch\": 0.0, \"roll\": 0.0}, \"sensor\": \"fusion\", \"extras\": {}, \"record_hash\": \"51536b3ae8686c85380d081c9ea5aba009d327769a90b9b1843aacb2fc376f2a\", \"anomaly_flag\": -1}}", "sha3": "addb2bcd92b1b71da3afa979e558bc4148554d08275602bbf65bde93b9312284731916f4721ee8bd629d91f58fc92c4a9f69018efa245028cb382ffc7b4c5f3f"}
{"data": "{\"timestamp\": 1756836033.077861, \"event\": {\"timestamp_ns\": 1756836033040785152, \"agent_id\": \"onder\", \"domain\": \"drone\", \"source_format\": \"json\", \"position\": {\"x\": 393032.95053904346, \"y\": -1277982.8840324346, \"z\": 0.0}, \"velocity\": {\"vx\": 774.3129481394268, \"vy\": 0.0, \"vz\": 0.0}, \"acceleration\": {\"ax\": -0.2463142573833465, \"ay\": 0.0, \"az\": 0.0}, \"orientation\": {\"yaw\": 0.0, \"pitch\": 0.0, \"roll\": 0.0}, \"sensor\": \"fusion\", \"extras\": {}, \"record_hash\": \"329dc4acda143aa94be02c4477e9b9863a0c66dc3084168dcfc27231a48d1b8f\", \"anomaly_flag\": -1}}", "sha3": "75b05d011bdb344e11e91f871e100897e3d72f3583a31fb36f43a0921cce8b8d12ad7920f5599f8fa21464a8c0f02524cf858284713c5874b11a7a2594588879"}
{"data": "{\"timestamp\": 1756836033.1330981, \"event\": {\"timestamp_ns\": 1756836033098802944, \"agent_id\": \"onder\", \"domain\": \"drone\", \"source_format\": \"json\", \"position\": {\"x\": 393110.3799412444, \"y\": -1278235.1389235274, \"z\": 0.0}, \"velocity\": {\"vx\": 774.2940220091916, \"vy\": 0.0, \"vz\": 0.0}, \"acceleration\": {\"ax\": -0.1892613023519516, \"ay\": 0.0, \"az\": 0.0}, \"orientation\": {\"yaw\": 0.0, \"pitch\": 0.0, \"roll\": 0.0}, \"sensor\": \"fusion\", \"extras\": {}, \"record_hash\": \"a3c7dbcee01cd8c2422d1541e1f360075d88ecffa518ca31e683097f489eb65b\", \"anomaly_flag\": -1}}", "sha3": "036f4e52ee815fc54c13ff1b2d0a351c61afcf3b4c2edb7c7b83d83685c396de955ac673d18ecd1e66203f10056374b34e29bba7ab3e682a2db7284932d96e99"}
{"data": "{\"timestamp\": 1756836033.188353, \"event\": {\"timestamp_ns\": 1756836033154285056, \"agent_id\": \"onder\", \"domain\": \"drone\", \"source_format\": \"json\", \"position\": {\"x\": 393187.8072897817, \"y\": -1278487.3930149192, \"z\": 0.0}, \"velocity\": {\"vx\": 774.2734853733755, \"vy\": 0.0, \"vz\": 0.0}, \"acceleration\": {\"ax\": -0.2053663581609726, \"ay\": 0.0, \"az\": 0.0}, \"orientation\": {\"yaw\": 0.0, \"pitch\": 0.0, \"roll\": 0.0}, \"sensor\": \"fusion\", \"extras\": {}, \"record_hash\": \"02a63e2b89988879448dae417e0e5e849bc3d0ddcccd4a4b0ed01c7f0f9d6646\", \"anomaly_flag\": -1}}", "sha3": "cb8d0a6887cc6da3f088d6f9851fd3e1fdfb665807ff6a3b7075a1908712446db24fd5f71eb7a1b700b0644d9e2a1fd7b42498cf47a1d3e4b9a2e50763821e03"}
{"data": "{\"timestamp\": 1756836033.2503555, \"event\": {\"timestamp_ns\": 1756836033209595904, \"agent_id\": \"onder\", \"domain\": \"drone\", \"source_format\": \"json\", \"position\": {\"x\": 393265.2325652823, \"y\": -1278739.6471063737, \"z\": 0.0}, \"velocity\": {\"vx\": 774.2527550060726, \"vy\": 0.0, \"vz\": 0.0}, \"acceleration\": {\"ax\": -0.2073036730289459, \"ay\": 0.0, \"az\": 0.0}, \"orientation\": {\"yaw\": 0.0, \"pitch\": 0.0, \"roll\": 0.0}, \"sensor\": \"fusion\", \"extras\": {}, \"record_hash\": \"242ee79a3a1bc79255fc7b7723a81a68ff7ad0bf2f2413b4dc1902533a133025\", \"anomaly_flag\": -1}}", "sha3": "2c65c4db20e3face85e54c2415862842982a59c0e9262bcf705aead7b8bd1ff0b88d74f9f55913df2305093ad56f34cb50f62d4b2f05bda1963fa99db299b7ba"}
{"data": "{\"timestamp\": 1756836033.3123212, \"event\": {\"timestamp_ns\": 1756836033271544832, \"agent_id\": \"onder\", \"domain\": \"drone\", \"source_format\": \"json\", \"position\": {\"x\": 393342.6559773623, \"y\": -1278991.9008028698, \"z\": 0.0}, \"velocity\": {\"vx\": 774.234120800016, \"vy\": 0.0, \"vz\": 0.0}, \"acceleration\": {\"ax\": -0.1863420605659485, \"ay\": 0.0, \"az\": 0.0}, \"orientation\": {\"yaw\": 0.0, \"pitch\": 0.0, \"roll\": 0.0}, \"sensor\": \"fusion\", \"extras\": {}, \"record_hash\": \"dc81bf266d685004c2760c0e4aae7a98b606c49b6430df281d9bece4869c8e0d\", \"anomaly_flag\": -1}}", "sha3": "cfd858ac6069ca1a887436495b28b09f7f560cd8bf3f1edf055748a4a53373e6092b7a86dba880785a1f77638e9faf07f56e621cdcb257eb7004818569960117"}
{"data": "{\"timestamp\": 1756836033.3727515, \"event\": {\"timestamp_ns\": 1756836033333449984, \"agent_id\": \"onder\", \"domain\": \"drone\", \"source_format\": \"json\", \"position\": {\"x\": 393420.0771358497, \"y\": -1279244.1536948038, \"z\": 0.0}, \"velocity\": {\"vx\": 774.2115848739123, \"vy\": 0.0, \"vz\": 0.0}, \"acceleration\": {\"ax\": -0.2253592610359192, \"ay\": 0.0, \"az\": 0.0}, \"orientation\": {\"yaw\": 0.0, \"pitch\": 0.0, \"roll\": 0.0}, \"sensor\": \"fusion\", \"extras\": {}, \"record_hash\": \"69c34c130f6682262ea7de773850d6a08edee56b65965216c53aff59fb34d603\", \"anomaly_flag\": -1}}", "sha3": "a24e8513a2c08dbd201c969ebab2f9e74f27ee94f6d0622b09f9ddd5d812f1b8993688a1832f714a073e66ac5f68e20c644456da381b7c4d699caab5bb305b91"}
{"data": "{\"timestamp\": 1756836033.4337082, \"event\": {\"timestamp_ns\": 1756836033393897984, \"agent_id\": \"onder\", \"domain\": \"drone\", \"source_format\": \"json\", \"position\": {\"x\": 393497.49548776384, \"y\": -1279496.4053677097, \"z\": 0.0}, \"velocity\": {\"vx\": 774.1835191417908, \"vy\": 0.0, \"vz\": 0.0}, \"acceleration\": {\"ax\": -0.2806573212146759, \"ay\": 0.0, \"az\": 0.0}, \"orientation\": {\"yaw\": 0.0, \"pitch\": 0.0, \"roll\": 0.0}, \"sensor\": \"fusion\", \"extras\": {}, \"record_hash\": \"0a22d3aea2805783a50ddd5814cc214ae65aed080f5f5da30fe994a375bac7eb\", \"anomaly_flag\": -1}}", "sha3": "cbaf8a7bc758b173845ed0a364c4ed81da7b8bccd6a19f947206930e620d26917c0df76d038242162e77dfa11af89092de72838c4b5b173c98bbd57e502e1d22"}
{"data": "{\"timestamp\": 1756836033.4944775, \"event\": {\"timestamp_ns\": 1756836033455207936, \"agent_id\": \"onder\", \"domain\": \"drone\", \"source_format\": \"json\", \"position\": {\"x\": 393574.9119413133, \"y\": -1279748.6578453013, \"z\": 0.0}, \"velocity\": {\"vx\": 774.1645354945636, \"vy\": 0.0, \"vz\": 0.0}, \"acceleration\": {\"ax\": -0.1898364722728728, \"ay\": 0.0, \"az\": 0.0}, \"orientation\": {\"yaw\": 0.0, \"pitch\": 0.0, \"roll\": 0.0}, \"sensor\": \"fusion\", \"extras\": {}, \"record_hash\": \"2192b70fbf8fab79eed36e6c2eebc8faea650fb7716380c54b50418e44a299b5\", \"anomaly_flag\": -1}}", "sha3": "659a14c971a7eacdfadb63261f039a46f8c6ecbdd6f485d66995aaf2b381658271007e8a3248d3ee1972d3807dd04bf180244a991c3b85ee346b8515b7f4d03c"}
{"data": "{\"timestamp\": 1756836033.557511, \"event\": {\"timestamp_ns\": 1756836033515451904, \"agent_id\": \"onder\", \"domain\": \"drone\", \"source_format\": \"json\", \"position\": {\"x\": 393652.32630815, \"y\": -1280000.9103229563, \"z\": 0.0}, \"velocity\": {\"vx\": 774.1436683673835, \"vy\": 0.0, \"vz\": 0.0}, \"acceleration\": {\"ax\": -0.2086712718009948, \"ay\": 0.0, \"az\": 0.0}, \"orientation\": {\"yaw\": 0.0, \"pitch\": 0.0, \"roll\": 0.0}, \"sensor\": \"fusion\", \"extras\": {}, \"record_hash\": \"b3ec79b821fc3b6ac97a560cde9002964a772da0106c64d24b30d39ff71cf3db\", \"anomaly_flag\": -1}}", "sha3": "aed8462c9a607468a01e2c718c091bb83339e1ec194b71f9e78eaf8663e2fd9c51908d6f2d8e4852e04f61af3713679ae073dd897c1c9ef041e703df7776842e"}
{"data": "{\"timestamp\": 1756836033.6206331, \"event\": {\"timestamp_ns\": 1756836033578473984, \"agent_id\": \"onder\", \"domain\": \"drone\", \"source_format\": \"json\", \"position\": {\"x\": 393729.7383963192, \"y\": -1280253.1627958128, \"z\": 0.0}, \"velocity\": {\"vx\": 774.1208816919899, \"vy\": 0.0, \"vz\": 0.0}, \"acceleration\": {\"ax\": -0.2278667539358139, \"ay\": 0.0, \"az\": 0.0}, \"orientation\": {\"yaw\": 0.0, \"pitch\": 0.0, \"roll\": 0.0}, \"sensor\": \"fusion\", \"extras\": {}, \"record_hash\": \"a39a96c876afab9f2d43285674999c5dc1abe582e00594104c73c995bfcfefbc\", \"anomaly_flag\": -1}}", "sha3": "9dcdf603a77e22659094ea347ef714e9e62e8133843e8fc76a04fb83543a0bba1c04b5635483f62f9b95e7c1cd08b64ff90f6297ad2452491e37151943369741"}
{"data": "{\"timestamp\": 1756836033.679088, \"event\": {\"timestamp_ns\": 1756836033641618944, \"agent_id\": \"onder\", \"domain\": \"drone\", \"source_format\": \"json\", \"position\": {\"x\": 393807.14878696465, \"y\": -1280505.4156783298, \"z\": 0.0}, \"velocity\": {\"vx\": 774.1039064545607, \"vy\": 0.0, \"vz\": 0.0}, \"acceleration\": {\"ax\": -0.1697523742914199, \"ay\": 0.0, \"az\": 0.0}, \"orientation\": {\"yaw\": 0.0, \"pitch\": 0.0, \"roll\": 0.0}, \"sensor\": \"fusion\", \"extras\": {}, \"record_hash\": \"8d51ae27a818d3b36b81cb805e22249c85d71911c99905423212b1a744388014\", \"anomaly_flag\": -1}}", "sha3": "660fe4509996d7d6c2e37bae82313b84f265428677291091056b5b88a3ec1461afdf9193ba4cbd00bcf6cb56f10dd211160c161c0d154fd1d149edc32fd66b1c"}
{"data": "{\"timestamp\": 1756836033.7363675, \"event\": {\"timestamp_ns\": 1756836033700061184, \"agent_id\": \"onder\", \"domain\": \"drone\", \"source_format\": \"json\", \"position\": {\"x\": 393884.55671306804, \"y\": -1280757.6681513009, \"z\": 0.0}, \"velocity\": {\"vx\": 774.0792610336518, \"vy\": 0.0, \"vz\": 0.0}, \"acceleration\": {\"ax\": -0.2464542090892792, \"ay\": 0.0, \"az\": 0.0}, \"orientation\": {\"yaw\": 0.0, \"pitch\": 0.0, \"roll\": 0.0}, \"sensor\": \"fusion\", \"extras\": {}, \"record_hash\": \"18d34e7da0e224914c991ab1dbc9634dafbd5ae17fab36c10ade624f8ac05c58\", \"anomaly_flag\": -1}}", "sha3": "3d88f5c9cc84a98712c48a479a70a15fffb2a7bd15e6b02a83ba311bf8be2e113da1c6aac459f779a328351aeb8e48df8a5a3c8566289c3a3b2c8d1d17acf4cc"}
{"data": "{\"timestamp\": 1756836033.7980359, \"event\": {\"timestamp_ns\": 1756836033759015168, \"agent_id\": \"onder\", \"domain\": \"drone\", \"source_format\": \"json\", \"position\": {\"x\": 393961.9627680973, \"y\": -1281009.9206291826, \"z\": 0.0}, \"velocity\": {\"vx\": 774.0605502922512, \"vy\": 0.0, \"vz\": 0.0}, \"acceleration\": {\"ax\": -0.1871074140071869, \"ay\": 0.0, \"az\": 0.0}, \"orientation\": {\"yaw\": 0.0, \"pitch\": 0.0, \"roll\": 0.0}, \"sensor\": \"fusion\", \"extras\": {}, \"record_hash\": \"cafdb20ea76ee31b3ab87ef6e81bf93fb223bc03364d7c20ff2a03fd7c2de7e1\", \"anomaly_flag\": -1}}", "sha3": "292817d810592977a95b152bbbb000ee657a15f9201fc4d653180c96c29b467b3f8e0bf081cc0320ce1fbb14d13e304757d782c2d109abe4f186fa445fab97a6"}
{"data": "{\"timestamp\": 1756836033.860407, \"event\": {\"timestamp_ns\": 1756836033819202816, \"agent_id\": \"onder\", \"domain\": \"drone\", \"source_format\": \"json\", \"position\": {\"x\": 394039.36655522836, \"y\": -1281262.1731022436, \"z\": 0.0}, \"velocity\": {\"vx\": 774.0378713105298, \"vy\": 0.0, \"vz\": 0.0}, \"acceleration\": {\"ax\": -0.2267898172140121, \"ay\": 0.0, \"az\": 0.0}, \"orientation\": {\"yaw\": 0.0, \"pitch\": 0.0, \"roll\": 0.0}, \"sensor\": \"fusion\", \"extras\": {}, \"record_hash\": \"22cb3b295f27bb09f383d2a91987c745bdd55510cb12f66efbbbaa446f95abdb\", \"anomaly_flag\": -1}}", "sha3": "4898d08dd61cdd58b1a86b84833125cc5c3b2000b76fea6cef416d2032fed4506d134b9cf4e5c3349bfcaa614d40d2bdede81200b7b3c201b4bf822090b66b77"}
{"data": "{\"timestamp\": 1756836033.9353201, \"event\": {\"timestamp_ns\": 1756836033881678080, \"agent_id\": \"onder\", \"domain\": \"drone\", \"source_format\": \"json\", \"position\": {\"x\": 394116.7682719238, \"y\": -1281514.425575338, \"z\": 0.0}, \"velocity\": {\"vx\": 774.0171669546938, \"vy\": 0.0, \"vz\": 0.0}, \"acceleration\": {\"ax\": -0.207043558359146, \"ay\": 0.0, \"az\": 0.0}, \"orientation\": {\"yaw\": 0.0, \"pitch\": 0.0, \"roll\": 0.0}, \"sensor\": \"fusion\", \"extras\": {}, \"record_hash\": \"7ce3b671a4961afe88a7092510663f9f3c67d52e47f4e2a5342c1225dfed101f\", \"anomaly_flag\": -1}}", "sha3": "f33470631b6773a5815ecba9b639a3e83d56f369262ee095146c7a0615f0a56d81da12dd864ba06cadea329804c9091aa70e1c1b7ed7ee80433dff66e4228332"}
{"data": "{\"timestamp\": 1756836033.994116, \"event\": {\"timestamp_ns\": 1756836033956420864, \"agent_id\": \"onder\", \"domain\": \"drone\", \"source_format\": \"json\", \"position\": {\"x\": 394194.1681375356, \"y\": -1281766.6776534407, \"z\": 0.0}, \"velocity\": {\"vx\": 773.998656118331, \"vy\": 0.0, \"vz\": 0.0}, \"acceleration\": {\"ax\": -0.1851083636283874, \"ay\": 0.0, \"az\": 0.0}, \"orientation\": {\"yaw\": 0.0, \"pitch\": 0.0, \"roll\": 0.0}, \"sensor\": \"fusion\", \"extras\": {}, \"record_hash\": \"e44d4f5a0db00ceca318df0f1ededb0db8bf4b5f87821811776f3dad8e834246\", \"anomaly_flag\": -1}}", "sha3": "40c96ba602b12d99d776e8edfb0de6a35a7353cd68da6ff1a5ff0d14d1886c80e6857024e181efdc4bd59144ac9f24456c7b3c871be4d3258a41c63f8392de30"}
{"data": "{\"timestamp\": 1756836034.0597324, \"event\": {\"timestamp_ns\": 1756836034015459072, \"agent_id\": \"onder\", \"domain\": \"drone\", \"source_format\": \"json\", \"position\": {\"x\": 394271.5659300985, \"y\": -1282018.9301314498, \"z\": 0.0}, \"velocity\": {\"vx\": 773.9779256288386, \"vy\": 0.0, \"vz\": 0.0}, \"acceleration\": {\"ax\": -0.2073048949241638, \"ay\": 0.0, \"az\": 0.0}, \"orientation\": {\"yaw\": 0.0, \"pitch\": 0.0, \"roll\": 0.0}, \"sensor\": \"fusion\", \"extras\": {}, \"record_hash\": \"5b410ff38c9d82e31bfd910bb607053692bb61dda8de517c7ab319623c328cb1\", \"anomaly_flag\": -1}}", "sha3": "0f5a45ea9505829e9b41e7ed8b513d132383763162ef13bb923e47b7d1b88c0d903929a2dccdcc06b9b6a684045699d5c9757f12b2ba1104f819190af87d2450"}
{"data": "{\"timestamp\": 1756836034.12049, \"event\": {\"timestamp_ns\": 1756836034080751872, \"agent_id\": \"onder\", \"domain\": \"drone\", \"source_format\": \"json\", \"position\": {\"x\": 394348.96163805126, \"y\": -1282271.1834092406, \"z\": 0.0}, \"velocity\": {\"vx\": 773.957079527197, \"vy\": 0.0, \"vz\": 0.0}, \"acceleration\": {\"ax\": -0.2084610164165496, \"ay\": 0.0, \"az\": 0.0}, \"orientation\": {\"yaw\": 0.0, \"pitch\": 0.0, \"roll\": 0.0}, \"sensor\": \"fusion\", \"extras\": {}, \"record_hash\": \"e724a628d30beec07639dcebf3a169c1be68aad9af19519f69d8ba469c90fde8\", \"anomaly_flag\": -1}}", "sha3": "81aaaf5c35164524a9f0fec29fbf75e8430e836c752bbc79771acacdfe81b3f6de2ba0b7953531d209abb47463573a4a1fae25a620507ff4895d700889644e54"}
{"data": "{\"timestamp\": 1756836034.1778913, \"event\": {\"timestamp_ns\": 1756836034141872896, \"agent_id\": \"onder\", \"domain\": \"drone\", \"source_format\": \"json\", \"position\": {\"x\": 394426.355491917, \"y\": -1282523.4366919058, \"z\": 0.0}, \"velocity\": {\"vx\": 773.9385386575439, \"vy\": 0.0, \"vz\": 0.0}, \"acceleration\": {\"ax\": -0.1854086965322494, \"ay\": 0.0, \"az\": 0.0}, \"orientation\": {\"yaw\": 0.0, \"pitch\": 0.0, \"roll\": 0.0}, \"sensor\": \"fusion\", \"extras\": {}, \"record_hash\": \"291e45f564e2ab3e7099bd1ec3ecfeb3608d2bcc2b251a95b54c59bfc4adaf62\", \"anomaly_flag\": -1}}", "sha3": "ae46d330622b4ecead8bbcdb45e5a7685116fed05856a392bd8c48c8cd1f012714c83bb5266dd76ca7a530eb9d2e5a19f1e224e83d01257954a4571ae6166d63"}
{"data": "{\"timestamp\": 1756836034.238894, \"event\": {\"timestamp_ns\": 1756836034198842880, \"agent_id\": \"onder\", \"domain\": \"drone\", \"source_format\": \"json\", \"position\": {\"x\": 394503.74770057655, \"y\": -1282775.6895844257, \"z\": 0.0}, \"velocity\": {\"vx\": 773.9220865954139, \"vy\": 0.0, \"vz\": 0.0}, \"acceleration\": {\"ax\": -0.1645206212997436, \"ay\": 0.0, \"az\": 0.0}, \"orientation\": {\"yaw\": 0.0, \"pitch\": 0.0, \"roll\": 0.0}, \"sensor\": \"fusion\", \"extras\": {}, \"record_hash\": \"55e4e35b2618eeb66adf449c183cc68f582dc5df04fc8295d60c73501eda8487\", \"anomaly_flag\": -1}}", "sha3": "2877166dd14e71742ba4cf3eb5a8de521e88e7b860b90411e3af0025cd0395e80c732d5436b68bf02f3231d46b2a8aeb6cf3e85e82be83fdc28ec8b54bd5b4cf"}
{"data": "{\"timestamp\": 1756836034.303187, \"event\": {\"timestamp_ns\": 1756836034259796992, \"agent_id\": \"onder\", \"domain\": \"drone\", \"source_format\": \"json\", \"position\": {\"x\": 394581.1374583855, \"y\": -1283027.9420673607, \"z\": 0.0}, \"velocity\": {\"vx\": 773.8975780893543, \"vy\": 0.0, \"vz\": 0.0}, \"acceleration\": {\"ax\": -0.2450850605964661, \"ay\": 0.0, \"az\": 0.0}, \"orientation\": {\"yaw\": 0.0, \"pitch\": 0.0, \"roll\": 0.0}, \"sensor\": \"fusion\", \"extras\": {}, \"record_hash\": \"10714273a0e938a57cefae67ea1a1d442700243fd2d80e05fb236fff8b358f97\", \"anomaly_flag\": -1}}", "sha3": "27db0272135e882a9fe5620f3c3a7c03cda5da84fcb2cd2603df1c8a839af11e623b06512e4c0cfdb2026cff436fa70997417aef210ed6067cd940875c274a87"}
{"data": "{\"timestamp\": 1756836034.3709712, \"event\": {\"timestamp_ns\": 1756836034324719872, \"agent_id\": \"onder\", \"domain\": \"drone\", \"source_format\": \"json\", \"position\": {\"x\": 394658.52496445103, \"y\": -1283280.194145572, \"z\": 0.0}, \"velocity\": {\"vx\": 773.8750606555917, \"vy\": 0.0, \"vz\": 0.0}, \"acceleration\": {\"ax\": -0.2251743376255035, \"ay\": 0.0, \"az\": 0.0}, \"orientation\": {\"yaw\": 0.0, \"pitch\": 0.0, \"roll\": 0.0}, \"sensor\": \"fusion\", \"extras\": {}, \"record_hash\": \"91be759e65e684b96064c14b3854d326fbd1f1e7e9608819260024bdbb9e2e0d\", \"anomaly_flag\": -1}}", "sha3": "b727587631e17679efe9962131fef5524e49642a2a2706c4e1b6b232485c533296c56c86abe5d0427bd33d15c3aee3491bbf3ac8dfbed87f9eff11a0c8239001"}
{"data": "{\"timestamp\": 1756836034.4381568, \"event\": {\"timestamp_ns\": 1756836034392189952, \"agent_id\": \"onder\", \"domain\": \"drone\", \"source_format\": \"json\", \"position\": {\"x\": 394735.9106137142, \"y\": -1283532.4462286604, \"z\": 0.0}, \"velocity\": {\"vx\": 773.8564926315524, \"vy\": 0.0, \"vz\": 0.0}, \"acceleration\": {\"ax\": -0.1856802403926849, \"ay\": 0.0, \"az\": 0.0}, \"orientation\": {\"yaw\": 0.0, \"pitch\": 0.0, \"roll\": 0.0}, \"sensor\": \"fusion\", \"extras\": {}, \"record_hash\": \"59ecceca833ec290d455104b3da4501f50f1b6962858ce0855d4db09bf4f495e\", \"anomaly_flag\": -1}}", "sha3": "7e1eebf7971b598a3e12966441863adf48616a54d5c2b798470a6a6d909b895a986002281f1c113834db3797dc6fd4047249806311ace94baa28973f38363303"}
{"data": "{\"timestamp\": 1756836034.5029519, \"event\": {\"timestamp_ns\": 1756836034459407104, \"agent_id\": \"onder\", \"domain\": \"drone\", \"source_format\": \"json\", \"position\": {\"x\": 394813.29380998545, \"y\": -1283784.698701927, \"z\": 0.0}, \"velocity\": {\"vx\": 773.8319627125242, \"vy\": 0.0, \"vz\": 0.0}, \"acceleration\": {\"ax\": -0.2452991902828217, \"ay\": 0.0, \"az\": 0.0}, \"orientation\": {\"yaw\": 0.0, \"pitch\": 0.0, \"roll\": 0.0}, \"sensor\": \"fusion\", \"extras\": {}, \"record_hash\": \"be024fb9193a6bea452dc67f89d560e951635e0ff71873e4b3a7fa62fd781cd3\", \"anomaly_flag\": -1}}", "sha3": "bf5280507646ef9102d64fcb70b6a837d870295e3a82af09b98e38b4971cb09b459c918bfbeb70f0f8f36feb455e90ea41623f52090754d80919a6ddae5a9be2"}
{"data": "{\"timestamp\": 1756836034.5620756, \"event\": {\"timestamp_ns\": 1756836034524544000, \"agent_id\": \"onder\", \"domain\": \"drone\", \"source_format\": \"json\", \"position\": {\"x\": 394890.6745579691, \"y\": -1284036.9503657238, \"z\": 0.0}, \"velocity\": {\"vx\": 773.8074798364618, \"vy\": 0.0, \"vz\": 0.0}, \"acceleration\": {\"ax\": -0.2448287606239319, \"ay\": 0.0, \"az\": 0.0}, \"orientation\": {\"yaw\": 0.0, \"pitch\": 0.0, \"roll\": 0.0}, \"sensor\": \"fusion\", \"extras\": {}, \"record_hash\": \"7e54975701654ab07b342a49d063077fa5cae1292e81c8c1af67da8d8665cdc4\", \"anomaly_flag\": -1}}", "sha3": "1d5f1cbdd2e854cbb3659a0a4b3e659df9622604bf97695d55bba55d3298cae356a4195e8b54136ec018d82d153041ffd616e29495907848052e307d410dd445"}
{"data": "{\"timestamp\": 1756836034.627138, \"event\": {\"timestamp_ns\": 1756836034583201792, \"agent_id\": \"onder\", \"domain\": \"drone\", \"source_format\": \"json\", \"position\": {\"x\": 394968.0530368271, \"y\": -1284289.2024245586, \"z\": 0.0}, \"velocity\": {\"vx\": 773.7847885806539, \"vy\": 0.0, \"vz\": 0.0}, \"acceleration\": {\"ax\": -0.2269125580787659, \"ay\": 0.0, \"az\": 0.0}, \"orientation\": {\"yaw\": 0.0, \"pitch\": 0.0, \"roll\": 0.0}, \"sensor\": \"fusion\", \"extras\": {}, \"record_hash\": \"a4c5bba02ee518e7d596556bf4fc5c786471ebebccc240cd2c26498a910df37f\", \"anomaly_flag\": -1}}", "sha3": "7ce04c29b874eba3dce2368e76e3a5f227c864fbde79e310f69ee0c4d753d8c1264defa45772d1f8c19cbf02801c6676e204946313aa75514885f13404aa4001"}
