{"data": "{\"timestamp\": 1756836106.820586, \"event\": {\"timestamp_ns\": 1756836106768673792, \"agent_id\": \"selin\", \"domain\": \"drone\", \"source_format\": \"json\", \"position\": {\"x\": 12492932.580894101, \"y\": -65115535.09296008, \"z\": 0.0}, \"velocity\": {\"vx\": 3002.986898577878, \"vy\": 0.0, \"vz\": 0.0}, \"acceleration\": {\"ax\": -0.17022317647934, \"ay\": 0.0, \"az\": 0.0}, \"orientation\": {\"yaw\": 0.0, \"pitch\": 0.0, \"roll\": 0.0}, \"sensor\": \"fusion\", \"extras\": {}, \"record_hash\": \"36152b1ad89b0e073c7fc3ea2782f23c5761ba1797c307f266ab5e86d9d5fa0b\", \"anomaly_flag\": -1}}", "sha3": "b2afdd55ff5f6bfefa2c1b5f98ab33b93a6ec229bd1eac3806798d05354ecba9f9c0f79731de1b8236ae9990b5079bc99e3f7baf9f3ae38f892778092a2d36b9"}
{"data": "{\"timestamp\": 1756836106.9426017, \"event\": {\"timestamp_ns\": 1756836106842067968, \"agent_id\": \"selin\", \"domain\": \"drone\", \"source_format\": \"json\", \"position\": {\"x\": 12493232.877881728, \"y\": -65117096.032822765, \"z\": 0.0}, \"velocity\": {\"vx\": 3002.96987626023, \"vy\": 0.0, \"vz\": 0.0}, \"acceleration\": {\"ax\": -0.17022317647934, \"ay\": 0.0, \"az\": 0.0}, \"orientation\": {\"yaw\": 0.0, \"pitch\": 0.0, \"roll\": 0.0}, \"sensor\": \"fusion\", \"extras\": {}, \"record_hash\": \"3d82ee09ef9b3e3491bd2fcaaab8c6d021caeb48574ddf6f2d04998953f7fd2d\", \"anomaly_flag\": -1}}", "sha3": "e184b1cfdca689069dce7e9878daa4b4a3bfddedc89f055eced13de15d21f030654728aa19daacc912d3f7e4750e19bdc50da004b921692b1ee1df738db89dc9"}
{"data": "{\"timestamp\": 1756836107.0335743, \"event\": {\"timestamp_ns\": 1756836106963936000, \"agent_id\": \"selin\", \"domain\": \"drone\", \"source_format\": \"json\", \"position\": {\"x\": 12493533.172615936, \"y\": -65118656.97188088, \"z\": 0.0}, \"velocity\": {\"vx\": 3002.9473420805425, \"vy\": 0.0, \"vz\": 0.0}, \"acceleration\": {\"ax\": -0.225341796875, \"ay\": 0.0, \"az\": 0.0}, \"orientation\": {\"yaw\": 0.0, \"pitch\": 0.0, \"roll\": 0.0}, \"sensor\": \"fusion\", \"extras\": {}, \"record_hash\": \"ee9a0b78ee8fd4cad2c0c8f75092eab0e887d73368c4ae0869e56b53a1051781\", \"anomaly_flag\": -1}}", "sha3": "0ec9f363e7640122dbfd2a6cfb5496f4f5853979c1d8f575a4b89f4d3f957922e6f6cc0b5b03d2e2f677c14d386fcfd225f823f9f69e564493b2941de2cf3400"}
{"data": "{\"timestamp\": 1756836107.1186924, \"event\": {\"timestamp_ns\": 1756836107056014080, \"agent_id\": \"selin\", \"domain\": \"drone\", \"source_format\": \"json\", \"position\": {\"x\": 12493833.465477128, \"y\": -65120217.91094391, \"z\": 0.0}, \"velocity\": {\"vx\": 3002.928611913988, \"vy\": 0.0, \"vz\": 0.0}, \"acceleration\": {\"ax\": -0.18730166554451, \"ay\": 0.0, \"az\": 0.0}, \"orientation\": {\"yaw\": 0.0, \"pitch\": 0.0, \"roll\": 0.0}, \"sensor\": \"fusion\", \"extras\": {}, \"record_hash\": \"1ebc9a4bb6ff364542ceabbdf3d1bed1ffb46f90eb317dd2a2490c4f64b0aca1\", \"anomaly_flag\": -1}}", "sha3": "3bd2dbb1931737a0f06945030290eac3f5261b781c723325b0b66b266c0710e5f15afca94d1914976c6318624383a46376b9d5f477d45f871c1738bb25ae1e38"}
{"data": "{\"timestamp\": 1756836107.1842391, \"event\": {\"timestamp_ns\": 1756836107139483904, \"agent_id\": \"selin\", \"domain\": \"drone\", \"source_format\": \"json\", \"position\": {\"x\": 12494133.756655527, \"y\": -65121778.85041659, \"z\": 0.0}, \"velocity\": {\"vx\": 3002.9117840028493, \"vy\": 0.0, \"vz\": 0.0}, \"acceleration\": {\"ax\": -0.168279111385345, \"ay\": 0.0, \"az\": 0.0}, \"orientation\": {\"yaw\": 0.0, \"pitch\": 0.0, \"roll\": 0.0}, \"sensor\": \"fusion\", \"extras\": {}, \"record_hash\": \"f95f67a2c0347cc52fecbfc621cd1c754de6bb5d8650c584779e827231a4e288\", \"anomaly_flag\": -1}}", "sha3": "09b897e97afb2c06be5070458cf6d57d81924946847afcaf3e3ec0d01045cd5c2de66066b57c17a576a7f2e5568166773ed165b1b28e3ac01c07967fa77b025c"}
{"data": "{\"timestamp\": 1756836107.3115084, \"event\": {\"timestamp_ns\": 1756836107205515008, \"agent_id\": \"selin\", \"domain\": \"drone\", \"source_format\": \"json\", \"position\": {\"x\": 12494434.04557084, \"y\": -65123339.78948459, \"z\": 0.0}, \"velocity\": {\"vx\": 3002.8891531146255, \"vy\": 0.0, \"vz\": 0.0}, \"acceleration\": {\"ax\": -0.226308882236481, \"ay\": 0.0, \"az\": 0.0}, \"orientation\": {\"yaw\": 0.0, \"pitch\": 0.0, \"roll\": 0.0}, \"sensor\": \"fusion\", \"extras\": {}, \"record_hash\": \"1aca0128eb02a8e1b57f96bb3c20b4b272924413251d32f53de8cf11b16c952e\", \"anomaly_flag\": -1}}", "sha3": "734f2dab10846bb41d23c5b7ffa3c439acce0349e3f9fc7503d3a565c0b0820f7666cb1d2165750812f5da67669a5330d66d3435b523197347f125c6dda8d19e"}
{"data": "{\"timestamp\": 1756836107.3934648, \"event\": {\"timestamp_ns\": 1756836107332818944, \"agent_id\": \"selin\", \"domain\": \"drone\", \"source_format\": \"json\", \"position\": {\"x\": 12494734.332223061, \"y\": -65124900.728147894, \"z\": 0.0}, \"velocity\": {\"vx\": 3002.8665222264017, \"vy\": 0.0, \"vz\": 0.0}, \"acceleration\": {\"ax\": -0.226308882236481, \"ay\": 0.0, \"az\": 0.0}, \"orientation\": {\"yaw\": 0.0, \"pitch\": 0.0, \"roll\": 0.0}, \"sensor\": \"fusion\", \"extras\": {}, \"record_hash\": \"5a0215e2ef18ae4b41bdd72b8fe15c1544ee7da164610c453821650ced35c938\", \"anomaly_flag\": -1}}", "sha3": "bbbd7ebf10d667fa6b37d5816275cb7aa7296897dbf473cc1c2ded9504c6e802c4f7a9ed16a7df916aaccd771c0516d79916b82a99f705602039b7bf1e9964ca"}
{"data": "{\"timestamp\": 1756836107.5757391, \"event\": {\"timestamp_ns\": 1756836107414537984, \"agent_id\": \"selin\", \"domain\": \"drone\", \"source_format\": \"json\", \"position\": {\"x\": 12495034.616982844, \"y\": -65126461.66761588, \"z\": 0.0}, \"velocity\": {\"vx\": 3002.8475978187407, \"vy\": 0.0, \"vz\": 0.0}, \"acceleration\": {\"ax\": -0.189244076609611, \"ay\": 0.0, \"az\": 0.0}, \"orientation\": {\"yaw\": 0.0, \"pitch\": 0.0, \"roll\": 0.0}, \"sensor\": \"fusion\", \"extras\": {}, \"record_hash\": \"0e0d5f0718662484803420c4e49cafd1d5eed65b7e1652d7a834c640dfdd5fcf\", \"anomaly_flag\": -1}}", "sha3": "ccc892a4d25bd24da3774adccdd646d6d80dc19f3ec1efa842520b8649ea95075671eb1b3ef503fd08c8297e5e34fba64ee772bf46c7e6888edeab4d35d1abba"}
{"data": "{\"timestamp\": 1756836107.6430311, \"event\": {\"timestamp_ns\": 1756836107597321984, \"agent_id\": \"selin\", \"domain\": \"drone\", \"source_format\": \"json\", \"position\": {\"x\": 12495334.899869626, \"y\": -65128022.60708878, \"z\": 0.0}, \"velocity\": {\"vx\": 3002.8288678190793, \"vy\": 0.0, \"vz\": 0.0}, \"acceleration\": {\"ax\": -0.187299996614456, \"ay\": 0.0, \"az\": 0.0}, \"orientation\": {\"yaw\": 0.0, \"pitch\": 0.0, \"roll\": 0.0}, \"sensor\": \"fusion\", \"extras\": {}, \"record_hash\": \"b528bd99252a08ab73d353d6aef0a1d7ec9f74bdad07db4cadfd90d9dfcc70b3\", \"anomaly_flag\": -1}}", "sha3": "276d5cf0434a496ba8da621d5d3fecf32ec0e8812737c383f10be57c87666e0d1d8b2e6e59e7857b6dcc360420e1d5d79429a9fa4dabc9c36a854fe96c767d68"}
{"data": "{\"timestamp\": 1756836107.7125103, \"event\": {\"timestamp_ns\": 1756836107664028928, \"agent_id\": \"selin\", \"domain\": \"drone\", \"source_format\": \"json\", \"position\": {\"x\": 12495635.18049332, \"y\": -65129583.546156995, \"z\": 0.0}, \"velocity\": {\"vx\": 3002.8062369308554, \"vy\": 0.0, \"vz\": 0.0}, \"acceleration\": {\"ax\": -0.226308882236481, \"ay\": 0.0, \"az\": 0.0}, \"orientation\": {\"yaw\": 0.0, \"pitch\": 0.0, \"roll\": 0.0}, \"sensor\": \"fusion\", \"extras\": {}, \"record_hash\": \"087fe46fa5e1c49e5fa0bd9c724d3b596681dac2ecb01448dffca165125eb072\", \"anomaly_flag\": -1}}", "sha3": "81096c3be644338ed799d9dbb2983489096262bf11dc593c59ea62739d8d6d82c61d5e781155d664e7623607f97d2c800b3424557ff5bc9273924baa189acf45"}
{"data": "{\"timestamp\": 1756836107.8839169, \"event\": {\"timestamp_ns\": 1756836107735752192, \"agent_id\": \"selin\", \"domain\": \"drone\", \"source_format\": \"json\", \"position\": {\"x\": 12495935.458853908, \"y\": -65131144.484820515, \"z\": 0.0}, \"velocity\": {\"vx\": 3002.783605878719, \"vy\": 0.0, \"vz\": 0.0}, \"acceleration\": {\"ax\": -0.226310521364212, \"ay\": 0.0, \"az\": 0.0}, \"orientation\": {\"yaw\": 0.0, \"pitch\": 0.0, \"roll\": 0.0}, \"sensor\": \"fusion\", \"extras\": {}, \"record_hash\": \"8dc437fb96621da28541ee1dfa27058b9b02342d4ea97e4914294e339eb7363f\", \"anomaly_flag\": -1}}", "sha3": "29df751592a0dd5f185d5055ecdb9bde7a323a7420794271caa9d353f8fcae7ccc0ca0c794895a666c2f8414b8e1cec2fa3b59d7640eb6f32d91a0ef938cfee1"}
{"data": "{\"timestamp\": 1756836107.9669888, \"event\": {\"timestamp_ns\": 1756836107904807168, \"agent_id\": \"selin\", \"domain\": \"drone\", \"source_format\": \"json\", \"position\": {\"x\": 12496235.734761197, \"y\": -65132705.422674604, \"z\": 0.0}, \"velocity\": {\"vx\": 3002.7590729004824, \"vy\": 0.0, \"vz\": 0.0}, \"acceleration\": {\"ax\": -0.245329782366753, \"ay\": 0.0, \"az\": 0.0}, \"orientation\": {\"yaw\": 0.0, \"pitch\": 0.0, \"roll\": 0.0}, \"sensor\": \"fusion\", \"extras\": {}, \"record_hash\": \"bacce28bd6303ea45f3fc8acf4526b11748c40d68d2ebf6762ec16b52bf37885\", \"anomaly_flag\": -1}}", "sha3": "4b5cca31678cb456efdcc53de78e2c478bba35e693a3d5f0ac63a0a7f11b4e799bb32e55146acef86bac22863d8aa46384c2447e42e30ada0b0837a31b00ecf1"}
{"data": "{\"timestamp\": 1756836108.034284, \"event\": {\"timestamp_ns\": 1756836107988073984, \"agent_id\": \"selin\", \"domain\": \"drone\", \"source_format\": \"json\", \"position\": {\"x\": 12496536.008595541, \"y\": -65134266.360528745, \"z\": 0.0}, \"velocity\": {\"vx\": 3002.7383434421504, \"vy\": 0.0, \"vz\": 0.0}, \"acceleration\": {\"ax\": -0.207294583320618, \"ay\": 0.0, \"az\": 0.0}, \"orientation\": {\"yaw\": 0.0, \"pitch\": 0.0, \"roll\": 0.0}, \"sensor\": \"fusion\", \"extras\": {}, \"record_hash\": \"27b001658fb53f0b9e0b6db86e49445108bc5234cea28ca05a289e634f51ebd9\", \"anomaly_flag\": -1}}", "sha3": "813025c48f58b24749f18c62879cd7590c4d01408240ca4220a51bb73855aa2bafd539fff05790c3ee08403711035c02217dc936875c996e67939a7154fc9fe3"}
{"data": "{\"timestamp\": 1756836108.110816, \"event\": {\"timestamp_ns\": 1756836108055728896, \"agent_id\": \"selin\", \"domain\": \"drone\", \"source_format\": \"json\", \"position\": {\"x\": 12496836.28035694, \"y\": -65135827.29838294, \"z\": 0.0}, \"velocity\": {\"vx\": 3002.7176139838184, \"vy\": 0.0, \"vz\": 0.0}, \"acceleration\": {\"ax\": -0.207294583320618, \"ay\": 0.0, \"az\": 0.0}, \"orientation\": {\"yaw\": 0.0, \"pitch\": 0.0, \"roll\": 0.0}, \"sensor\": \"fusion\", \"extras\": {}, \"record_hash\": \"c7789e5b7bc24ebec9e8631d4886164ffdff068d5bc2dc769100ab032617729e\", \"anomaly_flag\": -1}}", "sha3": "d36fee692a5629fdf38d18ea0f012c566dddb792e57cf282d1db57c6be1bce26ef182c7b0d2b64e8079089c40cffdd1d17fa73913a4accf5ac401df5d89eec0b"}
{"data": "{\"timestamp\": 1756836108.196115, \"event\": {\"timestamp_ns\": 1756836108132011776, \"agent_id\": \"selin\", \"domain\": \"drone\", \"source_format\": \"json\", \"position\": {\"x\": 12497136.5498552, \"y\": -65137388.235832445, \"z\": 0.0}, \"velocity\": {\"vx\": 3002.6949826008763, \"vy\": 0.0, \"vz\": 0.0}, \"acceleration\": {\"ax\": -0.226313829421997, \"ay\": 0.0, \"az\": 0.0}, \"orientation\": {\"yaw\": 0.0, \"pitch\": 0.0, \"roll\": 0.0}, \"sensor\": \"fusion\", \"extras\": {}, \"record_hash\": \"c02c8f13d822203bea431c6a69fe0a635a1a0a26cbfd36a6fa3086149b7a4bc6\", \"anomaly_flag\": -1}}", "sha3": "73a364c716a1ae9267bacb0617e1918042531dbcbecbf87874088c300ee0f90bddf349310dd0218dc04835e4b2fce39df0848cd68eb38549935bc6e920ab1fb5"}
{"data": "{\"timestamp\": 1756836108.2915702, \"event\": {\"timestamp_ns\": 1756836108217075200, \"agent_id\": \"selin\", \"domain\": \"drone\", \"source_format\": \"json\", \"position\": {\"x\": 12497436.81747074, \"y\": -65138949.17368675, \"z\": 0.0}, \"velocity\": {\"vx\": 3002.67615539796, \"vy\": 0.0, \"vz\": 0.0}, \"acceleration\": {\"ax\": -0.188272029161453, \"ay\": 0.0, \"az\": 0.0}, \"orientation\": {\"yaw\": 0.0, \"pitch\": 0.0, \"roll\": 0.0}, \"sensor\": \"fusion\", \"extras\": {}, \"record_hash\": \"3886224a8d260a41aa02d2b350a57f7f6cf40e4870b8262e1b6c71c147c39377\", \"anomaly_flag\": -1}}", "sha3": "52977a9dbb9e408597e83af774f4ce9192a411931470a47cee24e32c48102ddee008c0b64cbaef0fd916390fd119b7b5058bd467a99f646fbc2cf504f5826630"}
{"data": "{\"timestamp\": 1756836108.356559, \"event\": {\"timestamp_ns\": 1756836108313481984, \"agent_id\": \"selin\", \"domain\": \"drone\", \"source_format\": \"json\", \"position\": {\"x\": 12497737.082823176, \"y\": -65140510.11113636, \"z\": 0.0}, \"velocity\": {\"vx\": 3002.6535243458234, \"vy\": 0.0, \"vz\": 0.0}, \"acceleration\": {\"ax\": -0.226310521364212, \"ay\": 0.0, \"az\": 0.0}, \"orientation\": {\"yaw\": 0.0, \"pitch\": 0.0, \"roll\": 0.0}, \"sensor\": \"fusion\", \"extras\": {}, \"record_hash\": \"ad2054dd232b967d620c85af7e31327dce4a0be251457833afed0907352653f2\", \"anomaly_flag\": -1}}", "sha3": "f1b968eea89c7d38b828c7aeab6501a35f2fa92de8b9881aa4fda64c5efb73cb18dfc9db9ae576963e6797823e2dd8d55519cf7041d959f145aa9ee2133e0199"}
{"data": "{\"timestamp\": 1756836108.4324555, \"event\": {\"timestamp_ns\": 1756836108377416960, \"agent_id\": \"selin\", \"domain\": \"drone\", \"source_format\": \"json\", \"position\": {\"x\": 12498037.346312314, \"y\": -65142071.048191, \"z\": 0.0}, \"velocity\": {\"vx\": 3002.6348913825236, \"vy\": 0.0, \"vz\": 0.0}, \"acceleration\": {\"ax\": -0.186329632997513, \"ay\": 0.0, \"az\": 0.0}, \"orientation\": {\"yaw\": 0.0, \"pitch\": 0.0, \"roll\": 0.0}, \"sensor\": \"fusion\", \"extras\": {}, \"record_hash\": \"92a2946aaea7cb5491bf57138bb4f03420cfaeed691b78b5906209940686abd9\", \"anomaly_flag\": -1}}", "sha3": "aeec8250b6e194d9708a3da64d38c4c1a726d814e641eaf6ba71fba9723d7efd83af8c321bb326c5c616b498bb80d82cc9d8f2cccde2fbfc426a9f2c5a5b0fc0"}
{"data": "{\"timestamp\": 1756836108.5135777, \"event\": {\"timestamp_ns\": 1756836108453552896, \"agent_id\": \"selin\", \"domain\": \"drone\", \"source_format\": \"json\", \"position\": {\"x\": 12498337.607138539, \"y\": -65143631.98483124, \"z\": 0.0}, \"velocity\": {\"vx\": 3002.60826223857, \"vy\": 0.0, \"vz\": 0.0}, \"acceleration\": {\"ax\": -0.266291439533234, \"ay\": 0.0, \"az\": 0.0}, \"orientation\": {\"yaw\": 0.0, \"pitch\": 0.0, \"roll\": 0.0}, \"sensor\": \"fusion\", \"extras\": {}, \"record_hash\": \"af2354ceef6fe8458a15473594eabc251a6c0cd45fb3d45184d020dadfd0cadd\", \"anomaly_flag\": -1}}", "sha3": "b80a102d4bf715f32cc2d0c621856ec5b842771f75db9d6654f380ce9cd8058eb79656c57bced27276a83cd26eee52f6b9a2de01e6eb224fd1a1bc769d9dbb93"}
{"data": "{\"timestamp\": 1756836108.6164913, \"event\": {\"timestamp_ns\": 1756836108535869952, \"agent_id\": \"selin\", \"domain\": \"drone\", \"source_format\": \"json\", \"position\": {\"x\": 12498637.865701674, \"y\": -65145192.92106678, \"z\": 0.0}, \"velocity\": {\"vx\": 3002.5856313503464, \"vy\": 0.0, \"vz\": 0.0}, \"acceleration\": {\"ax\": -0.226308882236481, \"ay\": 0.0, \"az\": 0.0}, \"orientation\": {\"yaw\": 0.0, \"pitch\": 0.0, \"roll\": 0.0}, \"sensor\": \"fusion\", \"extras\": {}, \"record_hash\": \"f795b88dd94422564a9cae60bcbe692bc73c7084132858f1c87e1cb1feebe365\", \"anomaly_flag\": -1}}", "sha3": "aafdbfae3be74cecd4733472927e546b583e586e79ebf297b7c990a7b9147f0f3c9eafdc5534219d0bfdec32f63fd5af1c816500b38abd1016cedb1c3ec52152"}
{"data": "{\"timestamp\": 1756836108.6968997, \"event\": {\"timestamp_ns\": 1756836108637402112, \"agent_id\": \"selin\", \"domain\": \"drone\", \"source_format\": \"json\", \"position\": {\"x\": 12498938.122401513, \"y\": -65146753.85690736, \"z\": 0.0}, \"velocity\": {\"vx\": 3002.5669983870466, \"vy\": 0.0, \"vz\": 0.0}, \"acceleration\": {\"ax\": -0.186329632997513, \"ay\": 0.0, \"az\": 0.0}, \"orientation\": {\"yaw\": 0.0, \"pitch\": 0.0, \"roll\": 0.0}, \"sensor\": \"fusion\", \"extras\": {}, \"record_hash\": \"748304fb14304d60e6ea26e8ed1b6f724bf7617dd00e781358bf87021c301093\", \"anomaly_flag\": -1}}", "sha3": "389930c50c53a9d23d20d22a58dc7216a6e586386d27f5b390bd04a2c4afc6422181b46682ddf7bb4d4a5ab647776a14cd8738ce4bae2e1e86e37600868eacaf"}
{"data": "{\"timestamp\": 1756836108.7588727, \"event\": {\"timestamp_ns\": 1756836108717914112, \"agent_id\": \"selin\", \"domain\": \"drone\", \"source_format\": \"json\", \"position\": {\"x\": 12499238.376828527, \"y\": -65148314.79274313, \"z\": 0.0}, \"velocity\": {\"vx\": 3002.5442701301654, \"vy\": 0.0, \"vz\": 0.0}, \"acceleration\": {\"ax\": -0.22728256881237, \"ay\": 0.0, \"az\": 0.0}, \"orientation\": {\"yaw\": 0.0, \"pitch\": 0.0, \"roll\": 0.0}, \"sensor\": \"fusion\", \"extras\": {}, \"record_hash\": \"1559e990134f2fb9c510246f1b6558e70352d79ed36a4ab7f3981b2fc91bc405\", \"anomaly_flag\": -1}}", "sha3": "f904f0698dc740d158b962aeef5b011de0582b11947586b2ac6de37e6d59542250a85a0d214ed03a435cc76479dac2fd4ed31baf0d310ec573db1a2018bd56dc"}
{"data": "{\"timestamp\": 1756836108.8241067, \"event\": {\"timestamp_ns\": 1756836108780316160, \"agent_id\": \"selin\", \"domain\": \"drone\", \"source_format\": \"json\", \"position\": {\"x\": 12499538.62898273, \"y\": -65149875.72857409, \"z\": 0.0}, \"velocity\": {\"vx\": 3002.521542038687, \"vy\": 0.0, \"vz\": 0.0}, \"acceleration\": {\"ax\": -0.227280914783478, \"ay\": 0.0, \"az\": 0.0}, \"orientation\": {\"yaw\": 0.0, \"pitch\": 0.0, \"roll\": 0.0}, \"sensor\": \"fusion\", \"extras\": {}, \"record_hash\": \"0fd4cb3e5a11ce675ce21df70f1c5f29335a220738ed23d0c356cb83caad4dbe\", \"anomaly_flag\": -1}}", "sha3": "b753e00c5eb1094afc254ce8e48d3d3a9bedbe644101e237c2f08c0d5f6a3d3a5f39314b94fd43b7b2aff414ad4851c4a4ad04b897b93f40de99339429bb587c"}
{"data": "{\"timestamp\": 1756836108.8987706, \"event\": {\"timestamp_ns\": 1756836108845061120, \"agent_id\": \"selin\", \"domain\": \"drone\", \"source_format\": \"json\", \"position\": {\"x\": 12499838.878864124, \"y\": -65151436.66440024, \"z\": 0.0}, \"velocity\": {\"vx\": 3002.498813947209, \"vy\": 0.0, \"vz\": 0.0}, \"acceleration\": {\"ax\": -0.227280914783478, \"ay\": 0.0, \"az\": 0.0}, \"orientation\": {\"yaw\": 0.0, \"pitch\": 0.0, \"roll\": 0.0}, \"sensor\": \"fusion\", \"extras\": {}, \"record_hash\": \"7b5829078864e21493eb7c6f77c01eebb9b72db2aec7efef83c80551608757d8\", \"anomaly_flag\": -1}}", "sha3": "a2da038f48ecfb8c37c75995740c743d8cf72a5e5874fb576e466ff8c8526dade2582be56b3c342be3bdf619aac3bf9462687121bed5439499fe8930d0437693"}
{"data": "{\"timestamp\": 1756836108.9690356, \"event\": {\"timestamp_ns\": 1756836108919930880, \"agent_id\": \"selin\", \"domain\": \"drone\", \"source_format\": \"json\", \"position\": {\"x\": 12500139.12667259, \"y\": -65152997.60022645, \"z\": 0.0}, \"velocity\": {\"vx\": 3002.4780846527897, \"vy\": 0.0, \"vz\": 0.0}, \"acceleration\": {\"ax\": -0.207292944192886, \"ay\": 0.0, \"az\": 0.0}, \"orientation\": {\"yaw\": 0.0, \"pitch\": 0.0, \"roll\": 0.0}, \"sensor\": \"fusion\", \"extras\": {}, \"record_hash\": \"09ee8446956664d4f5f64a2176fbdcd9a13e4e35d098aac2396240145010981e\", \"anomaly_flag\": -1}}", "sha3": "86adb2953e331cc0a842df6b68fdda0ca1d3e98c83702cc0f4180f6843bb13303e03bea12fe7dd37f744c5a25574a6512375082849e61f1c755ca706fb912a78"}
{"data": "{\"timestamp\": 1756836109.04392, \"event\": {\"timestamp_ns\": 1756836108990040064, \"agent_id\": \"selin\", \"domain\": \"drone\", \"source_format\": \"json\", \"position\": {\"x\": 12500439.37279823, \"y\": -65154558.536462314, \"z\": 0.0}, \"velocity\": {\"vx\": 3002.4612564123354, \"vy\": 0.0, \"vz\": 0.0}, \"acceleration\": {\"ax\": -0.168282404541969, \"ay\": 0.0, \"az\": 0.0}, \"orientation\": {\"yaw\": 0.0, \"pitch\": 0.0, \"roll\": 0.0}, \"sensor\": \"fusion\", \"extras\": {}, \"record_hash\": \"99ded1610d40247a93196c26b74c08c4dc0704928a70a56c63e78acbbcbcfba2\", \"anomaly_flag\": -1}}", "sha3": "dd2e13f1f20acd0f5dcaa2f9ba3ae676c4dfb4a1149fa5e9d51013e6c3ec987f4d04fba905ebc50700a408a96993f711a216b3f2126d2c236ed23960593de3e2"}
{"data": "{\"timestamp\": 1756836109.1572003, \"event\": {\"timestamp_ns\": 1756836109065356032, \"agent_id\": \"selin\", \"domain\": \"drone\", \"source_format\": \"json\", \"position\": {\"x\": 12500739.61666075, \"y\": -65156119.47229349, \"z\": 0.0}, \"velocity\": {\"vx\": 3002.438625193306, \"vy\": 0.0, \"vz\": 0.0}, \"acceleration\": {\"ax\": -0.226312190294266, \"ay\": 0.0, \"az\": 0.0}, \"orientation\": {\"yaw\": 0.0, \"pitch\": 0.0, \"roll\": 0.0}, \"sensor\": \"fusion\", \"extras\": {}, \"record_hash\": \"9a2b3f529be9036fb15d3a1f7277eac57a110e3239e43a0ba544d638423067ca\", \"anomaly_flag\": -1}}", "sha3": "620487da7b4d2e39545bbd2f1dbf976ee1ada11dd063cdf22f8b35c7e3679c5b7ed9ec8847a559195fac5f5665e5798c1a54f0dc593e2c2ba760110577165a78"}
{"data": "{\"timestamp\": 1756836109.2691302, \"event\": {\"timestamp_ns\": 1756836109178745088, \"agent_id\": \"selin\", \"domain\": \"drone\", \"source_format\": \"json\", \"position\": {\"x\": 12501039.858250443, \"y\": -65157680.40811986, \"z\": 0.0}, \"velocity\": {\"vx\": 3002.415896936425, \"vy\": 0.0, \"vz\": 0.0}, \"acceleration\": {\"ax\": -0.22728256881237, \"ay\": 0.0, \"az\": 0.0}, \"orientation\": {\"yaw\": 0.0, \"pitch\": 0.0, \"roll\": 0.0}, \"sensor\": \"fusion\", \"extras\": {}, \"record_hash\": \"f6ccd94fed4783e2731e3c9bfc66066043251c83535a893a9ada074f8b5634cf\", \"anomaly_flag\": -1}}", "sha3": "3d2f3d7944d1a63267c96922ff40daebbdddd250d5857d5c18803c730bb542787a704085b5d6abd9c40756d24aa7bae67b40ed5d2793f5fc82e395eabdfca2b5"}
{"data": "{\"timestamp\": 1756836109.3659477, \"event\": {\"timestamp_ns\": 1756836109300664064, \"agent_id\": \"selin\", \"domain\": \"drone\", \"source_format\": \"json\", \"position\": {\"x\": 12501340.098167049, \"y\": -65159241.343956, \"z\": 0.0}, \"velocity\": {\"vx\": 3002.399166063138, \"vy\": 0.0, \"vz\": 0.0}, \"acceleration\": {\"ax\": -0.167308732867241, \"ay\": 0.0, \"az\": 0.0}, \"orientation\": {\"yaw\": 0.0, \"pitch\": 0.0, \"roll\": 0.0}, \"sensor\": \"fusion\", \"extras\": {}, \"record_hash\": \"0ae99c7fc3f715148671a1f4d5ebe899f87e7cdb460ffae0534774bb214fd2a4\", \"anomaly_flag\": -1}}", "sha3": "83a7ff478a565de14fe11c9ca59d14d55c2bbbafe6e7c9b0905cfa1a722999faf2b1a5963c10a0a694132a746f90c989bfba916135a403a94ed2bd7b54104b5f"}
{"data": "{\"timestamp\": 1756836109.4654582, \"event\": {\"timestamp_ns\": 1756836109387027968, \"agent_id\": \"selin\", \"domain\": \"drone\", \"source_format\": \"json\", \"position\": {\"x\": 12501640.335810846, \"y\": -65160802.27978734, \"z\": 0.0}, \"velocity\": {\"vx\": 3002.37643797166, \"vy\": 0.0, \"vz\": 0.0}, \"acceleration\": {\"ax\": -0.227280914783478, \"ay\": 0.0, \"az\": 0.0}, \"orientation\": {\"yaw\": 0.0, \"pitch\": 0.0, \"roll\": 0.0}, \"sensor\": \"fusion\", \"extras\": {}, \"record_hash\": \"baf7ae1504296e5bfcbd722de88849b00bed5c605d73aaaab5baba728c79b361\", \"anomaly_flag\": -1}}", "sha3": "17b2a42d9ba48594260967fdd7138b39e1d74b7ef6e408094458b587b9ffa7a70d21907d8c9df2cfc914de03430b4dbd5b765affc5bc95b1939f49c0ebdc8580"}
{"data": "{\"timestamp\": 1756836109.563788, \"event\": {\"timestamp_ns\": 1756836109488034048, \"agent_id\": \"selin\", \"domain\": \"drone\", \"source_format\": \"json\", \"position\": {\"x\": 12501940.57158166, \"y\": -65162363.21562359, \"z\": 0.0}, \"velocity\": {\"vx\": 3002.3577081359113, \"vy\": 0.0, \"vz\": 0.0}, \"acceleration\": {\"ax\": -0.187298357486725, \"ay\": 0.0, \"az\": 0.0}, \"orientation\": {\"yaw\": 0.0, \"pitch\": 0.0, \"roll\": 0.0}, \"sensor\": \"fusion\", \"extras\": {}, \"record_hash\": \"0bc1b03a01e63bd0c59e304398771fb7a20b10d0af19529903d7eb7122d1a7a5\", \"anomaly_flag\": -1}}", "sha3": "665af2f59263da1ab564f07a26bb32cc938111ec604f6c487d9e50ed868047cdd3b33b5e210dde72e2567ec8bc051d7ee00e7390d64ff974c3e3c39f992fe1e0"}
{"data": "{\"timestamp\": 1756836109.657173, \"event\": {\"timestamp_ns\": 1756836109585026048, \"agent_id\": \"selin\", \"domain\": \"drone\", \"source_format\": \"json\", \"position\": {\"x\": 12502240.80567937, \"y\": -65163924.15146961, \"z\": 0.0}, \"velocity\": {\"vx\": 3002.340977098712, \"vy\": 0.0, \"vz\": 0.0}, \"acceleration\": {\"ax\": -0.1673103719949719, \"ay\": 0.0, \"az\": 0.0}, \"orientation\": {\"yaw\": 0.0, \"pitch\": 0.0, \"roll\": 0.0}, \"sensor\": \"fusion\", \"extras\": {}, \"record_hash\": \"835a75ee70e33bbac50ac11338f18f6a3d49f2e8325d36d1f0ec73272fadf8fc\", \"anomaly_flag\": -1}}", "sha3": "a70387ad572bb4765b9918841277ee6745acff5d5208ddea8c9d77414a9f39793040b8d8ac9a5cf44c626370ec5b801a55dc0cfd87154691f01729db7930d7cf"}
{"data": "{\"timestamp\": 1756836109.7651544, \"event\": {\"timestamp_ns\": 1756836109678248960, \"agent_id\": \"selin\", \"domain\": \"drone\", \"source_format\": \"json\", \"position\": {\"x\": 12502541.037513975, \"y\": -65165485.08691095, \"z\": 0.0}, \"velocity\": {\"vx\": 3002.3183460465752, \"vy\": 0.0, \"vz\": 0.0}, \"acceleration\": {\"ax\": -0.226310521364212, \"ay\": 0.0, \"az\": 0.0}, \"orientation\": {\"yaw\": 0.0, \"pitch\": 0.0, \"roll\": 0.0}, \"sensor\": \"fusion\", \"extras\": {}, \"record_hash\": \"b9e3585417f67087dc61b6d13d4da22350703840c1ec8deb3f2a11d89e78dc8d\", \"anomaly_flag\": -1}}", "sha3": "d33afecec64f77f375580e856c3fb70c3e35c57839980f657f8db5970b09edef239b22acd8ebc49d0121e047e6de2667dbbb5ecb28ab1cbfe4e3712fb7a4ba2a"}
{"data": "{\"timestamp\": 1756836109.84619, \"event\": {\"timestamp_ns\": 1756836109788219904, \"agent_id\": \"selin\", \"domain\": \"drone\", \"source_format\": \"json\", \"position\": {\"x\": 12502841.267475547, \"y\": -65167046.022357196, \"z\": 0.0}, \"velocity\": {\"vx\": 3002.299615714618, \"vy\": 0.0, \"vz\": 0.0}, \"acceleration\": {\"ax\": -0.187303319573402, \"ay\": 0.0, \"az\": 0.0}, \"orientation\": {\"yaw\": 0.0, \"pitch\": 0.0, \"roll\": 0.0}, \"sensor\": \"fusion\", \"extras\": {}, \"record_hash\": \"44de35f9a91d2773a8d274ae75aeb39b23906db908a91ffcf39a622b60883460\", \"anomaly_flag\": -1}}", "sha3": "e64f67eb824ee1c8f5d0d2a8db5a53fd5aed66f6d0b2514d50ccdb4e559767c3699d03c46ccee403d5a527422092a05f7dbeb3878be2df243a01a2ddc4a2c48c"}
{"data": "{\"timestamp\": 1756836109.949031, \"event\": {\"timestamp_ns\": 1756836109869297920, \"agent_id\": \"selin\", \"domain\": \"drone\", \"source_format\": \"json\", \"position\": {\"x\": 12503141.495564086, \"y\": -65168606.95780836, \"z\": 0.0}, \"velocity\": {\"vx\": 3002.280885382661, \"vy\": 0.0, \"vz\": 0.0}, \"acceleration\": {\"ax\": -0.187303319573402, \"ay\": 0.0, \"az\": 0.0}, \"orientation\": {\"yaw\": 0.0, \"pitch\": 0.0, \"roll\": 0.0}, \"sensor\": \"fusion\", \"extras\": {}, \"record_hash\": \"aad8c3cdd497724ea449ea77a8ad6b9cd62ebbdef8dd939c34f2710590ab60a9\", \"anomaly_flag\": -1}}", "sha3": "14c7424ee1a600d11dd08dcf8c69a75a4b65714cb0b5fc35b1d19f2d02db7bf0e81c15a1a805e59275632060c769832e62c2246a61574a84414277909cf4ed9d"}
{"data": "{\"timestamp\": 1756836110.0462077, \"event\": {\"timestamp_ns\": 1756836109970993920, \"agent_id\": \"selin\", \"domain\": \"drone\", \"source_format\": \"json\", \"position\": {\"x\": 12503441.721189607, \"y\": -65170167.892849974, \"z\": 0.0}, \"velocity\": {\"vx\": 3002.2562552026598, \"vy\": 0.0, \"vz\": 0.0}, \"acceleration\": {\"ax\": -0.246301800012588, \"ay\": 0.0, \"az\": 0.0}, \"orientation\": {\"yaw\": 0.0, \"pitch\": 0.0, \"roll\": 0.0}, \"sensor\": \"fusion\", \"extras\": {}, \"record_hash\": \"35ba5d57b08cb76a45e5aaa9183d60575e338aed3173a4b43b15e820dd060553\", \"anomaly_flag\": -1}}", "sha3": "ecbe813beb38374ade1213cd2f4e7f70974d6454e86d77f4df947f195768a51e5e655f5c886faa7c3fb0d1bb4cc0632572b9896e7dd5ea72ada208eeec5bbbd1"}
{"data": "{\"timestamp\": 1756836110.1194687, \"event\": {\"timestamp_ns\": 1756836110067601920, \"agent_id\": \"selin\", \"domain\": \"drone\", \"source_format\": \"json\", \"position\": {\"x\": 12503741.944932407, \"y\": -65171728.828296386, \"z\": 0.0}, \"velocity\": {\"vx\": 3002.2374279997434, \"vy\": 0.0, \"vz\": 0.0}, \"acceleration\": {\"ax\": -0.188272029161453, \"ay\": 0.0, \"az\": 0.0}, \"orientation\": {\"yaw\": 0.0, \"pitch\": 0.0, \"roll\": 0.0}, \"sensor\": \"fusion\", \"extras\": {}, \"record_hash\": \"edfe745bd50d43b9290493dba93e73757cd0de33d58e82dc8f683e348fa369fa\", \"anomaly_flag\": -1}}", "sha3": "bb4c90ba21fc6404771d4f051e8955774f8310a8daa1556d0c8347ee10b9ee6f521a24250927569443a982fd7c26c671d18c84ce0da5b13cc3efe734e5988a52"}
{"data": "{\"timestamp\": 1756836110.207594, \"event\": {\"timestamp_ns\": 1756836110143354880, \"agent_id\": \"selin\", \"domain\": \"drone\", \"source_format\": \"json\", \"position\": {\"x\": 12504042.166421821, \"y\": -65173289.762938224, \"z\": 0.0}, \"velocity\": {\"vx\": 3002.2148941508617, \"vy\": 0.0, \"vz\": 0.0}, \"acceleration\": {\"ax\": -0.225338488817215, \"ay\": 0.0, \"az\": 0.0}, \"orientation\": {\"yaw\": 0.0, \"pitch\": 0.0, \"roll\": 0.0}, \"sensor\": \"fusion\", \"extras\": {}, \"record_hash\": \"c05aaa9adbbdf3050f5561f04d2a6d108c0b764c39be562a15d1bd4f22926876\", \"anomaly_flag\": -1}}", "sha3": "35e698a7f3fa4451e15465fac86e0679070917d89094cde0a2492b099267040137e274d37b4c9a377717b6aeaecdf6016649e48d3ec5896764199ea3fcffd0db"}
{"data": "{\"timestamp\": 1756836110.3003092, \"event\": {\"timestamp_ns\": 1756836110228869888, \"agent_id\": \"selin\", \"domain\": \"drone\", \"source_format\": \"json\", \"position\": {\"x\": 12504342.386028517, \"y\": -65174850.69798486, \"z\": 0.0}, \"velocity\": {\"vx\": 3002.1960669479454, \"vy\": 0.0, \"vz\": 0.0}, \"acceleration\": {\"ax\": -0.188272029161453, \"ay\": 0.0, \"az\": 0.0}, \"orientation\": {\"yaw\": 0.0, \"pitch\": 0.0, \"roll\": 0.0}, \"sensor\": \"fusion\", \"extras\": {}, \"record_hash\": \"516dada035eaac3c5b7695db28bdb76a0cded415770c7bd06f427ee873025b61\", \"anomaly_flag\": -1}}", "sha3": "63270cfec8293db883e7f40c68567bd4509f3cab6156782f1c2e58df2b6b1552087e864bd4faefb524c834a7e92b7145a88553d0430b698b7057d069b49a5d16"}
{"data": "{\"timestamp\": 1756836110.3938189, \"event\": {\"timestamp_ns\": 1756836110323326208, \"agent_id\": \"selin\", \"domain\": \"drone\", \"source_format\": \"json\", \"position\": {\"x\": 12504642.603362387, \"y\": -65176411.63302669, \"z\": 0.0}, \"velocity\": {\"vx\": 3002.173338691064, \"vy\": 0.0, \"vz\": 0.0}, \"acceleration\": {\"ax\": -0.22728256881237, \"ay\": 0.0, \"az\": 0.0}, \"orientation\": {\"yaw\": 0.0, \"pitch\": 0.0, \"roll\": 0.0}, \"sensor\": \"fusion\", \"extras\": {}, \"record_hash\": \"ba0fad79afda1abbdbd3a5039053c4e40bc2718a2a7e07d072930a358652cf70\", \"anomaly_flag\": -1}}", "sha3": "52d2c18397a1328b5aee3bfc4119cefe872a06ac0cec9c24d0cac2d23de000b4bd910d8dc27c1cc721cef53523dc58098fd8321f4087b2ea2de53c1cecc8b39c"}
{"data": "{\"timestamp\": 1756836110.4625485, \"event\": {\"timestamp_ns\": 1756836110414917888, \"agent_id\": \"selin\", \"domain\": \"drone\", \"source_format\": \"json\", \"position\": {\"x\": 12504942.81861364, \"y\": -65177972.56846845, \"z\": 0.0}, \"velocity\": {\"vx\": 3002.152512524196, \"vy\": 0.0, \"vz\": 0.0}, \"acceleration\": {\"ax\": -0.208261668682098, \"ay\": 0.0, \"az\": 0.0}, \"orientation\": {\"yaw\": 0.0, \"pitch\": 0.0, \"roll\": 0.0}, \"sensor\": \"fusion\", \"extras\": {}, \"record_hash\": \"867b162f25a2f4d29dc2c5d8fe908537875bf277884375c0a4726bce87599450\", \"anomaly_flag\": -1}}", "sha3": "53aa4f91b2e86a3027e415ef05cc1dcb3a9bc65ead5db83415ecf8b869fea06985d04ad12fced825fbffda02a0aaef139613cedccb6c56958f83a59becf9da7e"}
{"data": "{\"timestamp\": 1756836110.5398464, \"event\": {\"timestamp_ns\": 1756836110483661824, \"agent_id\": \"selin\", \"domain\": \"drone\", \"source_format\": \"json\", \"position\": {\"x\": 12505243.032182068, \"y\": -65179533.50431988, \"z\": 0.0}, \"velocity\": {\"vx\": 3002.1356842837417, \"vy\": 0.0, \"vz\": 0.0}, \"acceleration\": {\"ax\": -0.168282404541969, \"ay\": 0.0, \"az\": 0.0}, \"orientation\": {\"yaw\": 0.0, \"pitch\": 0.0, \"roll\": 0.0}, \"sensor\": \"fusion\", \"extras\": {}, \"record_hash\": \"95f2fdfd6d100d685f80684c295af97698e1f189bd70506a96185b0691fa1b19\", \"anomaly_flag\": -1}}", "sha3": "d3766c6780cb145a967ef5c4062d918c9457b5a0a53e4ace6b7e10045a9814282e164e8cdfbcda681807ec9d92085154fa76ac66f27a108e29c83e748a87b6ac"}
{"data": "{\"timestamp\": 1756836110.617735, \"event\": {\"timestamp_ns\": 1756836110561273088, \"agent_id\": \"selin\", \"domain\": \"drone\", \"source_format\": \"json\", \"position\": {\"x\": 12505543.243782375, \"y\": -65181094.43997384, \"z\": 0.0}, \"velocity\": {\"vx\": 3002.116003071436, \"vy\": 0.0, \"vz\": 0.0}, \"acceleration\": {\"ax\": -0.196812123060226, \"ay\": 0.0, \"az\": 0.0}, \"orientation\": {\"yaw\": 0.0, \"pitch\": 0.0, \"roll\": 0.0}, \"sensor\": \"fusion\", \"extras\": {}, \"record_hash\": \"f3f0f3c001e3c3e3bf2c8df4d060efe593a7c09b3a403bfa41f5f6370e4f8570\", \"anomaly_flag\": -1}}", "sha3": "55b91bfc5f58a7f9fbb8ca3a4578b1e73738f30344cb78dc9704a291d1f1db0dde428f3ad473f00f60b339e1ff5109ed853d6a571a20e97cfef0f5b6979dce70"}
{"data": "{\"timestamp\": 1756836110.6963289, \"event\": {\"timestamp_ns\": 1756836110638624000, \"agent_id\": \"selin\", \"domain\": \"drone\", \"source_format\": \"json\", \"position\": {\"x\": 12505843.452909976, \"y\": -65182655.37561814, \"z\": 0.0}, \"velocity\": {\"vx\": 3002.091276018986, \"vy\": 0.0, \"vz\": 0.0}, \"acceleration\": {\"ax\": -0.2472705245017999, \"ay\": 0.0, \"az\": 0.0}, \"orientation\": {\"yaw\": 0.0, \"pitch\": 0.0, \"roll\": 0.0}, \"sensor\": \"fusion\", \"extras\": {}, \"record_hash\": \"2011047a9d7f66cbf1ae0315fbdd413b7ab1180b4c51177c560fe13a1f085c27\", \"anomaly_flag\": -1}}", "sha3": "4d86d2874cd1746209c25bc2cfb795a31a7046992b83861ea9528c1af06ce92f688bf8e43ade1e961b0fdb1bf65df516d77ec1c001c18c85e006b5105705efc7"}
{"data": "{\"timestamp\": 1756836110.7762482, \"event\": {\"timestamp_ns\": 1756836110717789952, \"agent_id\": \"selin\", \"domain\": \"drone\", \"source_format\": \"json\", \"position\": {\"x\": 12506143.660154825, \"y\": -65184216.311667226, \"z\": 0.0}, \"velocity\": {\"vx\": 3002.072448485264, \"vy\": 0.0, \"vz\": 0.0}, \"acceleration\": {\"ax\": -0.188275337219238, \"ay\": 0.0, \"az\": 0.0}, \"orientation\": {\"yaw\": 0.0, \"pitch\": 0.0, \"roll\": 0.0}, \"sensor\": \"fusion\", \"extras\": {}, \"record_hash\": \"c6a043a14427923127da205ea88254e4c306d5dc6b82483e67b4f8d8d458016a\", \"anomaly_flag\": -1}}", "sha3": "433df468e9e83eadd51fbe3abaa0edee993f8f318f494a7be3c5c09d3ff77908a7e86d74e2ee8bf89f716d21dd5614bc7613ae60a7b80ce52aaabfa0992145a3"}
{"data": "{\"timestamp\": 1756836110.8614585, \"event\": {\"timestamp_ns\": 1756836110797408000, \"agent_id\": \"selin\", \"domain\": \"drone\", \"source_format\": \"json\", \"position\": {\"x\": 12506443.865317041, \"y\": -65185777.248116255, \"z\": 0.0}, \"velocity\": {\"vx\": 3002.051622152993, \"vy\": 0.0, \"vz\": 0.0}, \"acceleration\": {\"ax\": -0.208263322710991, \"ay\": 0.0, \"az\": 0.0}, \"orientation\": {\"yaw\": 0.0, \"pitch\": 0.0, \"roll\": 0.0}, \"sensor\": \"fusion\", \"extras\": {}, \"record_hash\": \"43b988c3ffded611a4f32df700e37a7655a77c1088e02c7cbb6b217416861d67\", \"anomaly_flag\": -1}}", "sha3": "b8dc1c55c11ccc9f62bd60d79dea16b110de28f9a87d3f9049fc46395337f4ab722964310e1360f0a2607c87cb2e4e257f32329ead4bdbfac6d9f3c119445224"}
{"data": "{\"timestamp\": 1756836111.0080519, \"event\": {\"timestamp_ns\": 1756836110884210176, \"agent_id\": \"selin\", \"domain\": \"drone\", \"source_format\": \"json\", \"position\": {\"x\": 12506744.068996329, \"y\": -65187338.184979804, \"z\": 0.0}, \"velocity\": {\"vx\": 3002.0367928735104, \"vy\": 0.0, \"vz\": 0.0}, \"acceleration\": {\"ax\": -0.148292794823647, \"ay\": 0.0, \"az\": 0.0}, \"orientation\": {\"yaw\": 0.0, \"pitch\": 0.0, \"roll\": 0.0}, \"sensor\": \"fusion\", \"extras\": {}, \"record_hash\": \"2c406c50345e53d8ac2274202047b5b30441f2c0ff3ded2448377fbf258cc182\", \"anomaly_flag\": -1}}", "sha3": "773c2d4105dabed52c8a93012d9b61ec30a6d56688e9c42b699a0db1e97f6e977ede0bdafb6bc31d6055ebe7003ea7fa6d52c55092d87143b7811a78f1b69f17"}
{"data": "{\"timestamp\": 1756836111.091563, \"event\": {\"timestamp_ns\": 1756836111028999936, \"agent_id\": \"selin\", \"domain\": \"drone\", \"source_format\": \"json\", \"position\": {\"x\": 12507044.270592967, \"y\": -65188899.122243285, \"z\": 0.0}, \"velocity\": {\"vx\": 3002.0159663758363, \"vy\": 0.0, \"vz\": 0.0}, \"acceleration\": {\"ax\": -0.208264976739883, \"ay\": 0.0, \"az\": 0.0}, \"orientation\": {\"yaw\": 0.0, \"pitch\": 0.0, \"roll\": 0.0}, \"sensor\": \"fusion\", \"extras\": {}, \"record_hash\": \"9dbcfa189025d28f7e3a4f2ef697e4ae6b41d3bd4ffbbac363b5d524efe4462c\", \"anomaly_flag\": -1}}", "sha3": "0453eb75467266941a8dc198a1ed65780b944b496354dc0e170e5fd4898abc0d1ca0cf0b682aaaf6d2c68300100d915cf7814d11196341040d0f0b2cb4abb35a"}
{"data": "{\"timestamp\": 1756836111.1928616, \"event\": {\"timestamp_ns\": 1756836111112792064, \"agent_id\": \"selin\", \"domain\": \"drone\", \"source_format\": \"json\", \"position\": {\"x\": 12507344.47049706, \"y\": -65190460.06031631, \"z\": 0.0}, \"velocity\": {\"vx\": 3001.9990409306374, \"vy\": 0.0, \"vz\": 0.0}, \"acceleration\": {\"ax\": -0.169254451990128, \"ay\": 0.0, \"az\": 0.0}, \"orientation\": {\"yaw\": 0.0, \"pitch\": 0.0, \"roll\": 0.0}, \"sensor\": \"fusion\", \"extras\": {}, \"record_hash\": \"2605b4815dc0e7d3d78efe5a9adc6da7323a9dc94b7ef3e9b043cfde3b87a493\", \"anomaly_flag\": -1}}", "sha3": "9e68cbf126b6f70769a8a366b57f63c425620fb019591678c1bc721e62eb2cd9c393dae8f0fa41f8ae688529912d3bcb5e6eeb81a0cb3a4f87cd76b230187768"}
{"data": "{\"timestamp\": 1756836111.2933068, \"event\": {\"timestamp_ns\": 1756836111213876992, \"agent_id\": \"selin\", \"domain\": \"drone\", \"source_format\": \"json\", \"position\": {\"x\": 12507644.668347681, \"y\": -65192020.99758962, \"z\": 0.0}, \"velocity\": {\"vx\": 3001.9785062096207, \"vy\": 0.0, \"vz\": 0.0}, \"acceleration\": {\"ax\": -0.205347210168838, \"ay\": 0.0, \"az\": 0.0}, \"orientation\": {\"yaw\": 0.0, \"pitch\": 0.0, \"roll\": 0.0}, \"sensor\": \"fusion\", \"extras\": {}, \"record_hash\": \"0680419f69b7ad433df0200132d6862839db51fe034f4fc57e4a01d673920e86\", \"anomaly_flag\": -1}}", "sha3": "6d021b36aa55e017b9fa5979e4f2754527c24207a56a6758cb4b23aa94cc75fb3125f6288aef22452edf820f86cf0ca2f587bac512d70e07246cc625501f6d2b"}
{"data": "{\"timestamp\": 1756836111.4055972, \"event\": {\"timestamp_ns\": 1756836111315598848, \"agent_id\": \"selin\", \"domain\": \"drone\", \"source_format\": \"json\", \"position\": {\"x\": 12507944.864135092, \"y\": -65193581.9344631, \"z\": 0.0}, \"velocity\": {\"vx\": 3001.957874119946, \"vy\": 0.0, \"vz\": 0.0}, \"acceleration\": {\"ax\": -0.206320896744728, \"ay\": 0.0, \"az\": 0.0}, \"orientation\": {\"yaw\": 0.0, \"pitch\": 0.0, \"roll\": 0.0}, \"sensor\": \"fusion\", \"extras\": {}, \"record_hash\": \"44e3e2263a3d6c6d8315628e270e307173216934c49161274fc74cc492b7b008\", \"anomaly_flag\": -1}}", "sha3": "48aadcdc5636ad3ef7fa3e21bc6a67f713d6b774ae653278479d82529969ac6797a0473ac89b8503e3558e8c8348b9151459e4639771e2f4c0a16b668deffad3"}
{"data": "{\"timestamp\": 1756836111.4868577, \"event\": {\"timestamp_ns\": 1756836111426852096, \"agent_id\": \"selin\", \"domain\": \"drone\", \"source_format\": \"json\", \"position\": {\"x\": 12508245.058049487, \"y\": -65195142.8713415, \"z\": 0.0}, \"velocity\": {\"vx\": 3001.9391439533915, \"vy\": 0.0, \"vz\": 0.0}, \"acceleration\": {\"ax\": -0.18730166554451, \"ay\": 0.0, \"az\": 0.0}, \"orientation\": {\"yaw\": 0.0, \"pitch\": 0.0, \"roll\": 0.0}, \"sensor\": \"fusion\", \"extras\": {}, \"record_hash\": \"b35800add3b3c5f112fee4fb0eb4e2753c59e010974e926ddaa53c264f70e3f5\", \"anomaly_flag\": -1}}", "sha3": "8c604ad6e844cc713d62b3a5d322733e3a6c48b720983e2fed9cc80718233c737de0d1c333079ed8c0227e816fc380f295f1801123fba1e942dad52624d97274"}
{"data": "{\"timestamp\": 1756836111.5667138, \"event\": {\"timestamp_ns\": 1756836111507739904, \"agent_id\": \"selin\", \"domain\": \"drone\", \"source_format\": \"json\", \"position\": {\"x\": 12508545.250120925, \"y\": -65196703.80822481, \"z\": 0.0}, \"velocity\": {\"vx\": 3001.9207143849817, \"vy\": 0.0, \"vz\": 0.0}, \"acceleration\": {\"ax\": -0.1842956840991969, \"ay\": 0.0, \"az\": 0.0}, \"orientation\": {\"yaw\": 0.0, \"pitch\": 0.0, \"roll\": 0.0}, \"sensor\": \"fusion\", \"extras\": {}, \"record_hash\": \"c2ec5f89543525902a0464bc621c9ea9ac7a2e49d2fd6bb81b0789c4e826b2a1\", \"anomaly_flag\": -1}}", "sha3": "a3518eeb4d0c4a28f6c3ce242bcfde23cc01e17f15fd613d03b3edee0a9e7cd8ebe15ab1a7db577b1825983c89e2dadbabf598094bf9c84321d9151a9a7312cd"}
{"data": "{\"timestamp\": 1756836111.662612, \"event\": {\"timestamp_ns\": 1756836111587814144, \"agent_id\": \"selin\", \"domain\": \"drone\", \"source_format\": \"json\", \"position\": {\"x\": 12508845.440105163, \"y\": -65198264.74550806, \"z\": 0.0}, \"velocity\": {\"vx\": 3001.899842368731, \"vy\": 0.0, \"vz\": 0.0}, \"acceleration\": {\"ax\": -0.2087201625108719, \"ay\": 0.0, \"az\": 0.0}, \"orientation\": {\"yaw\": 0.0, \"pitch\": 0.0, \"roll\": 0.0}, \"sensor\": \"fusion\", \"extras\": {}, \"record_hash\": \"9c816b4c83105d9a7ea8ae9e9cc58cfa0a85abfca56ccdddda38af75de301d81\", \"anomaly_flag\": -1}}", "sha3": "6f3002a845a23534d6a5a77a52a5272e44abed7687e2c825c7c4ff61c837875ade04357fe4f2dcd6536ff633d684cd59569d5a44d53e4e3360e7b1b1b9026516"}
{"data": "{\"timestamp\": 1756836111.7694643, \"event\": {\"timestamp_ns\": 1756836111683855104, \"agent_id\": \"selin\", \"domain\": \"drone\", \"source_format\": \"json\", \"position\": {\"x\": 12509145.628007583, \"y\": -65199825.68279137, \"z\": 0.0}, \"velocity\": {\"vx\": 3001.879024202296, \"vy\": 0.0, \"vz\": 0.0}, \"acceleration\": {\"ax\": -0.2081816643476489, \"ay\": 0.0, \"az\": 0.0}, \"orientation\": {\"yaw\": 0.0, \"pitch\": 0.0, \"roll\": 0.0}, \"sensor\": \"fusion\", \"extras\": {}, \"record_hash\": \"255d314876d96edabd6d4e83aacf1bd393e1f133f2a02e1e1338d0979a213dea\", \"anomaly_flag\": -1}}", "sha3": "453038fa21739766c1a3429377d1894cef94fc43947100ce9ed5cbf622a0c4bde270ac9b052a021b75f9fc5eb43ef37b35a1b67c512f022640f3af6f1e5e9dd5"}
{"data": "{\"timestamp\": 1756836111.8585973, \"event\": {\"timestamp_ns\": 1756836111790885888, \"agent_id\": \"selin\", \"domain\": \"drone\", \"source_format\": \"json\", \"position\": {\"x\": 12509445.813814802, \"y\": -65201386.620474614, \"z\": 0.0}, \"velocity\": {\"vx\": 3001.8580721817107, \"vy\": 0.0, \"vz\": 0.0}, \"acceleration\": {\"ax\": -0.2095202058553699, \"ay\": 0.0, \"az\": 0.0}, \"orientation\": {\"yaw\": 0.0, \"pitch\": 0.0, \"roll\": 0.0}, \"sensor\": \"fusion\", \"extras\": {}, \"record_hash\": \"72c180fc6cb5e5c4d2cc849aae5eebb019c8e1dc3b1641f2a8369e1e46dd0103\", \"anomaly_flag\": -1}}", "sha3": "88030b02608af7826e96560435287a82787c5c8a78b063c02fc74a1e6933870c2343b983de1a699004ff7f8dc7539e236e3e7a07acab87436aa7d396181798c3"}
{"data": "{\"timestamp\": 1756836111.938007, \"event\": {\"timestamp_ns\": 1756836111879801088, \"agent_id\": \"selin\", \"domain\": \"drone\", \"source_format\": \"json\", \"position\": {\"x\": 12509745.99793537, \"y\": -65202947.558967404, \"z\": 0.0}, \"velocity\": {\"vx\": 3001.841205673584, \"vy\": 0.0, \"vz\": 0.0}, \"acceleration\": {\"ax\": -0.1686650812625889, \"ay\": 0.0, \"az\": 0.0}, \"orientation\": {\"yaw\": 0.0, \"pitch\": 0.0, \"roll\": 0.0}, \"sensor\": \"fusion\", \"extras\": {}, \"record_hash\": \"af99dacbb8a6ed4521c71a80bd864e230489a5a34468124ae7ae0c30fa73c810\", \"anomaly_flag\": -1}}", "sha3": "358ae30a7081b66fa11a631603cd6d73e2f4df72ec134a23fee348db50256b734a3350e0217e000c5dd5b71f7165f10c06e3b64cb6ce836f01878406ab473d64"}
{"data": "{\"timestamp\": 1756836112.0223718, \"event\": {\"timestamp_ns\": 1756836111959438080, \"agent_id\": \"selin\", \"domain\": \"drone\", \"source_format\": \"json\", \"position\": {\"x\": 12510046.180183532, \"y\": -65204508.49746509, \"z\": 0.0}, \"velocity\": {\"vx\": 3001.822481617996, \"vy\": 0.0, \"vz\": 0.0}, \"acceleration\": {\"ax\": -0.187240555882454, \"ay\": 0.0, \"az\": 0.0}, \"orientation\": {\"yaw\": 0.0, \"pitch\": 0.0, \"roll\": 0.0}, \"sensor\": \"fusion\", \"extras\": {}, \"record_hash\": \"171a187d528684d262e676b741db2fae699a16174d5546d8b94f0c1882f051ef\", \"anomaly_flag\": -1}}", "sha3": "e7927f5044a2d70980606b46497c70cadbc1b3c69903c3bfca61d12e444c320a20dcae110697f0b88b2c9cbfc5bc7624a0e06b279424c74dea42dcb3efdd494c"}
{"data": "{\"timestamp\": 1756836112.1067724, \"event\": {\"timestamp_ns\": 1756836112043544064, \"agent_id\": \"selin\", \"domain\": \"drone\", \"source_format\": \"json\", \"position\": {\"x\": 12510346.360369649, \"y\": -65206069.4359628, \"z\": 0.0}, \"velocity\": {\"vx\": 3001.8018611631483, \"vy\": 0.0, \"vz\": 0.0}, \"acceleration\": {\"ax\": -0.2062045484781269, \"ay\": 0.0, \"az\": 0.0}, \"orientation\": {\"yaw\": 0.0, \"pitch\": 0.0, \"roll\": 0.0}, \"sensor\": \"fusion\", \"extras\": {}, \"record_hash\": \"e238ef4e10a588ac670b8fcff2e6a39c6b1b544faeb8901ca72eabb8f5492427\", \"anomaly_flag\": -1}}", "sha3": "fb3748ade3eb386b1300355a5f2b5f0e3446ca1c28d888e9f32c1b95f66330998db65aa249dffbc65c660766ca3905a3cf82c70f8b4c9011fc84317ac9d4f88e"}
{"data": "{\"timestamp\": 1756836112.192974, \"event\": {\"timestamp_ns\": 1756836112129244928, \"agent_id\": \"selin\", \"domain\": \"drone\", \"source_format\": \"json\", \"position\": {\"x\": 12510646.538886627, \"y\": -65207630.37447027, \"z\": 0.0}, \"velocity\": {\"vx\": 3001.7851697913497, \"vy\": 0.0, \"vz\": 0.0}, \"acceleration\": {\"ax\": -0.166913717985153, \"ay\": 0.0, \"az\": 0.0}, \"orientation\": {\"yaw\": 0.0, \"pitch\": 0.0, \"roll\": 0.0}, \"sensor\": \"fusion\", \"extras\": {}, \"record_hash\": \"8cc0341d9b551c836319226faa0e5ad73664e755729229e36e91a7489611cc31\", \"anomaly_flag\": -1}}", "sha3": "6e09969508de4e32227687e476eadf4347e5cf381098a71f3c92ca23567fe647747a70871cacfbcacd0fd25a9f20e8c15ee8e17e698245ac8cc7d53b67997469"}
{"data": "{\"timestamp\": 1756836112.287678, \"event\": {\"timestamp_ns\": 1756836112215503104, \"agent_id\": \"selin\", \"domain\": \"drone\", \"source_format\": \"json\", \"position\": {\"x\": 12510946.715139957, \"y\": -65209191.312972896, \"z\": 0.0}, \"velocity\": {\"vx\": 3001.7625333017795, \"vy\": 0.0, \"vz\": 0.0}, \"acceleration\": {\"ax\": -0.226364895701408, \"ay\": 0.0, \"az\": 0.0}, \"orientation\": {\"yaw\": 0.0, \"pitch\": 0.0, \"roll\": 0.0}, \"sensor\": \"fusion\", \"extras\": {}, \"record_hash\": \"0ce9e56110fb00137762e8a2e2ee2d3991dda429ae095697786402f3da29583b\", \"anomaly_flag\": -1}}", "sha3": "1ebe4b3ab10077d54a7c5d039bfe5fe7986ee4cd6f75d0ae6597b0663b97f7b360f6961c324ff20e4a896e6617d82c38b26880b7d9a8ed1aa3b335b03211001b"}
{"data": "{\"timestamp\": 1756836112.3783455, \"event\": {\"timestamp_ns\": 1756836112309220096, \"agent_id\": \"selin\", \"domain\": \"drone\", \"source_format\": \"json\", \"position\": {\"x\": 12511246.889332552, \"y\": -65210752.25147554, \"z\": 0.0}, \"velocity\": {\"vx\": 3001.741925952503, \"vy\": 0.0, \"vz\": 0.0}, \"acceleration\": {\"ax\": -0.206073492765427, \"ay\": 0.0, \"az\": 0.0}, \"orientation\": {\"yaw\": 0.0, \"pitch\": 0.0, \"roll\": 0.0}, \"sensor\": \"fusion\", \"extras\": {}, \"record_hash\": \"90fa9cc763161bedb884c978b5f2b6c16762ddf01322fb5f03760d9c6454706a\", \"anomaly_flag\": -1}}", "sha3": "577f2c48a350cf5a7e94d744bd2e363afd355da4eb2a906978ed4fe1bdfd47e81988ea1218ab21a6144424e7ae58c015d688d81f69b0d15fc58c439c3cab51fc"}
{"data": "{\"timestamp\": 1756836112.4563596, \"event\": {\"timestamp_ns\": 1756836112399171072, \"agent_id\": \"selin\", \"domain\": \"drone\", \"source_format\": \"json\", \"position\": {\"x\": 12511547.061453585, \"y\": -65212313.19037809, \"z\": 0.0}, \"velocity\": {\"vx\": 3001.7212103298993, \"vy\": 0.0, \"vz\": 0.0}, \"acceleration\": {\"ax\": -0.207156226038933, \"ay\": 0.0, \"az\": 0.0}, \"orientation\": {\"yaw\": 0.0, \"pitch\": 0.0, \"roll\": 0.0}, \"sensor\": \"fusion\", \"extras\": {}, \"record_hash\": \"d6b8838c74fb2c1ee98f27271dfb7d1e0ff9e04dbe1aee68335f3012916d297a\", \"anomaly_flag\": -1}}", "sha3": "efd02ed398387d6dfec86e2573179afae2f977bc63641395892f78488cac2161611063d11bfa67941b609ff8b8aa688c0ce9f765cafeeb0c453c06aff45ca202"}
{"data": "{\"timestamp\": 1756836112.565808, \"event\": {\"timestamp_ns\": 1756836112477686784, \"agent_id\": \"selin\", \"domain\": \"drone\", \"source_format\": \"json\", \"position\": {\"x\": 12511847.231517578, \"y\": -65213874.12928066, \"z\": 0.0}, \"velocity\": {\"vx\": 3001.7006399235815, \"vy\": 0.0, \"vz\": 0.0}, \"acceleration\": {\"ax\": -0.205704063177109, \"ay\": 0.0, \"az\": 0.0}, \"orientation\": {\"yaw\": 0.0, \"pitch\": 0.0, \"roll\": 0.0}, \"sensor\": \"fusion\", \"extras\": {}, \"record_hash\": \"f165d753d234485a2583ab8b6bda7e93d5c11b0f45df9734920ca4916cac8e80\", \"anomaly_flag\": -1}}", "sha3": "820ada8b3adbaae9aedb92c1d3a344445661a80bd739c61dd3d8672883bc9b8db6f2d7dfdb5a9d4e4b0b27de4b52ae0d5f4c8700f3ff52b61bbe380141eed1b5"}
{"data": "{\"timestamp\": 1756836112.6694944, \"event\": {\"timestamp_ns\": 1756836112587074048, \"agent_id\": \"selin\", \"domain\": \"drone\", \"source_format\": \"json\", \"position\": {\"x\": 12512147.399521906, \"y\": -65215435.06818324, \"z\": 0.0}, \"velocity\": {\"vx\": 3001.6800432852597, \"vy\": 0.0, \"vz\": 0.0}, \"acceleration\": {\"ax\": -0.205966383218765, \"ay\": 0.0, \"az\": 0.0}, \"orientation\": {\"yaw\": 0.0, \"pitch\": 0.0, \"roll\": 0.0}, \"sensor\": \"fusion\", \"extras\": {}, \"record_hash\": \"7605a5bef7bf537d4b45a91c4f62aa4a6118cbbc750d40e4fcd578e7e4fbf813\", \"anomaly_flag\": -1}}", "sha3": "5c07dc2b3ac6741e0df770f9b5eb8e2e046cff5dfc3d902af95a7c726049bd389bdd8e230a5a614aedb975b821f436f1fae217988b754ed8fefdf02946c774b4"}
{"data": "{\"timestamp\": 1756836112.7664907, \"event\": {\"timestamp_ns\": 1756836112690839040, \"agent_id\": \"selin\", \"domain\": \"drone\", \"source_format\": \"json\", \"position\": {\"x\": 12512447.56546767, \"y\": -65216996.00708584, \"z\": 0.0}, \"velocity\": {\"vx\": 3001.6594576380344, \"vy\": 0.0, \"vz\": 0.0}, \"acceleration\": {\"ax\": -0.205856472253799, \"ay\": 0.0, \"az\": 0.0}, \"orientation\": {\"yaw\": 0.0, \"pitch\": 0.0, \"roll\": 0.0}, \"sensor\": \"fusion\", \"extras\": {}, \"record_hash\": \"0757237b0f54e97490ad265e19da5e3ae6a26655178a1c2acea8f9687a3bcfeb\", \"anomaly_flag\": -1}}", "sha3": "a4effa3cd76047f407f360c2ed540ee93abaa76417494b73aaf7d4e0dce578beaa77c20d6d8b299d5a240f6b65cda46d7177ee9b1790c8c02a47805d9fb15336"}
{"data": "{\"timestamp\": 1756836112.8574884, \"event\": {\"timestamp_ns\": 1756836112788615936, \"agent_id\": \"selin\", \"domain\": \"drone\", \"source_format\": \"json\", \"position\": {\"x\": 12512747.729367683, \"y\": -65218556.94558856, \"z\": 0.0}, \"velocity\": {\"vx\": 3001.639000122914, \"vy\": 0.0, \"vz\": 0.0}, \"acceleration\": {\"ax\": -0.204575151205063, \"ay\": 0.0, \"az\": 0.0}, \"orientation\": {\"yaw\": 0.0, \"pitch\": 0.0, \"roll\": 0.0}, \"sensor\": \"fusion\", \"extras\": {}, \"record_hash\": \"3b09712e03c40516fb5b57d4e298747dbcc93736f7bc66015c2c8247717741f2\", \"anomaly_flag\": -1}}", "sha3": "6799672e5dfebf8c2b6425d547769d27f8d82e0c84bf6c2dea2c994c5a805fa810fd6542367c013065f5bd2f3c76ac8b2be9b66acc8e860069d1eb8322ce2a40"}
{"data": "{\"timestamp\": 1756836112.9318123, \"event\": {\"timestamp_ns\": 1756836112878459904, \"agent_id\": \"selin\", \"domain\": \"drone\", \"source_format\": \"json\", \"position\": {\"x\": 12513047.891020887, \"y\": -65220117.88408643, \"z\": 0.0}, \"velocity\": {\"vx\": 3001.6165320477576, \"vy\": 0.0, \"vz\": 0.0}, \"acceleration\": {\"ax\": -0.2246807515621189, \"ay\": 0.0, \"az\": 0.0}, \"orientation\": {\"yaw\": 0.0, \"pitch\": 0.0, \"roll\": 0.0}, \"sensor\": \"fusion\", \"extras\": {}, \"record_hash\": \"a84a8651b79fd4f7f177a30c7dbb423c016ed8c3befe27758adc32d60b974332\", \"anomaly_flag\": -1}}", "sha3": "cf870ce5df28c9d0c8ce1eee34f28b956c174d41d402e943bc978d370e4d108800f2ae390b743ed6afd2d14400f4eeff9d58849b55e7a35bddf4d147add182d7"}
{"data": "{\"timestamp\": 1756836113.0231855, \"event\": {\"timestamp_ns\": 1756836112952816128, \"agent_id\": \"selin\", \"domain\": \"drone\", \"source_format\": \"json\", \"position\": {\"x\": 12513348.05062792, \"y\": -65221678.82178454, \"z\": 0.0}, \"velocity\": {\"vx\": 3001.5960703394503, \"vy\": 0.0, \"vz\": 0.0}, \"acceleration\": {\"ax\": -0.204617083072662, \"ay\": 0.0, \"az\": 0.0}, \"orientation\": {\"yaw\": 0.0, \"pitch\": 0.0, \"roll\": 0.0}, \"sensor\": \"fusion\", \"extras\": {}, \"record_hash\": \"cda6326c71ca256babaef3f330e7d8d4093cfad5967175be8b50402f31e4a5d1\", \"anomaly_flag\": -1}}", "sha3": "af538909940d91e95eb3c9985df539d8678b0a5653e69a94d733e1133138e54f4478c52877d5edbb73a5adb99a024b1036677c0308955c0f1702934431233ce0"}
{"data": "{\"timestamp\": 1756836113.1033578, \"event\": {\"timestamp_ns\": 1756836113044384000, \"agent_id\": \"selin\", \"domain\": \"drone\", \"source_format\": \"json\", \"position\": {\"x\": 12513648.207790371, \"y\": -65223239.75907306, \"z\": 0.0}, \"velocity\": {\"vx\": 3001.571624495754, \"vy\": 0.0, \"vz\": 0.0}, \"acceleration\": {\"ax\": -0.2444584369659419, \"ay\": 0.0, \"az\": 0.0}, \"orientation\": {\"yaw\": 0.0, \"pitch\": 0.0, \"roll\": 0.0}, \"sensor\": \"fusion\", \"extras\": {}, \"record_hash\": \"22849375c6bda151401efdda1c995d9ae4ee4b6f38e2ac9b4616c727ee199868\", \"anomaly_flag\": -1}}", "sha3": "b021f5bf63b4f96de9ee909f82556a4e274b733a4ac3cdeff03e475e3aeb9d8b57b41db06c6d3096cb44bfe8b408a64e9ecd4f08f9bbb4c05f6ec95ac1f0713d"}
{"data": "{\"timestamp\": 1756836113.1772237, \"event\": {\"timestamp_ns\": 1756836113124428032, \"agent_id\": \"selin\", \"domain\": \"drone\", \"source_format\": \"json\", \"position\": {\"x\": 12513948.36269682, \"y\": -65224800.69595683, \"z\": 0.0}, \"velocity\": {\"vx\": 3001.549064492354, \"vy\": 0.0, \"vz\": 0.0}, \"acceleration\": {\"ax\": -0.2256000339984889, \"ay\": 0.0, \"az\": 0.0}, \"orientation\": {\"yaw\": 0.0, \"pitch\": 0.0, \"roll\": 0.0}, \"sensor\": \"fusion\", \"extras\": {}, \"record_hash\": \"ed3027154b8805c9c2fd0472d9c1d6622ace6528d9fe8c26bf601b07b618f6e8\", \"anomaly_flag\": -1}}", "sha3": "9e1345ecc34d2bb495eab81c7dfc6cbc3efcc42abac19f3d83c4a33126bd9779d3bb790f9aeca48fa3725f142cf068ddc1c1993d281d8640e1fe4605df69ce43"}
{"data": "{\"timestamp\": 1756836113.2561445, \"event\": {\"timestamp_ns\": 1756836113198383104, \"agent_id\": \"selin\", \"domain\": \"drone\", \"source_format\": \"json\", \"position\": {\"x\": 12514248.515564673, \"y\": -65226361.63244073, \"z\": 0.0}, \"velocity\": {\"vx\": 3001.528678517708, \"vy\": 0.0, \"vz\": 0.0}, \"acceleration\": {\"ax\": -0.203859746456146, \"ay\": 0.0, \"az\": 0.0}, \"orientation\": {\"yaw\": 0.0, \"pitch\": 0.0, \"roll\": 0.0}, \"sensor\": \"fusion\", \"extras\": {}, \"record_hash\": \"a068ae07e43c4d19347bb289c70d1fd68b0319eb257c4ce1c98f1c5906f5f5ce\", \"anomaly_flag\": -1}}", "sha3": "1ca3af57f18f549acfff0a4785da099c384e0a717c58a2f95a8180fc9606d003c207ac0522a64733890e53063f6ea31dd3441c5090905f8262a00bcbdaff5088"}
{"data": "{\"timestamp\": 1756836113.3315723, \"event\": {\"timestamp_ns\": 1756836113277014016, \"agent_id\": \"selin\", \"domain\": \"drone\", \"source_format\": \"json\", \"position\": {\"x\": 12514548.666154131, \"y\": -65227922.56931965, \"z\": 0.0}, \"velocity\": {\"vx\": 3001.505894591579, \"vy\": 0.0, \"vz\": 0.0}, \"acceleration\": {\"ax\": -0.227839261293411, \"ay\": 0.0, \"az\": 0.0}, \"orientation\": {\"yaw\": 0.0, \"pitch\": 0.0, \"roll\": 0.0}, \"sensor\": \"fusion\", \"extras\": {}, \"record_hash\": \"f52da3b090d0c3248ba2c27812128ddcb59ad60e31e605e5530683c89afb9015\", \"anomaly_flag\": -1}}", "sha3": "0fe7d75bcc0237a6f560d05cc752578225dc0a7e584d6408702c65e9246dce8d72ef766ea19f71162763a4e3460a3c491069e5550b3c4b52516a13aeeab2d947"}
{"data": "{\"timestamp\": 1756836113.422527, \"event\": {\"timestamp_ns\": 1756836113352689152, \"agent_id\": \"selin\", \"domain\": \"drone\", \"source_format\": \"json\", \"position\": {\"x\": 12514848.814708313, \"y\": -65229483.50539881, \"z\": 0.0}, \"velocity\": {\"vx\": 3001.4855418226807, \"vy\": 0.0, \"vz\": 0.0}, \"acceleration\": {\"ax\": -0.2035276889801019, \"ay\": 0.0, \"az\": 0.0}, \"orientation\": {\"yaw\": 0.0, \"pitch\": 0.0, \"roll\": 0.0}, \"sensor\": \"fusion\", \"extras\": {}, \"record_hash\": \"f9eeea1320003e876120c22afddb30f5d637fd20e4e3b0e97185960a3266a5a0\", \"anomaly_flag\": -1}}", "sha3": "fd33d08b7c46044608b96a147b54a5b32b017e2662f57a22d3f8ff25e2bd606527f05fe68025d6eee7ea6823dd5f66ad20e9e8fd30634052e9ed49dcaf0eb0bc"}
{"data": "{\"timestamp\": 1756836113.5097554, \"event\": {\"timestamp_ns\": 1756836113443658240, \"agent_id\": \"selin\", \"domain\": \"drone\", \"source_format\": \"json\", \"position\": {\"x\": 12515148.961007144, \"y\": -65231044.44147312, \"z\": 0.0}, \"velocity\": {\"vx\": 3001.462988316187, \"vy\": 0.0, \"vz\": 0.0}, \"acceleration\": {\"ax\": -0.2255350649356839, \"ay\": 0.0, \"az\": 0.0}, \"orientation\": {\"yaw\": 0.0, \"pitch\": 0.0, \"roll\": 0.0}, \"sensor\": \"fusion\", \"extras\": {}, \"record_hash\": \"d6a24136950b4e1d853a317d728642e1d91a1a80513f7d4a218985dddbf744a5\", \"anomaly_flag\": -1}}", "sha3": "1b303c37c8763549efcaba3c96c30f718cee528527bd4ccc50ad0eef2419e1ce84cfa7f31e02074758f3d01d5e7f0bf889db60a74f0b03c96f218301ef1a8763"}
{"data": "{\"timestamp\": 1756836113.603819, \"event\": {\"timestamp_ns\": 1756836113531078144, \"agent_id\": \"selin\", \"domain\": \"drone\", \"source_format\": \"json\", \"position\": {\"x\": 12515449.105047, \"y\": -65232605.37754257, \"z\": 0.0}, \"velocity\": {\"vx\": 3001.440398555168, \"vy\": 0.0, \"vz\": 0.0}, \"acceleration\": {\"ax\": -0.22589761018753, \"ay\": 0.0, \"az\": 0.0}, \"orientation\": {\"yaw\": 0.0, \"pitch\": 0.0, \"roll\": 0.0}, \"sensor\": \"fusion\", \"extras\": {}, \"record_hash\": \"2c9cfa7bcb9c22c6d0e0f5c475f0d1dcc68372f85a70655613623f870034aa75\", \"anomaly_flag\": -1}}", "sha3": "f739e4bcf8f4ffa40e379da32965a7b56a5fb8cea6ddd048728f50e2325353a9cffcc77a43d5c8229983a42bffa98ab2563b7d6aa38378aee24502611f6f52a3"}
{"data": "{\"timestamp\": 1756836113.6999178, \"event\": {\"timestamp_ns\": 1756836113625238016, \"agent_id\": \"selin\", \"domain\": \"drone\", \"source_format\": \"json\", \"position\": {\"x\": 12515749.24742291, \"y\": -65234166.31402163, \"z\": 0.0}, \"velocity\": {\"vx\": 3001.4237590930547, \"vy\": 0.0, \"vz\": 0.0}, \"acceleration\": {\"ax\": -0.166394621133804, \"ay\": 0.0, \"az\": 0.0}, \"orientation\": {\"yaw\": 0.0, \"pitch\": 0.0, \"roll\": 0.0}, \"sensor\": \"fusion\", \"extras\": {}, \"record_hash\": \"a72c4ce96ab64ec82a986bbc61ca01c1fe090e04b9403aaf641b553a8e328796\", \"anomaly_flag\": -1}}", "sha3": "ed39f6e7eed196967c98c0a3eeb2a34506811ca6349ea0deac6de58bd9255512f0a8573f3c63ac1b47c12f8b1f9de21c6c151a47a282bf78f59ebea5878885fd"}
{"data": "{\"timestamp\": 1756836113.8115256, \"event\": {\"timestamp_ns\": 1756836113724544000, \"agent_id\": \"selin\", \"domain\": \"drone\", \"source_format\": \"json\", \"position\": {\"x\": 12516049.388129981, \"y\": -65235727.25131019, \"z\": 0.0}, \"velocity\": {\"vx\": 3001.40707072384, \"vy\": 0.0, \"vz\": 0.0}, \"acceleration\": {\"ax\": -0.166883692145348, \"ay\": 0.0, \"az\": 0.0}, \"orientation\": {\"yaw\": 0.0, \"pitch\": 0.0, \"roll\": 0.0}, \"sensor\": \"fusion\", \"extras\": {}, \"record_hash\": \"ea351d5773b432c31b3082eba8024c6fc8ab9fc4d2f159b4765c653604cfd7df\", \"anomaly_flag\": -1}}", "sha3": "6c02f6e40f2b70bb2a27ec213af627381d42795457250edd32abd0351ceea6b036921ea985f5fcde770bf40bc9036f933aae22349bcdfc8a94ab7f865509a0d3"}
{"data": "{\"timestamp\": 1756836113.8855028, \"event\": {\"timestamp_ns\": 1756836113832807936, \"agent_id\": \"selin\", \"domain\": \"drone\", \"source_format\": \"json\", \"position\": {\"x\": 12516349.526767628, \"y\": -65237288.18859877, \"z\": 0.0}, \"velocity\": {\"vx\": 3001.3863764680113, \"vy\": 0.0, \"vz\": 0.0}, \"acceleration\": {\"ax\": -0.2069425582885739, \"ay\": 0.0, \"az\": 0.0}, \"orientation\": {\"yaw\": 0.0, \"pitch\": 0.0, \"roll\": 0.0}, \"sensor\": \"fusion\", \"extras\": {}, \"record_hash\": \"bc9731b795ba77b20b09ca588f8aa6bfdc08b167806562817decbaabe12bbc44\", \"anomaly_flag\": -1}}", "sha3": "11d0868d3d298ad658e1caf5f2a7d719c94f77d5de732f99a4f7a491d44a85f7830c7f768e4364a1a65474ad8b300b03a5c81e763d32dc07884815729e649b87"}
