{"data": "{\"timestamp\": 1756834645.4705205, \"event\": {\"timestamp_ns\": 1756834645418134016, \"agent_id\": \"gonca\", \"domain\": \"drone\", \"source_format\": \"json\", \"position\": {\"x\": 2459770.0160362264, \"y\": -10388257.213559557, \"z\": 0.0}, \"velocity\": {\"vx\": 1171.9236956021537, \"vy\": 0.0, \"vz\": 0.0}, \"acceleration\": {\"ax\": -0.2262671887874603, \"ay\": 0.0, \"az\": 0.0}, \"orientation\": {\"yaw\": 0.0, \"pitch\": 0.0, \"roll\": 0.0}, \"sensor\": \"fusion\", \"extras\": {}, \"record_hash\": \"5e93ab1ae29b811a37db70359d285fd7423d875894cfbbe866424a8c9b1308c2\", \"anomaly_flag\": -1}}", "sha3": "7319dc53947dbe32cf67875b4797ffe7efdddfaf5fd12d49d690ab1d14ccf0996ca69720c136daea45ad171fcf828c1aafd961eba6365149bece1c93fb2c6231"}
{"data": "{\"timestamp\": 1756834645.5345109, \"event\": {\"timestamp_ns\": 1756834645491866112, \"agent_id\": \"gonca\", \"domain\": \"drone\", \"source_format\": \"json\", \"position\": {\"x\": 2459887.2063235394, \"y\": -10388897.98031109, \"z\": 0.0}, \"velocity\": {\"vx\": 1171.902873127793, \"vy\": 0.0, \"vz\": 0.0}, \"acceleration\": {\"ax\": -0.20822474360466, \"ay\": 0.0, \"az\": 0.0}, \"orientation\": {\"yaw\": 0.0, \"pitch\": 0.0, \"roll\": 0.0}, \"sensor\": \"fusion\", \"extras\": {}, \"record_hash\": \"220804ce2d9f8a5fcb94b4f94744401460c0db67c0f85a3cd6c91020daa1a6ac\", \"anomaly_flag\": -1}}", "sha3": "6ee487c8223c1eb6ce6edd3ae9130619eb9db97dba070c8984036c934d70f0281af6387947d563074a476af57512bcb424d24556db38d2797cc6152e8943a197"}
{"data": "{\"timestamp\": 1756834645.600345, \"event\": {\"timestamp_ns\": 1756834645556027904, \"agent_id\": \"gonca\", \"domain\": \"drone\", \"source_format\": \"json\", \"position\": {\"x\": 2460004.394348213, \"y\": -10389538.746657955, \"z\": 0.0}, \"velocity\": {\"vx\": 1171.88024673674, \"vy\": 0.0, \"vz\": 0.0}, \"acceleration\": {\"ax\": -0.2262639105319977, \"ay\": 0.0, \"az\": 0.0}, \"orientation\": {\"yaw\": 0.0, \"pitch\": 0.0, \"roll\": 0.0}, \"sensor\": \"fusion\", \"extras\": {}, \"record_hash\": \"0186d8f44de8b1aa7603a4c3bf6ce7d0cb4a5f79308d7d3e624c7d2afc126c72\", \"anomaly_flag\": -1}}", "sha3": "a6390beab2d262b882341be15e380051f5053a8aa038b80672cd38489225cede93c2771b22332520b8da4ab1c13a07ca02b23a76e6d6c7369d8125d532e07a26"}
{"data": "{\"timestamp\": 1756834645.6663067, \"event\": {\"timestamp_ns\": 1756834645621622016, \"agent_id\": \"gonca\", \"domain\": \"drone\", \"source_format\": \"json\", \"position\": {\"x\": 2460121.5805099737, \"y\": -10390179.512609871, \"z\": 0.0}, \"velocity\": {\"vx\": 1171.861617608999, \"vy\": 0.0, \"vz\": 0.0}, \"acceleration\": {\"ax\": -0.1862912774085998, \"ay\": 0.0, \"az\": 0.0}, \"orientation\": {\"yaw\": 0.0, \"pitch\": 0.0, \"roll\": 0.0}, \"sensor\": \"fusion\", \"extras\": {}, \"record_hash\": \"401be0c8c9904405f76ef7c7e59a9f6d6b1adc0ffea46a8bee8b10c0aac40cc5\", \"anomaly_flag\": -1}}", "sha3": "2bfee4b55f49ddae3e19ace004e0c22918afbd35a7f80e3c566f361e6319e0594c5a282305158b7e9bf09a77dcd1fbd1621ad9cafadbc99b614c39f28e9ff6c4"}
{"data": "{\"timestamp\": 1756834645.7377114, \"event\": {\"timestamp_ns\": 1756834645687408896, \"agent_id\": \"gonca\", \"domain\": \"drone\", \"source_format\": \"json\", \"position\": {\"x\": 2460238.764589487, \"y\": -10390820.278961744, \"z\": 0.0}, \"velocity\": {\"vx\": 1171.8407951346385, \"vy\": 0.0, \"vz\": 0.0}, \"acceleration\": {\"ax\": -0.20822474360466, \"ay\": 0.0, \"az\": 0.0}, \"orientation\": {\"yaw\": 0.0, \"pitch\": 0.0, \"roll\": 0.0}, \"sensor\": \"fusion\", \"extras\": {}, \"record_hash\": \"08d187796755d77242244990901529ceec05fe2ed2ab729af5bc246ed939050c\", \"anomaly_flag\": -1}}", "sha3": "3fc152d0efe1ab952ad173b56fb25abe026e76d2f65919a90c6b6a23ab12a4fa8d450b820724a69b5e34abaff09370ab275cf01e0b4485b2bcfaad64f2aadaa3"}
{"data": "{\"timestamp\": 1756834645.8377848, \"event\": {\"timestamp_ns\": 1756834645758832896, \"agent_id\": \"gonca\", \"domain\": \"drone\", \"source_format\": \"json\", \"position\": {\"x\": 2460355.9465867532, \"y\": -10391461.045713574, \"z\": 0.0}, \"velocity\": {\"vx\": 1171.819972660278, \"vy\": 0.0, \"vz\": 0.0}, \"acceleration\": {\"ax\": -0.20822474360466, \"ay\": 0.0, \"az\": 0.0}, \"orientation\": {\"yaw\": 0.0, \"pitch\": 0.0, \"roll\": 0.0}, \"sensor\": \"fusion\", \"extras\": {}, \"record_hash\": \"c7ddba1ec549edb9948a6385e43a6bafbc43cc66adc25db924acbe43ea674656\", \"anomaly_flag\": -1}}", "sha3": "772cfa2c9fda615ff8f01924bee99933415f36b0d9f059cefb1bf675d362f136ab3865842b1b68fbd25e8dd1b5292b689d896f75b4d1883e3bf3fb4912f875f3"}
{"data": "{\"timestamp\": 1756834645.9312212, \"event\": {\"timestamp_ns\": 1756834645858755072, \"agent_id\": \"gonca\", \"domain\": \"drone\", \"source_format\": \"json\", \"position\": {\"x\": 2460473.126311595, \"y\": -10392101.812460616, \"z\": 0.0}, \"velocity\": {\"vx\": 1171.7972484162794, \"vy\": 0.0, \"vz\": 0.0}, \"acceleration\": {\"ax\": -0.2272424399852753, \"ay\": 0.0, \"az\": 0.0}, \"orientation\": {\"yaw\": 0.0, \"pitch\": 0.0, \"roll\": 0.0}, \"sensor\": \"fusion\", \"extras\": {}, \"record_hash\": \"b9bd0c751741b5c9b0696b3ab30623820dd5c3d726097aba03b1fec669ebf0fc\", \"anomaly_flag\": -1}}", "sha3": "60cc01ecee1d23916382aa87ab77e2db7d260e0b172be0190b6a3a1e3c4b3fff5de083938e0ff6a726e929744ddeabe5c50774669eade8b95df7ba326e035463"}
{"data": "{\"timestamp\": 1756834646.0077772, \"event\": {\"timestamp_ns\": 1756834645952107008, \"agent_id\": \"gonca\", \"domain\": \"drone\", \"source_format\": \"json\", \"position\": {\"x\": 2460590.3043443286, \"y\": -10392742.580017217, \"z\": 0.0}, \"velocity\": {\"vx\": 1171.7803273356305, \"vy\": 0.0, \"vz\": 0.0}, \"acceleration\": {\"ax\": -0.1692108064889907, \"ay\": 0.0, \"az\": 0.0}, \"orientation\": {\"yaw\": 0.0, \"pitch\": 0.0, \"roll\": 0.0}, \"sensor\": \"fusion\", \"extras\": {}, \"record_hash\": \"4ea76fd5f886fb29d7b5403a64afaf11c114474f49fd714bc7c4cb3c3478bd80\", \"anomaly_flag\": -1}}", "sha3": "24e0385ea9832d87e426bb054e34d2ec1a9c76ec1f67626b9d3a6111a46b7026f243cfaf133e0b4672527b00cd0557f519a01220e3592c490c88e24669dfdd59"}
{"data": "{\"timestamp\": 1756834646.0828607, \"event\": {\"timestamp_ns\": 1756834646029658112, \"agent_id\": \"gonca\", \"domain\": \"drone\", \"source_format\": \"json\", \"position\": {\"x\": 2460707.480304534, \"y\": -10393383.347573891, \"z\": 0.0}, \"velocity\": {\"vx\": 1171.7596020540939, \"vy\": 0.0, \"vz\": 0.0}, \"acceleration\": {\"ax\": -0.2072528153657912, \"ay\": 0.0, \"az\": 0.0}, \"orientation\": {\"yaw\": 0.0, \"pitch\": 0.0, \"roll\": 0.0}, \"sensor\": \"fusion\", \"extras\": {}, \"record_hash\": \"6ad057a130ff5477e37afe47c7d7c9e7f3c5103e926ac2d53a69173392e049a9\", \"anomaly_flag\": -1}}", "sha3": "35c168067b0423c2235847d4963a16b4cbaf7b3f50d84dbd63c0bd2321a2b8f1082b0e5794d1eb1bcdc541fd4ff0532e8918bd9f6d17d9f1644e6a8a93cebcdd"}
{"data": "{\"timestamp\": 1756834646.139805, \"event\": {\"timestamp_ns\": 1756834646104296960, \"agent_id\": \"gonca\", \"domain\": \"drone\", \"source_format\": \"json\", \"position\": {\"x\": 2460824.6545823505, \"y\": -10394024.115540244, \"z\": 0.0}, \"velocity\": {\"vx\": 1171.7427781662689, \"vy\": 0.0, \"vz\": 0.0}, \"acceleration\": {\"ax\": -0.168238878250122, \"ay\": 0.0, \"az\": 0.0}, \"orientation\": {\"yaw\": 0.0, \"pitch\": 0.0, \"roll\": 0.0}, \"sensor\": \"fusion\", \"extras\": {}, \"record_hash\": \"34751d888bcbde173d562f0dd34b525f406c1975768346a0fef6943e59c63ba4\", \"anomaly_flag\": -1}}", "sha3": "fe26505a1bbd566c29d1246af86f0d72d6d8609ada95bb128b8ccfe10542abf95970c9b3e08e5961038fd20893ca67f4c8989d3dc577dc5a352666853ebba989"}
{"data": "{\"timestamp\": 1756834646.201549, \"event\": {\"timestamp_ns\": 1756834646160828160, \"agent_id\": \"gonca\", \"domain\": \"drone\", \"source_format\": \"json\", \"position\": {\"x\": 2460941.826597462, \"y\": -10394664.883101927, \"z\": 0.0}, \"velocity\": {\"vx\": 1171.720151113604, \"vy\": 0.0, \"vz\": 0.0}, \"acceleration\": {\"ax\": -0.2262705266475677, \"ay\": 0.0, \"az\": 0.0}, \"orientation\": {\"yaw\": 0.0, \"pitch\": 0.0, \"roll\": 0.0}, \"sensor\": \"fusion\", \"extras\": {}, \"record_hash\": \"d8eb37269ae58fb0977ff81694c159df52a8eaa7c84bf6ead2a07379cbf1d4d2\", \"anomaly_flag\": -1}}", "sha3": "aa5810591bd36f90444bf711157c9b7612fab524c3576f7e49d49f6699f970a7da70608f28ab8ba41acd6af6dc99892c3cc84e72f3edc94104bfa201e204fdd6"}
{"data": "{\"timestamp\": 1756834646.2598953, \"event\": {\"timestamp_ns\": 1756834646224047872, \"agent_id\": \"gonca\", \"domain\": \"drone\", \"source_format\": \"json\", \"position\": {\"x\": 2461058.9965303917, \"y\": -10395305.651063565, \"z\": 0.0}, \"velocity\": {\"vx\": 1171.699329299365, \"vy\": 0.0, \"vz\": 0.0}, \"acceleration\": {\"ax\": -0.2082181423902512, \"ay\": 0.0, \"az\": 0.0}, \"orientation\": {\"yaw\": 0.0, \"pitch\": 0.0, \"roll\": 0.0}, \"sensor\": \"fusion\", \"extras\": {}, \"record_hash\": \"efa557571f477385b1741fadf2e2b0570a62820a15e1c299fcc5d400dbd88e88\", \"anomaly_flag\": -1}}", "sha3": "097205f94abc9b5e206d2f9c16483a03da0b4c8b4cc624b946151e23c34a2e18ec0b610dca816466fbd0eef972f9a734ed53a39d5cff39a369d0508037d74799"}
{"data": "{\"timestamp\": 1756834646.327758, \"event\": {\"timestamp_ns\": 1756834646280978944, \"agent_id\": \"gonca\", \"domain\": \"drone\", \"source_format\": \"json\", \"position\": {\"x\": 2461176.1645810036, \"y\": -10395946.41943002, \"z\": 0.0}, \"velocity\": {\"vx\": 1171.6805061182722, \"vy\": 0.0, \"vz\": 0.0}, \"acceleration\": {\"ax\": -0.188231810927391, \"ay\": 0.0, \"az\": 0.0}, \"orientation\": {\"yaw\": 0.0, \"pitch\": 0.0, \"roll\": 0.0}, \"sensor\": \"fusion\", \"extras\": {}, \"record_hash\": \"98dbdcb2869afa6c9513942cc73459061c47a22ae7c0a2dcbc849022f0178f26\", \"anomaly_flag\": -1}}", "sha3": "85e508ea9e9913dc393bd59e7dfb59e7082ca4907ac47c74376e033f9b5c9b1b2630b8ce3e05075006b26055e0b9a217e6fc6ee14cd6ef7817c3abb014197650"}
{"data": "{\"timestamp\": 1756834646.3909965, \"event\": {\"timestamp_ns\": 1756834646351514112, \"agent_id\": \"gonca\", \"domain\": \"drone\", \"source_format\": \"json\", \"position\": {\"x\": 2461293.33075905, \"y\": -10396587.18780141, \"z\": 0.0}, \"velocity\": {\"vx\": 1171.661780460809, \"vy\": 0.0, \"vz\": 0.0}, \"acceleration\": {\"ax\": -0.1872565746307373, \"ay\": 0.0, \"az\": 0.0}, \"orientation\": {\"yaw\": 0.0, \"pitch\": 0.0, \"roll\": 0.0}, \"sensor\": \"fusion\", \"extras\": {}, \"record_hash\": \"c975bca10b5951ebe17db64a0842462624c4a900e2be3eee85389e5b2e0fca54\", \"anomaly_flag\": -1}}", "sha3": "e672b7b5dfce5068ce84c0002e29f6375107a051680c908f31e7e497912063b774cf2a0298989dc45b07352ea7f9ebf301a7a63bf1e513889e0102ea73753a49"}
{"data": "{\"timestamp\": 1756834646.4969306, \"event\": {\"timestamp_ns\": 1756834646412032000, \"agent_id\": \"gonca\", \"domain\": \"drone\", \"source_format\": \"json\", \"position\": {\"x\": 2461410.495444917, \"y\": -10397227.956987219, \"z\": 0.0}, \"velocity\": {\"vx\": 1171.646858673428, \"vy\": 0.0, \"vz\": 0.0}, \"acceleration\": {\"ax\": -0.1492178738117218, \"ay\": 0.0, \"az\": 0.0}, \"orientation\": {\"yaw\": 0.0, \"pitch\": 0.0, \"roll\": 0.0}, \"sensor\": \"fusion\", \"extras\": {}, \"record_hash\": \"9a3e283312f33b1c1991de9bbf48e3ac89bd72b57371b321c53a0479b697772b\", \"anomaly_flag\": -1}}", "sha3": "4aa47c250556f40bf071c31ba9b5f3f975e518a124d8d57bcab960110ecc74832d970e18d716d72ce6dfd9f83b57428e9156df2964a16cec3d2026c396a3fe92"}
{"data": "{\"timestamp\": 1756834646.5647347, \"event\": {\"timestamp_ns\": 1756834646517942016, \"agent_id\": \"gonca\", \"domain\": \"drone\", \"source_format\": \"json\", \"position\": {\"x\": 2461527.6580679757, \"y\": -10397868.725773219, \"z\": 0.0}, \"velocity\": {\"vx\": 1171.6262305847151, \"vy\": 0.0, \"vz\": 0.0}, \"acceleration\": {\"ax\": -0.2062808871269226, \"ay\": 0.0, \"az\": 0.0}, \"orientation\": {\"yaw\": 0.0, \"pitch\": 0.0, \"roll\": 0.0}, \"sensor\": \"fusion\", \"extras\": {}, \"record_hash\": \"8d569c3727413f7429a6b21d37b2d8b233bc745470eb67949da15e6f7ae46cdc\", \"anomaly_flag\": -1}}", "sha3": "d9bc8e5963fc78b63a15f08380e2f7e0d61f704fb8d5976748d7a77fd6a89ed0864f3c5cffb27059ecdacc9eff3e5b5fe6d23d93ef72138adfb210b703be31ef"}
{"data": "{\"timestamp\": 1756834646.6430795, \"event\": {\"timestamp_ns\": 1756834646585915136, \"agent_id\": \"gonca\", \"domain\": \"drone\", \"source_format\": \"json\", \"position\": {\"x\": 2461644.8184283287, \"y\": -10398509.494154552, \"z\": 0.0}, \"velocity\": {\"vx\": 1171.6036035320503, \"vy\": 0.0, \"vz\": 0.0}, \"acceleration\": {\"ax\": -0.2262705266475677, \"ay\": 0.0, \"az\": 0.0}, \"orientation\": {\"yaw\": 0.0, \"pitch\": 0.0, \"roll\": 0.0}, \"sensor\": \"fusion\", \"extras\": {}, \"record_hash\": \"89d588244e7245e7c444d5b2af472dcc57989a5adcafa2f0729962e4d5144665\", \"anomaly_flag\": -1}}", "sha3": "33c29d7cd3f864da3ca72677d04c5a192f9dd30749c513a270306ed18a2a516e5cd3d6d81edae8b856bddfcba548af0f183218a950858cf2b4e487d2b5467de6"}
{"data": "{\"timestamp\": 1756834646.7311716, \"event\": {\"timestamp_ns\": 1756834646664026112, \"agent_id\": \"gonca\", \"domain\": \"drone\", \"source_format\": \"json\", \"position\": {\"x\": 2461761.976916083, \"y\": -10399150.26254082, \"z\": 0.0}, \"velocity\": {\"vx\": 1171.5848775437814, \"vy\": 0.0, \"vz\": 0.0}, \"acceleration\": {\"ax\": -0.1872598826885223, \"ay\": 0.0, \"az\": 0.0}, \"orientation\": {\"yaw\": 0.0, \"pitch\": 0.0, \"roll\": 0.0}, \"sensor\": \"fusion\", \"extras\": {}, \"record_hash\": \"24069eed153c4f8aeed998b0984bd38d6b1e54f02ccfe3e762e3bb839f69bc2b\", \"anomaly_flag\": -1}}", "sha3": "ff401024da94f0b552152fba057a54e1f7d992fbe1cf8ea9535d27fe9db280634e9ad44d1b45720a35eeace36a079b27f9a5eed62fe61324b1ecd27e375fb0cf"}
{"data": "{\"timestamp\": 1756834646.8121, \"event\": {\"timestamp_ns\": 1756834646752140032, \"agent_id\": \"gonca\", \"domain\": \"drone\", \"source_format\": \"json\", \"position\": {\"x\": 2461879.1329412363, \"y\": -10399791.030517556, \"z\": 0.0}, \"velocity\": {\"vx\": 1171.5602515301448, \"vy\": 0.0, \"vz\": 0.0}, \"acceleration\": {\"ax\": -0.2462601363658905, \"ay\": 0.0, \"az\": 0.0}, \"orientation\": {\"yaw\": 0.0, \"pitch\": 0.0, \"roll\": 0.0}, \"sensor\": \"fusion\", \"extras\": {}, \"record_hash\": \"2745b81808ee5f4a897cb5dc6491dc1f139233e8af81d6e1f2279e03f070e1fd\", \"anomaly_flag\": -1}}", "sha3": "db4fb8c7c9b9f8c1f3379be7a3ed4f5a1f90725964adcf47449c6adf266769b01328feaef938ab090225c6208066490576ebd04cd2c9b9353697bb2d859cd7bc"}
{"data": "{\"timestamp\": 1756834646.895115, \"event\": {\"timestamp_ns\": 1756834646833782016, \"agent_id\": \"gonca\", \"domain\": \"drone\", \"source_format\": \"json\", \"position\": {\"x\": 2461996.286893927, \"y\": -10400431.798494367, \"z\": 0.0}, \"velocity\": {\"vx\": 1171.5395269087296, \"vy\": 0.0, \"vz\": 0.0}, \"acceleration\": {\"ax\": -0.2072462141513824, \"ay\": 0.0, \"az\": 0.0}, \"orientation\": {\"yaw\": 0.0, \"pitch\": 0.0, \"roll\": 0.0}, \"sensor\": \"fusion\", \"extras\": {}, \"record_hash\": \"d3558670e22e6e4a5ed61409ba208bc7189876c59837bb555b12403c9a2e2e1f\", \"anomaly_flag\": -1}}", "sha3": "5f22e8cae343947463ed54936e7571729d19102453e82de95b32a70f86c46ed29c85d8557df4c2b53ccdaf96421327648374c11d03db278df12160e44bb2c2f9"}
{"data": "{\"timestamp\": 1756834646.9757555, \"event\": {\"timestamp_ns\": 1756834646916344832, \"agent_id\": \"gonca\", \"domain\": \"drone\", \"source_format\": \"json\", \"position\": {\"x\": 2462113.438774123, \"y\": -10401072.56647125, \"z\": 0.0}, \"velocity\": {\"vx\": 1171.5188019565087, \"vy\": 0.0, \"vz\": 0.0}, \"acceleration\": {\"ax\": -0.2072495222091674, \"ay\": 0.0, \"az\": 0.0}, \"orientation\": {\"yaw\": 0.0, \"pitch\": 0.0, \"roll\": 0.0}, \"sensor\": \"fusion\", \"extras\": {}, \"record_hash\": \"1c4b50eedc123d77dc3e0b6168a45549975e74645587558d5639052916062c29\", \"anomaly_flag\": -1}}", "sha3": "52d282354098518b661936e3240d5afe2932980d07a5bb0ed5faee260ffd39b9789de28f0cabd3b11cf9ff67e236f0d8c54e375107add6b8603c92e0f941d9c3"}
{"data": "{\"timestamp\": 1756834647.0455625, \"event\": {\"timestamp_ns\": 1756834646997788928, \"agent_id\": \"gonca\", \"domain\": \"drone\", \"source_format\": \"json\", \"position\": {\"x\": 2462230.588191717, \"y\": -10401713.334038606, \"z\": 0.0}, \"velocity\": {\"vx\": 1171.494175942872, \"vy\": 0.0, \"vz\": 0.0}, \"acceleration\": {\"ax\": -0.2462601363658905, \"ay\": 0.0, \"az\": 0.0}, \"orientation\": {\"yaw\": 0.0, \"pitch\": 0.0, \"roll\": 0.0}, \"sensor\": \"fusion\", \"extras\": {}, \"record_hash\": \"a98f39f628f688674fb57e2639180f8e42044904536e0e1e77efb72038b19057\", \"anomaly_flag\": -1}}", "sha3": "68059f8f910a98d0b8276092e17a11c99e3806611557f4c1bc66746f4145abee54c4fb1456ed5ad07a43a57116b922bbb75f2e52330ffb7e4c3b604237444053"}
{"data": "{\"timestamp\": 1756834647.1131968, \"event\": {\"timestamp_ns\": 1756834647066458112, \"agent_id\": \"gonca\", \"domain\": \"drone\", \"source_format\": \"json\", \"position\": {\"x\": 2462347.7353466395, \"y\": -10402354.101201292, \"z\": 0.0}, \"velocity\": {\"vx\": 1171.4715492239934, \"vy\": 0.0, \"vz\": 0.0}, \"acceleration\": {\"ax\": -0.2262671887874603, \"ay\": 0.0, \"az\": 0.0}, \"orientation\": {\"yaw\": 0.0, \"pitch\": 0.0, \"roll\": 0.0}, \"sensor\": \"fusion\", \"extras\": {}, \"record_hash\": \"3250303e5b4a52175f3cec886d8ceded7560b9b0fd349b238968d2e3488e6b15\", \"anomaly_flag\": -1}}", "sha3": "5375619cec008352848d9ac696d3532de6b1a1eaa2c1f857f5674617c524e5635bd271f3b01be3bf0710fb6dd37e5e4886b3558d91a9156721a1f2ff76d1d962"}
{"data": "{\"timestamp\": 1756834647.1795204, \"event\": {\"timestamp_ns\": 1756834647134257920, \"agent_id\": \"gonca\", \"domain\": \"drone\", \"source_format\": \"json\", \"position\": {\"x\": 2462464.8807997676, \"y\": -10402994.86957342, \"z\": 0.0}, \"velocity\": {\"vx\": 1171.4545312798364, \"vy\": 0.0, \"vz\": 0.0}, \"acceleration\": {\"ax\": -0.1701794415712356, \"ay\": 0.0, \"az\": 0.0}, \"orientation\": {\"yaw\": 0.0, \"pitch\": 0.0, \"roll\": 0.0}, \"sensor\": \"fusion\", \"extras\": {}, \"record_hash\": \"5d6b27c6e8bcde32d3b0e9bd0deca25812d34789414bd368d9af7d511ed1bb41\", \"anomaly_flag\": -1}}", "sha3": "c3a0584fff63728a166853e8dbf589ffbc64cbfa5d1044240aadf811f141cf12a4e628aa6b85ac4909ba665649e63bbb9b1479557e33367ef9b2de76ce0813fe"}
{"data": "{\"timestamp\": 1756834647.2440586, \"event\": {\"timestamp_ns\": 1756834647201001984, \"agent_id\": \"gonca\", \"domain\": \"drone\", \"source_format\": \"json\", \"position\": {\"x\": 2462582.024390049, \"y\": -10403635.6375506, \"z\": 0.0}, \"velocity\": {\"vx\": 1171.4359028137071, \"vy\": 0.0, \"vz\": 0.0}, \"acceleration\": {\"ax\": -0.1862846612930297, \"ay\": 0.0, \"az\": 0.0}, \"orientation\": {\"yaw\": 0.0, \"pitch\": 0.0, \"roll\": 0.0}, \"sensor\": \"fusion\", \"extras\": {}, \"record_hash\": \"3df7af7e0eb374d26ca33daa2268b741c508cc9920569bfd922cd962260576b2\", \"anomaly_flag\": -1}}", "sha3": "8f273ab970e9b9bda5225a70dfcae405b438355a728badb44ee4eb7ad82e63f70b4f673e15fad1a9a41ac10874b4ef126f114d70d812a7c362dbfb89a16b123c"}
{"data": "{\"timestamp\": 1756834647.3072634, \"event\": {\"timestamp_ns\": 1756834647265070848, \"agent_id\": \"gonca\", \"domain\": \"drone\", \"source_format\": \"json\", \"position\": {\"x\": 2462699.165717625, \"y\": -10404276.40512311, \"z\": 0.0}, \"velocity\": {\"vx\": 1171.4132757610423, \"vy\": 0.0, \"vz\": 0.0}, \"acceleration\": {\"ax\": -0.2262705266475677, \"ay\": 0.0, \"az\": 0.0}, \"orientation\": {\"yaw\": 0.0, \"pitch\": 0.0, \"roll\": 0.0}, \"sensor\": \"fusion\", \"extras\": {}, \"record_hash\": \"39b997810f8fc08fa35dba1ffee9d6c22b9c81be6440ccd1ece8f309c56a2437\", \"anomaly_flag\": -1}}", "sha3": "5788e8f3487c0a1aae51faf22d9ae42bd7adaf6d88d8b3a1c75164588690cecb09427096f4ace8bc611f7222378f754aa459cffe6ae5835da8ed7c0d39721e3f"}
{"data": "{\"timestamp\": 1756834647.3641336, \"event\": {\"timestamp_ns\": 1756834647328517888, \"agent_id\": \"gonca\", \"domain\": \"drone\", \"source_format\": \"json\", \"position\": {\"x\": 2462816.305172602, \"y\": -10404917.172700556, \"z\": 0.0}, \"velocity\": {\"vx\": 1171.3945497727734, \"vy\": 0.0, \"vz\": 0.0}, \"acceleration\": {\"ax\": -0.1872598826885223, \"ay\": 0.0, \"az\": 0.0}, \"orientation\": {\"yaw\": 0.0, \"pitch\": 0.0, \"roll\": 0.0}, \"sensor\": \"fusion\", \"extras\": {}, \"record_hash\": \"760a862ca432157b9f70805126c356e52785fc96df7e4f42f77f88a8d336c000\", \"anomaly_flag\": -1}}", "sha3": "fda4a66d37c7187a5b27b85045a5b82f080e0c125074ef300c2aad02a6d8cc09add2028927eb02a878c7f1a040e4688d24da4c035a32cb8cb0e0c8e07f103d04"}
{"data": "{\"timestamp\": 1756834647.425828, \"event\": {\"timestamp_ns\": 1756834647385061888, \"agent_id\": \"gonca\", \"domain\": \"drone\", \"source_format\": \"json\", \"position\": {\"x\": 2462933.4425648367, \"y\": -10405557.939878194, \"z\": 0.0}, \"velocity\": {\"vx\": 1171.3739223456723, \"vy\": 0.0, \"vz\": 0.0}, \"acceleration\": {\"ax\": -0.2062742710113525, \"ay\": 0.0, \"az\": 0.0}, \"orientation\": {\"yaw\": 0.0, \"pitch\": 0.0, \"roll\": 0.0}, \"sensor\": \"fusion\", \"extras\": {}, \"record_hash\": \"35aef3fee979b9ec471e9c2413fc27674886f6238d76ed7db74fdbafb1d078c0\", \"anomaly_flag\": -1}}", "sha3": "4ddc43b20d3fdb1a65c2a656370e8b026b8407e76b362cd46ab1b9dfc1effe8ae1399df7bef311477872daad43dd5003adbd69576782faaf1aea404ecb7fbd0b"}
{"data": "{\"timestamp\": 1756834647.487733, \"event\": {\"timestamp_ns\": 1756834647447240960, \"agent_id\": \"gonca\", \"domain\": \"drone\", \"source_format\": \"json\", \"position\": {\"x\": 2463050.578094192, \"y\": -10406198.706660884, \"z\": 0.0}, \"velocity\": {\"vx\": 1171.3552935517175, \"vy\": 0.0, \"vz\": 0.0}, \"acceleration\": {\"ax\": -0.1862879395484924, \"ay\": 0.0, \"az\": 0.0}, \"orientation\": {\"yaw\": 0.0, \"pitch\": 0.0, \"roll\": 0.0}, \"sensor\": \"fusion\", \"extras\": {}, \"record_hash\": \"8647c73a8a56a2e4920f12b18d9c5fd69766c51a345e8b61cb616ad58a70448b\", \"anomaly_flag\": -1}}", "sha3": "17525e50b736a77eea1f1b580c0c641347da1c162a63f6940d28624359dba61e01c7ee73f5ed50a3a1360ff71013d6896e826e60297f8557d3441fc29e885042"}
{"data": "{\"timestamp\": 1756834647.5596342, \"event\": {\"timestamp_ns\": 1756834647509799936, \"agent_id\": \"gonca\", \"domain\": \"drone\", \"source_format\": \"json\", \"position\": {\"x\": 2463167.7113413867, \"y\": -10406839.473838668, \"z\": 0.0}, \"velocity\": {\"vx\": 1171.3324719494922, \"vy\": 0.0, \"vz\": 0.0}, \"acceleration\": {\"ax\": -0.2282160222530365, \"ay\": 0.0, \"az\": 0.0}, \"orientation\": {\"yaw\": 0.0, \"pitch\": 0.0, \"roll\": 0.0}, \"sensor\": \"fusion\", \"extras\": {}, \"record_hash\": \"6454dfa43ffbb25dd448504514136aeb05b58fc770c6901df7111ea981c6cb21\", \"anomaly_flag\": -1}}", "sha3": "1ed1b25def8a120f927efaba35ed15f027a6331988de297dc4417514db11c380062eb2892c85f16ccb1acf6d23b7bbd9a96997711bfe895e24f301432aed7d0e"}
{"data": "{\"timestamp\": 1756834647.6256886, \"event\": {\"timestamp_ns\": 1756834647580604160, \"agent_id\": \"gonca\", \"domain\": \"drone\", \"source_format\": \"json\", \"position\": {\"x\": 2463284.8425257397, \"y\": -10407480.240616646, \"z\": 0.0}, \"velocity\": {\"vx\": 1171.3118435299737, \"vy\": 0.0, \"vz\": 0.0}, \"acceleration\": {\"ax\": -0.2062841951847076, \"ay\": 0.0, \"az\": 0.0}, \"orientation\": {\"yaw\": 0.0, \"pitch\": 0.0, \"roll\": 0.0}, \"sensor\": \"fusion\", \"extras\": {}, \"record_hash\": \"5c5dd6811bb62c17bd06148a1ca631158e8ad54b2627d82aca962f6d04406a11\", \"anomaly_flag\": -1}}", "sha3": "3c8e6280ffd1bc9557bfd1d950cb0912a797c1c40895cf086ab46ea5231bf293dbe890eebe319c46c3464509d8082c9b47fe636dd5443744cbeac015889c794a"}
{"data": "{\"timestamp\": 1756834647.685319, \"event\": {\"timestamp_ns\": 1756834647646928128, \"agent_id\": \"gonca\", \"domain\": \"drone\", \"source_format\": \"json\", \"position\": {\"x\": 2463401.9714474534, \"y\": -10408121.006989954, \"z\": 0.0}, \"velocity\": {\"vx\": 1171.2892171389205, \"vy\": 0.0, \"vz\": 0.0}, \"acceleration\": {\"ax\": -0.2262639105319977, \"ay\": 0.0, \"az\": 0.0}, \"orientation\": {\"yaw\": 0.0, \"pitch\": 0.0, \"roll\": 0.0}, \"sensor\": \"fusion\", \"extras\": {}, \"record_hash\": \"4311dc3f1db1f40f9c06a47e777a4ae9db071c6ae23ff769447928b86143d99a\", \"anomaly_flag\": -1}}", "sha3": "8ec55a26e55ab34f85ca7a0c1850aae85704448ee986d757c2d9fea3b79992cf2034dc4794878d08ae3ec885e4d44f908c452939cd97c285cccf0af1fd36f188"}
{"data": "{\"timestamp\": 1756834647.747356, \"event\": {\"timestamp_ns\": 1756834647706499072, \"agent_id\": \"gonca\", \"domain\": \"drone\", \"source_format\": \"json\", \"position\": {\"x\": 2463519.098096809, \"y\": -10408761.773358475, \"z\": 0.0}, \"velocity\": {\"vx\": 1171.2664935550436, \"vy\": 0.0, \"vz\": 0.0}, \"acceleration\": {\"ax\": -0.2272358387708664, \"ay\": 0.0, \"az\": 0.0}, \"orientation\": {\"yaw\": 0.0, \"pitch\": 0.0, \"roll\": 0.0}, \"sensor\": \"fusion\", \"extras\": {}, \"record_hash\": \"153f8ddea8ae20f3d055791ab18b4aad9fcd567f205750bb9d6ea9e18ea104eb\", \"anomaly_flag\": -1}}", "sha3": "5b88b749d807e156f28b2421da6102f42c73ded2ee8d25a18c3af6fb7c6968c910fe510307f2ea404dbe11da5e3fce27f4119c3da5bf7c87ff72960ffb70a1d3"}
{"data": "{\"timestamp\": 1756834647.810695, \"event\": {\"timestamp_ns\": 1756834647768978176, \"agent_id\": \"gonca\", \"domain\": \"drone\", \"source_format\": \"json\", \"position\": {\"x\": 2463636.222483459, \"y\": -10409402.539322328, \"z\": 0.0}, \"velocity\": {\"vx\": 1171.2438665023788, \"vy\": 0.0, \"vz\": 0.0}, \"acceleration\": {\"ax\": -0.2262705266475677, \"ay\": 0.0, \"az\": 0.0}, \"orientation\": {\"yaw\": 0.0, \"pitch\": 0.0, \"roll\": 0.0}, \"sensor\": \"fusion\", \"extras\": {}, \"record_hash\": \"921ebaf06c4117792c9d3fb6d665a372b3ac5a88a519ce573526d2a89ac03c38\", \"anomaly_flag\": -1}}", "sha3": "8ad7fb75431e2594d0d9a9fd9145205ae868dbb5bf0fa49885f5c7e8f0ad6c46b366e104761993e48debed6a0bc049985a664166e6e14b1f94ea87d62206a9da"}
{"data": "{\"timestamp\": 1756834647.8835056, \"event\": {\"timestamp_ns\": 1756834647832151808, \"agent_id\": \"gonca\", \"domain\": \"drone\", \"source_format\": \"json\", \"position\": {\"x\": 2463753.344987824, \"y\": -10410043.305690996, \"z\": 0.0}, \"velocity\": {\"vx\": 1171.2250436520917, \"vy\": 0.0, \"vz\": 0.0}, \"acceleration\": {\"ax\": -0.188228502869606, \"ay\": 0.0, \"az\": 0.0}, \"orientation\": {\"yaw\": 0.0, \"pitch\": 0.0, \"roll\": 0.0}, \"sensor\": \"fusion\", \"extras\": {}, \"record_hash\": \"89ca039e89fed9d7753e583aa7e231403e564eeefb9c46522c7be5f4843dd2a4\", \"anomaly_flag\": -1}}", "sha3": "3a00147c4d7da7b20f789bc196d2a1df7a3d25154dca44c65d2f41d1607eed7a2b179e180ca7ee6440ac8d9b7ca7aa33336773daf3f385b028979970b32e51db"}
{"data": "{\"timestamp\": 1756834647.94477, \"event\": {\"timestamp_ns\": 1756834647904753920, \"agent_id\": \"gonca\", \"domain\": \"drone\", \"source_format\": \"json\", \"position\": {\"x\": 2463870.465219765, \"y\": -10410684.072054878, \"z\": 0.0}, \"velocity\": {\"vx\": 1171.2023194080932, \"vy\": 0.0, \"vz\": 0.0}, \"acceleration\": {\"ax\": -0.2272424399852753, \"ay\": 0.0, \"az\": 0.0}, \"orientation\": {\"yaw\": 0.0, \"pitch\": 0.0, \"roll\": 0.0}, \"sensor\": \"fusion\", \"extras\": {}, \"record_hash\": \"08e8a89c7103a80507445e909a75becf55a85d0849d3f33facf0d7991f730cc0\", \"anomaly_flag\": -1}}", "sha3": "a5a77be96872998f515c0e58b65b99dedd247e9dcca805af272291518f335af4f5f77444e742963f2af561bcbd789080b99d3db1555b4e944dc5aba0279f5768"}
{"data": "{\"timestamp\": 1756834648.0124, \"event\": {\"timestamp_ns\": 1756834647965884928, \"agent_id\": \"gonca\", \"domain\": \"drone\", \"source_format\": \"json\", \"position\": {\"x\": 2463987.5833792104, \"y\": -10411324.838418834, \"z\": 0.0}, \"velocity\": {\"vx\": 1171.1815944558723, \"vy\": 0.0, \"vz\": 0.0}, \"acceleration\": {\"ax\": -0.2072495222091674, \"ay\": 0.0, \"az\": 0.0}, \"orientation\": {\"yaw\": 0.0, \"pitch\": 0.0, \"roll\": 0.0}, \"sensor\": \"fusion\", \"extras\": {}, \"record_hash\": \"ec4716322bd3a930c0395de3eac6fff5fb0d515706af93012fa1c564508dc954\", \"anomaly_flag\": -1}}", "sha3": "8ef09d5906a720b9390cc85ffecd26db1adab5e3693362a8fd7d10749ac940cbfb8b15a84e1919aa0043537cb3f8d05f1ffe6f7ead26086f3442394ed7e86093"}
{"data": "{\"timestamp\": 1756834648.080171, \"event\": {\"timestamp_ns\": 1756834648033768960, \"agent_id\": \"gonca\", \"domain\": \"drone\", \"source_format\": \"json\", \"position\": {\"x\": 2464104.6990760546, \"y\": -10411965.60437326, \"z\": 0.0}, \"velocity\": {\"vx\": 1171.1569684422357, \"vy\": 0.0, \"vz\": 0.0}, \"acceleration\": {\"ax\": -0.2462601363658905, \"ay\": 0.0, \"az\": 0.0}, \"orientation\": {\"yaw\": 0.0, \"pitch\": 0.0, \"roll\": 0.0}, \"sensor\": \"fusion\", \"extras\": {}, \"record_hash\": \"f7bebf04ef2c9d73094883acc7e800b35bd6d4151551ddabc7811eec6913c0a1\", \"anomaly_flag\": -1}}", "sha3": "7bf04a6e3767b1336e81fe9d24796d2912f5614bb789da753f141f5d3d2b98ab141670d99059e5f6ca3ba86ee3844a429997c91d26bb19fc7585b1bfacaefffa"}
{"data": "{\"timestamp\": 1756834648.1401346, \"event\": {\"timestamp_ns\": 1756834648103584000, \"agent_id\": \"gonca\", \"domain\": \"drone\", \"source_format\": \"json\", \"position\": {\"x\": 2464221.8126906846, \"y\": -10412606.370727642, \"z\": 0.0}, \"velocity\": {\"vx\": 1171.136146298681, \"vy\": 0.0, \"vz\": 0.0}, \"acceleration\": {\"ax\": -0.208221435546875, \"ay\": 0.0, \"az\": 0.0}, \"orientation\": {\"yaw\": 0.0, \"pitch\": 0.0, \"roll\": 0.0}, \"sensor\": \"fusion\", \"extras\": {}, \"record_hash\": \"a3df5422a46a15730ae01c3bb9d31778619b36e472fca489116fb83e5db12780\", \"anomaly_flag\": -1}}", "sha3": "65d17d5b8e9163df6a73bd45312daa26e91c7f8d22ad92aea21a9734b4ecbed338d53930db6abb2bbf623bfa1cac1ecaa8344c253a5cb19a040aaa07730cd3cf"}
{"data": "{\"timestamp\": 1756834648.199528, \"event\": {\"timestamp_ns\": 1756834648161395968, \"agent_id\": \"gonca\", \"domain\": \"drone\", \"source_format\": \"json\", \"position\": {\"x\": 2464338.924223067, \"y\": -10413247.137481978, \"z\": 0.0}, \"velocity\": {\"vx\": 1171.1153238243205, \"vy\": 0.0, \"vz\": 0.0}, \"acceleration\": {\"ax\": -0.20822474360466, \"ay\": 0.0, \"az\": 0.0}, \"orientation\": {\"yaw\": 0.0, \"pitch\": 0.0, \"roll\": 0.0}, \"sensor\": \"fusion\", \"extras\": {}, \"record_hash\": \"3bd16b0c8261debfe552d7cca8e53dc6fe7c9ceab4a91e443b8fa187b1655df8\", \"anomaly_flag\": -1}}", "sha3": "aa52201db87271b59666191e5d16d6ef20c545ae58af7b6b86e7300555fc1e9f73a15c688da0e8558fd9fdd464d190de678c356a2d8ac8d070d78a9e9b0b798b"}
{"data": "{\"timestamp\": 1756834648.2653103, \"event\": {\"timestamp_ns\": 1756834648220864000, \"agent_id\": \"gonca\", \"domain\": \"drone\", \"source_format\": \"json\", \"position\": {\"x\": 2464456.0338829164, \"y\": -10413887.904241249, \"z\": 0.0}, \"velocity\": {\"vx\": 1171.0965984976633, \"vy\": 0.0, \"vz\": 0.0}, \"acceleration\": {\"ax\": -0.1872532665729522, \"ay\": 0.0, \"az\": 0.0}, \"orientation\": {\"yaw\": 0.0, \"pitch\": 0.0, \"roll\": 0.0}, \"sensor\": \"fusion\", \"extras\": {}, \"record_hash\": \"dd5a2f9f28342ca288001d87146e65a328c116a81ff7825f7839c38baa71aa32\", \"anomaly_flag\": -1}}", "sha3": "71aeaac655aba2ed220f33770bab1888cdd8a54eb6ca55e6a5985b118e3310041abfe28ff6a86b8d240bc7eccae0b555a9591d699d89435bd33ffdcd961e9b1a"}
{"data": "{\"timestamp\": 1756834648.330945, \"event\": {\"timestamp_ns\": 1756834648286631168, \"agent_id\": \"gonca\", \"domain\": \"drone\", \"source_format\": \"json\", \"position\": {\"x\": 2464573.141089851, \"y\": -10414528.67019111, \"z\": 0.0}, \"velocity\": {\"vx\": 1171.0720693460448, \"vy\": 0.0, \"vz\": 0.0}, \"acceleration\": {\"ax\": -0.2452915161848068, \"ay\": 0.0, \"az\": 0.0}, \"orientation\": {\"yaw\": 0.0, \"pitch\": 0.0, \"roll\": 0.0}, \"sensor\": \"fusion\", \"extras\": {}, \"record_hash\": \"5c9a81a21fb96873a2b430684852a4dfbb90e27fbbb4a83c5ecb09ba6c79298d\", \"anomaly_flag\": -1}}", "sha3": "2d9cb0924bf07a78f8f34e4eb3947561d48c13e08c83d3fa28424da2864b06353e02211de518793105e3bc067caa70d3222e434e99391fb7d6f3094c897588e8"}
{"data": "{\"timestamp\": 1756834648.3981025, \"event\": {\"timestamp_ns\": 1756834648352633088, \"agent_id\": \"gonca\", \"domain\": \"drone\", \"source_format\": \"json\", \"position\": {\"x\": 2464690.24622429, \"y\": -10415169.436141044, \"z\": 0.0}, \"velocity\": {\"vx\": 1171.051344393824, \"vy\": 0.0, \"vz\": 0.0}, \"acceleration\": {\"ax\": -0.2072495222091674, \"ay\": 0.0, \"az\": 0.0}, \"orientation\": {\"yaw\": 0.0, \"pitch\": 0.0, \"roll\": 0.0}, \"sensor\": \"fusion\", \"extras\": {}, \"record_hash\": \"0d273bf025492fe614ae98d33c6ea1e7146b429fe19c8e339c44ac221d90b34a\", \"anomaly_flag\": -1}}", "sha3": "99ebfbcdf6cb95a66799d0720824583cdb62c73eeb5618baf923ae46a40949bbbc65bccdf4ea71aba624682e7d93df19df6b2677cf70de35e03e5280ee4acc02"}
{"data": "{\"timestamp\": 1756834648.465093, \"event\": {\"timestamp_ns\": 1756834648419537920, \"agent_id\": \"gonca\", \"domain\": \"drone\", \"source_format\": \"json\", \"position\": {\"x\": 2464807.3496666215, \"y\": -10415810.202900536, \"z\": 0.0}, \"velocity\": {\"vx\": 1171.034423313175, \"vy\": 0.0, \"vz\": 0.0}, \"acceleration\": {\"ax\": -0.1692108064889907, \"ay\": 0.0, \"az\": 0.0}, \"orientation\": {\"yaw\": 0.0, \"pitch\": 0.0, \"roll\": 0.0}, \"sensor\": \"fusion\", \"extras\": {}, \"record_hash\": \"5d06b8fc68f24f9875a1d84ff0147da44ecd4e23ea27fbdcf1dd41e37af012d7\", \"anomaly_flag\": -1}}", "sha3": "479704aee992c17496cc3987c577f41bb8da7898c1d98a1af1e1e0b4033b25fe32f1c783d15245c491c42639072582911e808b30a880fe146a2383aa84f11121"}
{"data": "{\"timestamp\": 1756834648.534837, \"event\": {\"timestamp_ns\": 1756834648486195968, \"agent_id\": \"gonca\", \"domain\": \"drone\", \"source_format\": \"json\", \"position\": {\"x\": 2464924.4508559667, \"y\": -10416450.968855478, \"z\": 0.0}, \"velocity\": {\"vx\": 1171.011893453334, \"vy\": 0.0, \"vz\": 0.0}, \"acceleration\": {\"ax\": -0.225298598408699, \"ay\": 0.0, \"az\": 0.0}, \"orientation\": {\"yaw\": 0.0, \"pitch\": 0.0, \"roll\": 0.0}, \"sensor\": \"fusion\", \"extras\": {}, \"record_hash\": \"a96d02dd7b1e2363a8b59b5022a482a941d221f797b172aef6a4ea6af7d80620\", \"anomaly_flag\": -1}}", "sha3": "fd6c981a68377f952691ca89553c16ff605ab1cdac90f2e905655d973e442bf26d55eb0ad02fe96d01461fc7e528b9bd0a89422dea773fdde2f84bbf624f9d3b"}
{"data": "{\"timestamp\": 1756834648.5977325, \"event\": {\"timestamp_ns\": 1756834648556126208, \"agent_id\": \"gonca\", \"domain\": \"drone\", \"source_format\": \"json\", \"position\": {\"x\": 2465041.549982503, \"y\": -10417091.734410612, \"z\": 0.0}, \"velocity\": {\"vx\": 1170.9912653646213, \"vy\": 0.0, \"vz\": 0.0}, \"acceleration\": {\"ax\": -0.2062808871269226, \"ay\": 0.0, \"az\": 0.0}, \"orientation\": {\"yaw\": 0.0, \"pitch\": 0.0, \"roll\": 0.0}, \"sensor\": \"fusion\", \"extras\": {}, \"record_hash\": \"2d1a83e2339f45a7fa5ce63c63275cf49147b241960d7eac019fd18a47c969c0\", \"anomaly_flag\": -1}}", "sha3": "7e0b872199a0fddcaba46d5044476f79ffa14cb4db7955641099b4f38f634b4cc993d8cbd2e9c5d61b91eebe510486a3915bfb55cafcd2f31c8cfa5174be143b"}
{"data": "{\"timestamp\": 1756834648.6659958, \"event\": {\"timestamp_ns\": 1756834648619038208, \"agent_id\": \"gonca\", \"domain\": \"drone\", \"source_format\": \"json\", \"position\": {\"x\": 2465158.6470462307, \"y\": -10417732.499565938, \"z\": 0.0}, \"velocity\": {\"vx\": 1170.9706372759085, \"vy\": 0.0, \"vz\": 0.0}, \"acceleration\": {\"ax\": -0.2062808871269226, \"ay\": 0.0, \"az\": 0.0}, \"orientation\": {\"yaw\": 0.0, \"pitch\": 0.0, \"roll\": 0.0}, \"sensor\": \"fusion\", \"extras\": {}, \"record_hash\": \"8cbb0cac5877e0986ff6f2995a31bb22e1cb6a4fd911cf9bb2db93c38c105f1c\", \"anomaly_flag\": -1}}", "sha3": "e7675706dcde5c557a86fc8d23517c9f622d93885f3583b5b99ef499de938c30eea13dae6c0112dff7402c1f8e1e677e74253895041a70c013edce0122d26eb1"}
{"data": "{\"timestamp\": 1756834648.7254844, \"event\": {\"timestamp_ns\": 1756834648687223040, \"agent_id\": \"gonca\", \"domain\": \"drone\", \"source_format\": \"json\", \"position\": {\"x\": 2465275.742037463, \"y\": -10418373.264721338, \"z\": 0.0}, \"velocity\": {\"vx\": 1170.9499123236876, \"vy\": 0.0, \"vz\": 0.0}, \"acceleration\": {\"ax\": -0.2072495222091674, \"ay\": 0.0, \"az\": 0.0}, \"orientation\": {\"yaw\": 0.0, \"pitch\": 0.0, \"roll\": 0.0}, \"sensor\": \"fusion\", \"extras\": {}, \"record_hash\": \"ac70a9210c3ea3d44d8cc2048f45aec3fd8da2b5aa76d7fa34f5d08643b5a5d1\", \"anomaly_flag\": -1}}", "sha3": "b8d26608f8a833f0d3ff8e270f8ee2fc67e7524fe8a34f85c67960c3e8d6c723a0e65b02a62ed4141b560fcdc838a68f305d462b84dd2064f7f9e533c7ad1161"}
{"data": "{\"timestamp\": 1756834648.7898674, \"event\": {\"timestamp_ns\": 1756834648746409984, \"agent_id\": \"gonca\", \"domain\": \"drone\", \"source_format\": \"json\", \"position\": {\"x\": 2465392.8349658865, \"y\": -10419014.02947693, \"z\": 0.0}, \"velocity\": {\"vx\": 1170.9292842349748, \"vy\": 0.0, \"vz\": 0.0}, \"acceleration\": {\"ax\": -0.2062808871269226, \"ay\": 0.0, \"az\": 0.0}, \"orientation\": {\"yaw\": 0.0, \"pitch\": 0.0, \"roll\": 0.0}, \"sensor\": \"fusion\", \"extras\": {}, \"record_hash\": \"149e4f5f2323dc1752c63172e9f5f10431a423af2570df16854a11304292a0fa\", \"anomaly_flag\": -1}}", "sha3": "818a5a180546475f692b3b1b77185c32edbd78893c36482aff14d294a64d506d564bcce28f32b97d5bd3be1553ffe1040d5cc2865d08bbf707737ddd10ba0264"}
{"data": "{\"timestamp\": 1756834648.853385, \"event\": {\"timestamp_ns\": 1756834648810852096, \"agent_id\": \"gonca\", \"domain\": \"drone\", \"source_format\": \"json\", \"position\": {\"x\": 2465509.925431709, \"y\": -10419654.79382299, \"z\": 0.0}, \"velocity\": {\"vx\": 1170.9046582213382, \"vy\": 0.0, \"vz\": 0.0}, \"acceleration\": {\"ax\": -0.2462601363658905, \"ay\": 0.0, \"az\": 0.0}, \"orientation\": {\"yaw\": 0.0, \"pitch\": 0.0, \"roll\": 0.0}, \"sensor\": \"fusion\", \"extras\": {}, \"record_hash\": \"9daf1e9566c657209006f54da99f75842bf2b0090e29325ad8a4c7ac8ad5bcb5\", \"anomaly_flag\": -1}}", "sha3": "6face0a7997d45aa9b8f3672a144f12d668a87a43e9f89ed06b9de9d0c0c296a5866587ce7d7a56eee9d5a38c3f130aa5d3cd35088173a79c86f1a1396bd1469"}
{"data": "{\"timestamp\": 1756834648.9205308, \"event\": {\"timestamp_ns\": 1756834648874587136, \"agent_id\": \"gonca\", \"domain\": \"drone\", \"source_format\": \"json\", \"position\": {\"x\": 2465627.014215175, \"y\": -10420295.55857873, \"z\": 0.0}, \"velocity\": {\"vx\": 1170.887834664319, \"vy\": 0.0, \"vz\": 0.0}, \"acceleration\": {\"ax\": -0.168235570192337, \"ay\": 0.0, \"az\": 0.0}, \"orientation\": {\"yaw\": 0.0, \"pitch\": 0.0, \"roll\": 0.0}, \"sensor\": \"fusion\", \"extras\": {}, \"record_hash\": \"0c9f5decaed83656cbbd817f4be021046a7395f22338486fa906e3d95b9b96d0\", \"anomaly_flag\": -1}}", "sha3": "afd2618ddde72f252a6962c14c6d750896e25302a1cc85daafa300503b7f77deaf3384ed3990dc70883e5019a3e75512ce513e482d47ee7fe90a7a8699d16b67"}
{"data": "{\"timestamp\": 1756834649.0006547, \"event\": {\"timestamp_ns\": 1756834648941840896, \"agent_id\": \"gonca\", \"domain\": \"drone\", \"source_format\": \"json\", \"position\": {\"x\": 2465744.1009358657, \"y\": -10420936.322934661, \"z\": 0.0}, \"velocity\": {\"vx\": 1170.867206906412, \"vy\": 0.0, \"vz\": 0.0}, \"acceleration\": {\"ax\": -0.2062775790691376, \"ay\": 0.0, \"az\": 0.0}, \"orientation\": {\"yaw\": 0.0, \"pitch\": 0.0, \"roll\": 0.0}, \"sensor\": \"fusion\", \"extras\": {}, \"record_hash\": \"baacb4e8aa4b0d8ad6e469eb6281271798c8fbd6d8e3b8372232378efb75cec0\", \"anomaly_flag\": -1}}", "sha3": "1d43235f338263fbafbd183717a76ae8e3bedddbfb27d86fe94a6bfdeb02bf90be29fe2562a71e958dd41c3736d66c34ba6de156f77b3a296ded811ab3cc8b01"}
{"data": "{\"timestamp\": 1756834649.0580752, \"event\": {\"timestamp_ns\": 1756834649022132992, \"agent_id\": \"gonca\", \"domain\": \"drone\", \"source_format\": \"json\", \"position\": {\"x\": 2465861.1861418984, \"y\": -10421577.088105002, \"z\": 0.0}, \"velocity\": {\"vx\": 1170.8520603275638, \"vy\": 0.0, \"vz\": 0.0}, \"acceleration\": {\"ax\": -0.1514657884836197, \"ay\": 0.0, \"az\": 0.0}, \"orientation\": {\"yaw\": 0.0, \"pitch\": 0.0, \"roll\": 0.0}, \"sensor\": \"fusion\", \"extras\": {}, \"record_hash\": \"43a91e2d40db00b77757d721ec9eba34609303ce5904e9f8ec8f59401b9987b1\", \"anomaly_flag\": -1}}", "sha3": "7ec763c8bd94fcdbbfb375366a3e0acdaabaf38780a6de83f238050929739d7ab2f5c3fd43c1e66eaef68b4656ae04ae6736adbb07644c30fa31ad233e624c62"}
{"data": "{\"timestamp\": 1756834649.1205337, \"event\": {\"timestamp_ns\": 1756834649079046912, \"agent_id\": \"gonca\", \"domain\": \"drone\", \"source_format\": \"json\", \"position\": {\"x\": 2465978.268505224, \"y\": -10422217.852056315, \"z\": 0.0}, \"velocity\": {\"vx\": 1170.8236332542042, \"vy\": 0.0, \"vz\": 0.0}, \"acceleration\": {\"ax\": -0.2842707335948944, \"ay\": 0.0, \"az\": 0.0}, \"orientation\": {\"yaw\": 0.0, \"pitch\": 0.0, \"roll\": 0.0}, \"sensor\": \"fusion\", \"extras\": {}, \"record_hash\": \"672e1def9500fcecd5b3320638c4cb1ac5952fcfac556dad8a58369449237a7f\", \"anomaly_flag\": -1}}", "sha3": "3d24c88e18c8b65a2b0505b2658b8449bb4d8cb8584b528d9bff7b389b40c71cbc4316cd21d5e4e4cdbabefbed404cb3e5b9cd1c9aefbb654f08e4452b2faac9"}
{"data": "{\"timestamp\": 1756834649.1883037, \"event\": {\"timestamp_ns\": 1756834649141839104, \"agent_id\": \"gonca\", \"domain\": \"drone\", \"source_format\": \"json\", \"position\": {\"x\": 2466095.3491839604, \"y\": -10422858.616017405, \"z\": 0.0}, \"velocity\": {\"vx\": 1170.8067873633245, \"vy\": 0.0, \"vz\": 0.0}, \"acceleration\": {\"ax\": -0.1684589087963104, \"ay\": 0.0, \"az\": 0.0}, \"orientation\": {\"yaw\": 0.0, \"pitch\": 0.0, \"roll\": 0.0}, \"sensor\": \"fusion\", \"extras\": {}, \"record_hash\": \"cc8c5f54a82eb7b87854b99c561878a21161747e2c8667863378cffb36454c04\", \"anomaly_flag\": -1}}", "sha3": "2773545823322968f782b1d20d177514e507c0c5b4532d06b5c8ca255f7304b624900665645d2eb7a0be3db2d3f1d329085886efe8957624ccf8b99c87c2394d"}
{"data": "{\"timestamp\": 1756834649.2461908, \"event\": {\"timestamp_ns\": 1756834649209358848, \"agent_id\": \"gonca\", \"domain\": \"drone\", \"source_format\": \"json\", \"position\": {\"x\": 2466212.427385345, \"y\": -10423499.379568946, \"z\": 0.0}, \"velocity\": {\"vx\": 1170.7820138460734, \"vy\": 0.0, \"vz\": 0.0}, \"acceleration\": {\"ax\": -0.2477351725101471, \"ay\": 0.0, \"az\": 0.0}, \"orientation\": {\"yaw\": 0.0, \"pitch\": 0.0, \"roll\": 0.0}, \"sensor\": \"fusion\", \"extras\": {}, \"record_hash\": \"6699131f23d0882b11c704439df245d8a5721c93afa30e60302a0df86ea09142\", \"anomaly_flag\": -1}}", "sha3": "695f1d9c62f76f4be8f399ef9f159d33ea10f71686fb9e1c6bb3fa554329cb8b51f0bc580d030b501b91d7116c1d318e545e6f09e646fa2c2388838700278673"}
{"data": "{\"timestamp\": 1756834649.3074064, \"event\": {\"timestamp_ns\": 1756834649267427840, \"agent_id\": \"gonca\", \"domain\": \"drone\", \"source_format\": \"json\", \"position\": {\"x\": 2466329.504116697, \"y\": -10424140.143534996, \"z\": 0.0}, \"velocity\": {\"vx\": 1170.7673135167697, \"vy\": 0.0, \"vz\": 0.0}, \"acceleration\": {\"ax\": -0.1470032930374145, \"ay\": 0.0, \"az\": 0.0}, \"orientation\": {\"yaw\": 0.0, \"pitch\": 0.0, \"roll\": 0.0}, \"sensor\": \"fusion\", \"extras\": {}, \"record_hash\": \"e01b1d9b9dfe8180a0a6b6984c86134a93dc3794cab913bd6dc6a292c592c18c\", \"anomaly_flag\": -1}}", "sha3": "92037fd80b49269999e5eed4add8cc022f4c5fa6828b6b4805cb6a177d2d8088304f24c1c0954506f1a0e294e38ef7263b57e66d8a100c1274b4477d576394f0"}
{"data": "{\"timestamp\": 1756834649.37108, \"event\": {\"timestamp_ns\": 1756834649328544000, \"agent_id\": \"gonca\", \"domain\": \"drone\", \"source_format\": \"json\", \"position\": {\"x\": 2466446.5790004, \"y\": -10424780.906706175, \"z\": 0.0}, \"velocity\": {\"vx\": 1170.7488370305637, \"vy\": 0.0, \"vz\": 0.0}, \"acceleration\": {\"ax\": -0.1847648620605468, \"ay\": 0.0, \"az\": 0.0}, \"orientation\": {\"yaw\": 0.0, \"pitch\": 0.0, \"roll\": 0.0}, \"sensor\": \"fusion\", \"extras\": {}, \"record_hash\": \"89e16a1a8edab6c783d3c1e6a080268835d7cc21f096acaaa9a876be71e8c49b\", \"anomaly_flag\": -1}}", "sha3": "1f10cc2484a78d4ea8e5d5e97e43a6247070336c9920ce0fc46c120ea522e4e81585dcb4d4ddc0d7934c69481b08470af7dfa1267948897c5a1408b0b719feee"}
{"data": "{\"timestamp\": 1756834649.4302623, \"event\": {\"timestamp_ns\": 1756834649392088064, \"agent_id\": \"gonca\", \"domain\": \"drone\", \"source_format\": \"json\", \"position\": {\"x\": 2466563.651416131, \"y\": -10425421.670267547, \"z\": 0.0}, \"velocity\": {\"vx\": 1170.724157310162, \"vy\": 0.0, \"vz\": 0.0}, \"acceleration\": {\"ax\": -0.2467972040176392, \"ay\": 0.0, \"az\": 0.0}, \"orientation\": {\"yaw\": 0.0, \"pitch\": 0.0, \"roll\": 0.0}, \"sensor\": \"fusion\", \"extras\": {}, \"record_hash\": \"c9c5b5a58fcf3c4a93365156f8477f294c0ab4820f707229ddbfd2cceca15412\", \"anomaly_flag\": -1}}", "sha3": "5c40d51ef070949d5354146d7a4219c6fb974d2f086479b3856cf646c1ba4783a2effd7cb8219e6b448a56c474d02e3b9a0fcd96e35cea5ff3be69eccd49c872"}
{"data": "{\"timestamp\": 1756834649.4992542, \"event\": {\"timestamp_ns\": 1756834649451773952, \"agent_id\": \"gonca\", \"domain\": \"drone\", \"source_format\": \"json\", \"position\": {\"x\": 2466680.7219582004, \"y\": -10426062.433833806, \"z\": 0.0}, \"velocity\": {\"vx\": 1170.7054206943849, \"vy\": 0.0, \"vz\": 0.0}, \"acceleration\": {\"ax\": -0.1873661577701569, \"ay\": 0.0, \"az\": 0.0}, \"orientation\": {\"yaw\": 0.0, \"pitch\": 0.0, \"roll\": 0.0}, \"sensor\": \"fusion\", \"extras\": {}, \"record_hash\": \"19b3e1d3cb290b39269cc5251ef979e228d3bfdaca7469a2c59871a1c6463175\", \"anomaly_flag\": -1}}", "sha3": "58f883139e469d14ccb683e03a8c9c69c43839f78c3ab54e742a96c9c32fd9f6f726a7d9a4bd57413f1cc90f7f999597645053adc31c05c5a32faca41062cd74"}
{"data": "{\"timestamp\": 1756834649.555773, \"event\": {\"timestamp_ns\": 1756834649520442112, \"agent_id\": \"gonca\", \"domain\": \"drone\", \"source_format\": \"json\", \"position\": {\"x\": 2466797.790439055, \"y\": -10426703.197400086, \"z\": 0.0}, \"velocity\": {\"vx\": 1170.6848085439542, \"vy\": 0.0, \"vz\": 0.0}, \"acceleration\": {\"ax\": -0.2061215043067932, \"ay\": 0.0, \"az\": 0.0}, \"orientation\": {\"yaw\": 0.0, \"pitch\": 0.0, \"roll\": 0.0}, \"sensor\": \"fusion\", \"extras\": {}, \"record_hash\": \"9a776a3fc9689e76dfa0dff788b6f230ce9cb7f0dfb5ab746c5684cb3d275b79\", \"anomaly_flag\": -1}}", "sha3": "59bfb765374ba7c562754ed66402dcac307d349950fcdbe2137cfa3c6cb418905f93490000be399ef1be746f9ce8918b467513b0a52f8aea48c9c95547a92840"}
{"data": "{\"timestamp\": 1756834649.6213925, \"event\": {\"timestamp_ns\": 1756834649577573120, \"agent_id\": \"gonca\", \"domain\": \"drone\", \"source_format\": \"json\", \"position\": {\"x\": 2466914.8572407532, \"y\": -10427343.961775871, \"z\": 0.0}, \"velocity\": {\"vx\": 1170.6680169856886, \"vy\": 0.0, \"vz\": 0.0}, \"acceleration\": {\"ax\": -0.1679155826568603, \"ay\": 0.0, \"az\": 0.0}, \"orientation\": {\"yaw\": 0.0, \"pitch\": 0.0, \"roll\": 0.0}, \"sensor\": \"fusion\", \"extras\": {}, \"record_hash\": \"16d675f1105be11f7a24bd969ea20c67787b0480adb18a26e331ef76dfaa6653\", \"anomaly_flag\": -1}}", "sha3": "38f7ade5e9a9d44a4330d7d8aaa39c4b36f311d5fe6aec1d2522dae6d9a7fe78e04960e9a32410b581e8cbcf6b98a884945da14f69fe417fb97c3c7aaf11468a"}
{"data": "{\"timestamp\": 1756834649.683022, \"event\": {\"timestamp_ns\": 1756834649643892992, \"agent_id\": \"gonca\", \"domain\": \"drone\", \"source_format\": \"json\", \"position\": {\"x\": 2467031.9219775083, \"y\": -10427984.726151673, \"z\": 0.0}, \"velocity\": {\"vx\": 1170.6473675525526, \"vy\": 0.0, \"vz\": 0.0}, \"acceleration\": {\"ax\": -0.2064943313598632, \"ay\": 0.0, \"az\": 0.0}, \"orientation\": {\"yaw\": 0.0, \"pitch\": 0.0, \"roll\": 0.0}, \"sensor\": \"fusion\", \"extras\": {}, \"record_hash\": \"9f3137d0f0dc8e53e964941f66f4a48f1d8aae9da1c0ac128a9bea7f6a2c026c\", \"anomaly_flag\": -1}}", "sha3": "5c78ae231f40dc8f870ff047295c4c7905a6c8b8bbb3ddd1eb016ceb06107cffd8ac16559ae039658caeb5ea825b4ca2676f741d2f54d6736033e7b5cc7e4e90"}
{"data": "{\"timestamp\": 1756834649.7460525, \"event\": {\"timestamp_ns\": 1756834649704404224, \"agent_id\": \"gonca\", \"domain\": \"drone\", \"source_format\": \"json\", \"position\": {\"x\": 2467148.984835057, \"y\": -10428625.491332116, \"z\": 0.0}, \"velocity\": {\"vx\": 1170.6285754865746, \"vy\": 0.0, \"vz\": 0.0}, \"acceleration\": {\"ax\": -0.1879206597805023, \"ay\": 0.0, \"az\": 0.0}, \"orientation\": {\"yaw\": 0.0, \"pitch\": 0.0, \"roll\": 0.0}, \"sensor\": \"fusion\", \"extras\": {}, \"record_hash\": \"c77fe2cc1746f34a7e643e6244c84fe73616fb6a2b7c9e7305f9f3b8d034f1c2\", \"anomaly_flag\": -1}}", "sha3": "2230148cddd013763f37ea8cbd6f64aa54dcd9050d7c669b06cebca3acf9c8948192fb0e8f34dea49924249cf723545ac6225b4df6c19ceb1bde866028a0ba54"}
{"data": "{\"timestamp\": 1756834649.8114557, \"event\": {\"timestamp_ns\": 1756834649766951936, \"agent_id\": \"gonca\", \"domain\": \"drone\", \"source_format\": \"json\", \"position\": {\"x\": 2467266.045620595, \"y\": -10429266.256912453, \"z\": 0.0}, \"velocity\": {\"vx\": 1170.6078553817015, \"vy\": 0.0, \"vz\": 0.0}, \"acceleration\": {\"ax\": -0.2072010487318039, \"ay\": 0.0, \"az\": 0.0}, \"orientation\": {\"yaw\": 0.0, \"pitch\": 0.0, \"roll\": 0.0}, \"sensor\": \"fusion\", \"extras\": {}, \"record_hash\": \"ca90a3c2d67251c37b0dde829a5876471b534f13ab290a7532132c798598f28c\", \"anomaly_flag\": -1}}", "sha3": "00adaf42527e0c86ae434ffa5b9bf1f762ec32aef952498555fe9ca3280cba13c7dba31ff8d5bfd06aa45361f9c60d209bd5ac954f4650295a0838be2e8f4b52"}
{"data": "{\"timestamp\": 1756834649.8692396, \"event\": {\"timestamp_ns\": 1756834649832408832, \"agent_id\": \"gonca\", \"domain\": \"drone\", \"source_format\": \"json\", \"position\": {\"x\": 2467383.1045600288, \"y\": -10429907.022097781, \"z\": 0.0}, \"velocity\": {\"vx\": 1170.5893943375688, \"vy\": 0.0, \"vz\": 0.0}, \"acceleration\": {\"ax\": -0.184610441327095, \"ay\": 0.0, \"az\": 0.0}, \"orientation\": {\"yaw\": 0.0, \"pitch\": 0.0, \"roll\": 0.0}, \"sensor\": \"fusion\", \"extras\": {}, \"record_hash\": \"dffccb8c0b2a0f00229dea4f6f559036ddb8c67eb9235f5d02ff3e6dfa4d2821\", \"anomaly_flag\": -1}}", "sha3": "364280cb67e2c6e51d5308ae70d7cea3e8aad2660443f24e151f765cf7e7c6b82b9961298796039d38ab308959e9fb9d7b06b7085e90d81840fce7a00eb5817a"}
{"data": "{\"timestamp\": 1756834649.9313269, \"event\": {\"timestamp_ns\": 1756834649890054912, \"agent_id\": \"gonca\", \"domain\": \"drone\", \"source_format\": \"json\", \"position\": {\"x\": 2467500.161445511, \"y\": -10430547.787283126, \"z\": 0.0}, \"velocity\": {\"vx\": 1170.5688548228484, \"vy\": 0.0, \"vz\": 0.0}, \"acceleration\": {\"ax\": -0.2053951472043991, \"ay\": 0.0, \"az\": 0.0}, \"orientation\": {\"yaw\": 0.0, \"pitch\": 0.0, \"roll\": 0.0}, \"sensor\": \"fusion\", \"extras\": {}, \"record_hash\": \"e8fcf09f8a0c3b35a8f91b5b9dac720db64f69365267bd236c288f8ae6dd619f\", \"anomaly_flag\": -1}}", "sha3": "a5ecc5eee869f05602567c9ff7afd6e371a48fcead5bdc2802da351334f4e5036804be308f033ac8c5f197cb1172dd6f0b3dec6c3a6b0c3888b990f2dfe6d5a2"}
{"data": "{\"timestamp\": 1756834649.9926574, \"event\": {\"timestamp_ns\": 1756834649952930048, \"agent_id\": \"gonca\", \"domain\": \"drone\", \"source_format\": \"json\", \"position\": {\"x\": 2467617.216284356, \"y\": -10431188.552468486, \"z\": 0.0}, \"velocity\": {\"vx\": 1170.5483884504777, \"vy\": 0.0, \"vz\": 0.0}, \"acceleration\": {\"ax\": -0.2046637237071991, \"ay\": 0.0, \"az\": 0.0}, \"orientation\": {\"yaw\": 0.0, \"pitch\": 0.0, \"roll\": 0.0}, \"sensor\": \"fusion\", \"extras\": {}, \"record_hash\": \"cd1a40c011bff7f6201c3fded58ced4f75f97983221ea3cd60e95d2d2f5c6cc6\", \"anomaly_flag\": -1}}", "sha3": "6ab07742dee649d73b6ff673f8417e0d324b5f583f8b289c80535e1a252f5088301637bb7578c856eb682231e784d81d3f0d508348a2561b1001e2232a625ae8"}
{"data": "{\"timestamp\": 1756834650.0518332, \"event\": {\"timestamp_ns\": 1756834650014009856, \"agent_id\": \"gonca\", \"domain\": \"drone\", \"source_format\": \"json\", \"position\": {\"x\": 2467734.268868932, \"y\": -10431829.316849234, \"z\": 0.0}, \"velocity\": {\"vx\": 1170.525845760737, \"vy\": 0.0, \"vz\": 0.0}, \"acceleration\": {\"ax\": -0.2254268974065781, \"ay\": 0.0, \"az\": 0.0}, \"orientation\": {\"yaw\": 0.0, \"pitch\": 0.0, \"roll\": 0.0}, \"sensor\": \"fusion\", \"extras\": {}, \"record_hash\": \"445351c0da95bd1b19855a2228bf8971443a36bc6e2b4685e5e6746c4689c7a8\", \"anomaly_flag\": -1}}", "sha3": "cf22a1fa1e6664ed63fd6f38d027230c85e577728a1be125565cd3c7013bf506efb198318ccaa36b0aae0d0a3a6a609c4b5c222a1f4c900efa2e4d7d9eb3ce04"}
{"data": "{\"timestamp\": 1756834650.1177258, \"event\": {\"timestamp_ns\": 1756834650072995840, \"agent_id\": \"gonca\", \"domain\": \"drone\", \"source_format\": \"json\", \"position\": {\"x\": 2467851.3190220697, \"y\": -10432470.080420509, \"z\": 0.0}, \"velocity\": {\"vx\": 1170.5015313780646, \"vy\": 0.0, \"vz\": 0.0}, \"acceleration\": {\"ax\": -0.2431438267230987, \"ay\": 0.0, \"az\": 0.0}, \"orientation\": {\"yaw\": 0.0, \"pitch\": 0.0, \"roll\": 0.0}, \"sensor\": \"fusion\", \"extras\": {}, \"record_hash\": \"842480202ed635f913109e26a1ad68563ab95b0919f3b56ef6a2c99a5feee271\", \"anomaly_flag\": -1}}", "sha3": "0555529fa390f889906ba85ffee3a213941e2f7fd42123be912669feb0d276754b50d9bc643d03da960f05f88ba0ce33806800f13f22cb0cb36ebab2fe606b3a"}
{"data": "{\"timestamp\": 1756834650.185855, \"event\": {\"timestamp_ns\": 1756834650139180032, \"agent_id\": \"gonca\", \"domain\": \"drone\", \"source_format\": \"json\", \"position\": {\"x\": 2467968.3671405166, \"y\": -10433110.843192026, \"z\": 0.0}, \"velocity\": {\"vx\": 1170.4811844712833, \"vy\": 0.0, \"vz\": 0.0}, \"acceleration\": {\"ax\": -0.2034690678119659, \"ay\": 0.0, \"az\": 0.0}, \"orientation\": {\"yaw\": 0.0, \"pitch\": 0.0, \"roll\": 0.0}, \"sensor\": \"fusion\", \"extras\": {}, \"record_hash\": \"b42b9325f464a3cbddbc4718d0c4cdaa6c90d990cd2fafe1b59f330eca69146a\", \"anomaly_flag\": -1}}", "sha3": "065e06271725920e56cc0f847e41980170802eedcd90aa34970869b30154ec876420ca2f4e2d42fbffd7a67f6b5d72498d1e5c04040d512d78f69c5d3d2de34a"}
{"data": "{\"timestamp\": 1756834650.2514038, \"event\": {\"timestamp_ns\": 1756834650207209216, \"agent_id\": \"gonca\", \"domain\": \"drone\", \"source_format\": \"json\", \"position\": {\"x\": 2468085.413184705, \"y\": -10433751.606363425, \"z\": 0.0}, \"velocity\": {\"vx\": 1170.4604418835381, \"vy\": 0.0, \"vz\": 0.0}, \"acceleration\": {\"ax\": -0.2074258774518966, \"ay\": 0.0, \"az\": 0.0}, \"orientation\": {\"yaw\": 0.0, \"pitch\": 0.0, \"roll\": 0.0}, \"sensor\": \"fusion\", \"extras\": {}, \"record_hash\": \"931dcda5905d3ac7dcb86f3f621a7b8392c2b88977288fab2ce67a46b14df033\", \"anomaly_flag\": -1}}", "sha3": "80cf3e0ca9e08207ac0f80a0c3656edc9712bf988aa776ace19c2cebcab7579484239b7d4badfc492661d2a402dd1b597956d63a230ab038ae2d805d9558140d"}
{"data": "{\"timestamp\": 1756834650.3202593, \"event\": {\"timestamp_ns\": 1756834650272716032, \"agent_id\": \"gonca\", \"domain\": \"drone\", \"source_format\": \"json\", \"position\": {\"x\": 2468202.457160122, \"y\": -10434392.369934706, \"z\": 0.0}, \"velocity\": {\"vx\": 1170.4397541722992, \"vy\": 0.0, \"vz\": 0.0}, \"acceleration\": {\"ax\": -0.2068771123886108, \"ay\": 0.0, \"az\": 0.0}, \"orientation\": {\"yaw\": 0.0, \"pitch\": 0.0, \"roll\": 0.0}, \"sensor\": \"fusion\", \"extras\": {}, \"record_hash\": \"8bdc5f17001d33dbec9d68fe392c1962991b69e7df3fc14e94a681881a1a7954\", \"anomaly_flag\": -1}}", "sha3": "926e67216e9bbfa72873a01882dc9f9b2d8ec0472e9bc5a576653cc3e231d614afc7146c4bc6c122ab58ea074b6c0687c2e67ee7649ad1945c2b97263da91cb3"}
{"data": "{\"timestamp\": 1756834650.380414, \"event\": {\"timestamp_ns\": 1756834650341547008, \"agent_id\": \"gonca\", \"domain\": \"drone\", \"source_format\": \"json\", \"position\": {\"x\": 2468319.499472147, \"y\": -10435033.133915588, \"z\": 0.0}, \"velocity\": {\"vx\": 1170.4231202474573, \"vy\": 0.0, \"vz\": 0.0}, \"acceleration\": {\"ax\": -0.1663392484188079, \"ay\": 0.0, \"az\": 0.0}, \"orientation\": {\"yaw\": 0.0, \"pitch\": 0.0, \"roll\": 0.0}, \"sensor\": \"fusion\", \"extras\": {}, \"record_hash\": \"962cdd38b510854eb0ec2064e990585ab7e9496984b206c8301bea5890e2a0be\", \"anomaly_flag\": -1}}", "sha3": "348ff31e01ac9e2ce6ad789c9670328511ffec9fc7872efecbbcdf2cf72fe63d4245aeaeed5d9474222edb596b7fcd00c5d49710dabeb2e03e40f28bf7923ced"}
{"data": "{\"timestamp\": 1756834650.4424474, \"event\": {\"timestamp_ns\": 1756834650402353920, \"agent_id\": \"gonca\", \"domain\": \"drone\", \"source_format\": \"json\", \"position\": {\"x\": 2468436.5393260038, \"y\": -10435673.897886751, \"z\": 0.0}, \"velocity\": {\"vx\": 1170.3985385707358, \"vy\": 0.0, \"vz\": 0.0}, \"acceleration\": {\"ax\": -0.2458167672157288, \"ay\": 0.0, \"az\": 0.0}, \"orientation\": {\"yaw\": 0.0, \"pitch\": 0.0, \"roll\": 0.0}, \"sensor\": \"fusion\", \"extras\": {}, \"record_hash\": \"b9f0a52d9ef61d618aff7ce65df6806acdb86adae49637bc7042e81b56f4d139\", \"anomaly_flag\": -1}}", "sha3": "b6ca926b9fd2af80d795fe17b4e6acaafb987da6c4a07264a633c24531d9fd90669e0ebea35d8bd00d0340b4d820df7112c0ab0e2cd301b034afb9b973f3de21"}
{"data": "{\"timestamp\": 1756834650.5068426, \"event\": {\"timestamp_ns\": 1756834650463994880, \"agent_id\": \"gonca\", \"domain\": \"drone\", \"source_format\": \"json\", \"position\": {\"x\": 2468553.5767399617, \"y\": -10436314.66104843, \"z\": 0.0}, \"velocity\": {\"vx\": 1170.3741395807604, \"vy\": 0.0, \"vz\": 0.0}, \"acceleration\": {\"ax\": -0.2439898997545242, \"ay\": 0.0, \"az\": 0.0}, \"orientation\": {\"yaw\": 0.0, \"pitch\": 0.0, \"roll\": 0.0}, \"sensor\": \"fusion\", \"extras\": {}, \"record_hash\": \"320d0fcb063caab682037aef64b35ae5003bf9a304359449fa9ec933559b543b\", \"anomaly_flag\": -1}}", "sha3": "aa1552fe70f1c93900029fdcfb85c7c55a976f76d62538a253a1bae7356b20414674e9240f92b0739c99ebb7daf14467c317c05e60a4f8f56635fef5038dc5f9"}
{"data": "{\"timestamp\": 1756834650.5649807, \"event\": {\"timestamp_ns\": 1756834650528019968, \"agent_id\": \"gonca\", \"domain\": \"drone\", \"source_format\": \"json\", \"position\": {\"x\": 2468670.612092242, \"y\": -10436955.424609989, \"z\": 0.0}, \"velocity\": {\"vx\": 1170.353522802029, \"vy\": 0.0, \"vz\": 0.0}, \"acceleration\": {\"ax\": -0.2061677873134613, \"ay\": 0.0, \"az\": 0.0}, \"orientation\": {\"yaw\": 0.0, \"pitch\": 0.0, \"roll\": 0.0}, \"sensor\": \"fusion\", \"extras\": {}, \"record_hash\": \"938656b7f64041115b7cdbac12743a2812be70a6605c747d8fed83b6d6e770f9\", \"anomaly_flag\": -1}}", "sha3": "f8ddf163010aa2e483bc440da3ceecd56bdd60c7fff73b1da31bc4cf858a9b67136ea4324d5c21a64f98543477ee103377514b52a5cad5a83813744f4678bb3e"}
{"data": "{\"timestamp\": 1756834650.6268158, \"event\": {\"timestamp_ns\": 1756834650586246912, \"agent_id\": \"gonca\", \"domain\": \"drone\", \"source_format\": \"json\", \"position\": {\"x\": 2468787.6455665124, \"y\": -10437596.188976172, \"z\": 0.0}, \"velocity\": {\"vx\": 1170.3347427046635, \"vy\": 0.0, \"vz\": 0.0}, \"acceleration\": {\"ax\": -0.1878009736537933, \"ay\": 0.0, \"az\": 0.0}, \"orientation\": {\"yaw\": 0.0, \"pitch\": 0.0, \"roll\": 0.0}, \"sensor\": \"fusion\", \"extras\": {}, \"record_hash\": \"124244e0f09ce8a2f86e4e08d55e9dfb0045f3cd35fb78991857464bc32af77e\", \"anomaly_flag\": -1}}", "sha3": "6e637ef480733db9da9d58ba24aa3eb9c3c45988dae1eaf92817c2e75a868156f986a8ab9c7e0f09a9150acb4e27a8cbd4e3f98abfca2c5d93114e4835e0ee03"}
{"data": "{\"timestamp\": 1756834650.6909602, \"event\": {\"timestamp_ns\": 1756834650647921920, \"agent_id\": \"gonca\", \"domain\": \"drone\", \"source_format\": \"json\", \"position\": {\"x\": 2468904.676800352, \"y\": -10438236.952937614, \"z\": 0.0}, \"velocity\": {\"vx\": 1170.3123383975365, \"vy\": 0.0, \"vz\": 0.0}, \"acceleration\": {\"ax\": -0.2240430712699889, \"ay\": 0.0, \"az\": 0.0}, \"orientation\": {\"yaw\": 0.0, \"pitch\": 0.0, \"roll\": 0.0}, \"sensor\": \"fusion\", \"extras\": {}, \"record_hash\": \"2337c86f7257c2748842ee04586a007c2b8d9b024a99c57f53d9bd5f240d1fec\", \"anomaly_flag\": -1}}", "sha3": "d73f24b7573b5c1344ae47cf9edb0be26e05c0093ac8ddb201915e2876c807baefb29b0515b63ade6206d10f7ddf542cae71d65d7eb423786a1fbfb489ff598a"}
