{"data": "{\"timestamp\": 1756835831.89925, \"event\": {\"timestamp_ns\": 1756835831850508032, \"agent_id\": \"mehdi\", \"domain\": \"drone\", \"source_format\": \"json\", \"position\": {\"x\": 4409819.043590193, \"y\": -20526925.69727377, \"z\": 0.0}, \"velocity\": {\"vx\": 1763.6749314950741, \"vy\": 0.0, \"vz\": 0.0}, \"acceleration\": {\"ax\": -0.2454396784305572, \"ay\": 0.0, \"az\": 0.0}, \"orientation\": {\"yaw\": 0.0, \"pitch\": 0.0, \"roll\": 0.0}, \"sensor\": \"fusion\", \"extras\": {}, \"record_hash\": \"1c7d0b514e07bea229c83b133c61367f47a2c339fe9f70c421bbd6969d36aa6d\", \"anomaly_flag\": -1}}", "sha3": "4d90bb7c2fc76956319aec41112665172910a8502b652dc916f74069a6bf7780b653c8c21c11e0352333ea05ebd6efff2e1dde9db31f05850fa10dd920e19f73"}
{"data": "{\"timestamp\": 1756835831.963149, \"event\": {\"timestamp_ns\": 1756835831920926208, \"agent_id\": \"mehdi\", \"domain\": \"drone\", \"source_format\": \"json\", \"position\": {\"x\": 4409995.409389719, \"y\": -20527864.648625385, \"z\": 0.0}, \"velocity\": {\"vx\": 1763.6579952659047, \"vy\": 0.0, \"vz\": 0.0}, \"acceleration\": {\"ax\": -0.1693622916936874, \"ay\": 0.0, \"az\": 0.0}, \"orientation\": {\"yaw\": 0.0, \"pitch\": 0.0, \"roll\": 0.0}, \"sensor\": \"fusion\", \"extras\": {}, \"record_hash\": \"368ff1ec87f455c3f2206e3035acf745ca483109820cb16c2f28cb0caeb4069b\", \"anomaly_flag\": -1}}", "sha3": "9956028d63ac58126145f1b7ea784b517aaffa080a453dd195d5f3d07813738178a35b6b08866850beb379cd186366321b26b4f23a602316c18ecb91efdbba49"}
{"data": "{\"timestamp\": 1756835832.0347059, \"event\": {\"timestamp_ns\": 1756835831984327936, \"agent_id\": \"mehdi\", \"domain\": \"drone\", \"source_format\": \"json\", \"position\": {\"x\": 4410171.772905621, \"y\": -20528803.600372072, \"z\": 0.0}, \"velocity\": {\"vx\": 1763.6351590128577, \"vy\": 0.0, \"vz\": 0.0}, \"acceleration\": {\"ax\": -0.2283625304698944, \"ay\": 0.0, \"az\": 0.0}, \"orientation\": {\"yaw\": 0.0, \"pitch\": 0.0, \"roll\": 0.0}, \"sensor\": \"fusion\", \"extras\": {}, \"record_hash\": \"ca0e7146106a8bab425dc05033f5b8b26f6d3dbe94b31f304a4049c4d4e284c2\", \"anomaly_flag\": -1}}", "sha3": "eb8a4ffcbabdd50b8a6f5d5784210d0ff2295f71f67c48af5030a7da84edf4b32826270dd87993840342f3ca78035c909e91c2dff56e593938753201c3a4b332"}
{"data": "{\"timestamp\": 1756835832.094483, \"event\": {\"timestamp_ns\": 1756835832055831040, \"agent_id\": \"mehdi\", \"domain\": \"drone\", \"source_format\": \"json\", \"position\": {\"x\": 4410348.134137897, \"y\": -20529742.552513834, \"z\": 0.0}, \"velocity\": {\"vx\": 1763.6123227598107, \"vy\": 0.0, \"vz\": 0.0}, \"acceleration\": {\"ax\": -0.2283625304698944, \"ay\": 0.0, \"az\": 0.0}, \"orientation\": {\"yaw\": 0.0, \"pitch\": 0.0, \"roll\": 0.0}, \"sensor\": \"fusion\", \"extras\": {}, \"record_hash\": \"f7940f69cb36d57691330bb1804ecc5279367df6a1b71132db725760684e17fe\", \"anomaly_flag\": -1}}", "sha3": "d0849ec9da4d58c6839b566929f4d18ca2166a18c4fba2bbf32605611d8144b7b97990cd67a2a217774bdcd76442e6e517ecd97fae86e489d623cb6fe979e2da"}
{"data": "{\"timestamp\": 1756835832.1601775, \"event\": {\"timestamp_ns\": 1756835832115889920, \"agent_id\": \"mehdi\", \"domain\": \"drone\", \"source_format\": \"json\", \"position\": {\"x\": 4410524.493105986, \"y\": -20530681.504250906, \"z\": 0.0}, \"velocity\": {\"vx\": 1763.5896808924115, \"vy\": 0.0, \"vz\": 0.0}, \"acceleration\": {\"ax\": -0.2264186739921569, \"ay\": 0.0, \"az\": 0.0}, \"orientation\": {\"yaw\": 0.0, \"pitch\": 0.0, \"roll\": 0.0}, \"sensor\": \"fusion\", \"extras\": {}, \"record_hash\": \"8026d747494e263e908fe1a9658ddbb010b1b4bc30eaf5ac6607fcf34f82449b\", \"anomaly_flag\": -1}}", "sha3": "77aa8a266f9975be011679c6c4a88f3842047b11752a0eb11ea72e5dc3ae7cb6a9a3647584ab7901fde4a080819f3724f063d904522660e47b41424e25e51cae"}
{"data": "{\"timestamp\": 1756835832.243079, \"event\": {\"timestamp_ns\": 1756835832181451008, \"agent_id\": \"mehdi\", \"domain\": \"drone\", \"source_format\": \"json\", \"position\": {\"x\": 4410700.85018054, \"y\": -20531620.456792653, \"z\": 0.0}, \"velocity\": {\"vx\": 1763.5707455368674, \"vy\": 0.0, \"vz\": 0.0}, \"acceleration\": {\"ax\": -0.1893535554409027, \"ay\": 0.0, \"az\": 0.0}, \"orientation\": {\"yaw\": 0.0, \"pitch\": 0.0, \"roll\": 0.0}, \"sensor\": \"fusion\", \"extras\": {}, \"record_hash\": \"9414ce611e1b090a087c8d64e223b4652a3673a4a24797a05364248edc0e1804\", \"anomaly_flag\": -1}}", "sha3": "f38c0c5503882864e23c71861a1ec554b356a56891c8a3a5752ff6459d421a7e95793b5ad7bd0a4bfc88e9228c737a2985efed2bddce15a5c9e4630049737da8"}
{"data": "{\"timestamp\": 1756835832.3037715, \"event\": {\"timestamp_ns\": 1756835832264285184, \"agent_id\": \"mehdi\", \"domain\": \"drone\", \"source_format\": \"json\", \"position\": {\"x\": 4410877.2055517845, \"y\": -20532559.410543818, \"z\": 0.0}, \"velocity\": {\"vx\": 1763.55371244568, \"vy\": 0.0, \"vz\": 0.0}, \"acceleration\": {\"ax\": -0.1703309118747711, \"ay\": 0.0, \"az\": 0.0}, \"orientation\": {\"yaw\": 0.0, \"pitch\": 0.0, \"roll\": 0.0}, \"sensor\": \"fusion\", \"extras\": {}, \"record_hash\": \"9ee7d55d9d1210b432c4b77329f4884bc63fa50fad80f39a88e158bdfa2ff82b\", \"anomaly_flag\": -1}}", "sha3": "bb4e9c6be9d0f4c912d013699835900377f1734d964e678c680e6169d1bb54bb16de5dbf74ff05cafe986179b5113f95865fd5e11dc791587ddd32845ed35112"}
{"data": "{\"timestamp\": 1756835832.3797276, \"event\": {\"timestamp_ns\": 1756835832328494080, \"agent_id\": \"mehdi\", \"domain\": \"drone\", \"source_format\": \"json\", \"position\": {\"x\": 4411053.558868425, \"y\": -20533498.36349527, \"z\": 0.0}, \"velocity\": {\"vx\": 1763.5331664027608, \"vy\": 0.0, \"vz\": 0.0}, \"acceleration\": {\"ax\": -0.2054604291915893, \"ay\": 0.0, \"az\": 0.0}, \"orientation\": {\"yaw\": 0.0, \"pitch\": 0.0, \"roll\": 0.0}, \"sensor\": \"fusion\", \"extras\": {}, \"record_hash\": \"f727bccebc41ff1bc1e34ceea729869f9ed9483a02862437d0757a8c103810a5\", \"anomaly_flag\": -1}}", "sha3": "2cde11cd796544c06d7e0faa5902664f71081f9506f723249118bb5917598d06baed64ada5d855046dc3e0a99a6fd45daa3e9e13295c23b68bd2cdd99fefcbaa"}
{"data": "{\"timestamp\": 1756835832.4570744, \"event\": {\"timestamp_ns\": 1756835832401096960, \"agent_id\": \"mehdi\", \"domain\": \"drone\", \"source_format\": \"json\", \"position\": {\"x\": 4411229.909730668, \"y\": -20534437.315637294, \"z\": 0.0}, \"velocity\": {\"vx\": 1763.5086224349177, \"vy\": 0.0, \"vz\": 0.0}, \"acceleration\": {\"ax\": -0.2454396784305572, \"ay\": 0.0, \"az\": 0.0}, \"orientation\": {\"yaw\": 0.0, \"pitch\": 0.0, \"roll\": 0.0}, \"sensor\": \"fusion\", \"extras\": {}, \"record_hash\": \"f6143ff3cf91ecb461ede851272a9af95f75cdcdc6415b4d5acac50a69923891\", \"anomaly_flag\": -1}}", "sha3": "691ef5654dc1ae53c4d51c448ed09e42e77022dc85f63076374120bcc3c1a09f420c4a5df155a75ca54aab5814915db6aa37a4abfe383a50cddb643c837112d6"}
{"data": "{\"timestamp\": 1756835832.5340073, \"event\": {\"timestamp_ns\": 1756835832478476032, \"agent_id\": \"mehdi\", \"domain\": \"drone\", \"source_format\": \"json\", \"position\": {\"x\": 4411406.258338411, \"y\": -20535376.266974743, \"z\": 0.0}, \"velocity\": {\"vx\": 1763.4860774295366, \"vy\": 0.0, \"vz\": 0.0}, \"acceleration\": {\"ax\": -0.2254500538110733, \"ay\": 0.0, \"az\": 0.0}, \"orientation\": {\"yaw\": 0.0, \"pitch\": 0.0, \"roll\": 0.0}, \"sensor\": \"fusion\", \"extras\": {}, \"record_hash\": \"6d5fe6b8b24fbeef8397097cdba3b45e91a4cbfe35fb920f5429afd87fdc6e36\", \"anomaly_flag\": -1}}", "sha3": "2dc1d0cf848777b24a260ca2f8252a629eb3d7ffa7f00e62997d1bc1efdac0d9e23c0039c54fc061b3f617d9579dc8c9d271ee38b7a275768065c9161bf6f455"}
{"data": "{\"timestamp\": 1756835832.5968688, \"event\": {\"timestamp_ns\": 1756835832555351040, \"agent_id\": \"mehdi\", \"domain\": \"drone\", \"source_format\": \"json\", \"position\": {\"x\": 4411582.604872128, \"y\": -20536315.218312245, \"z\": 0.0}, \"velocity\": {\"vx\": 1763.4653371648824, \"vy\": 0.0, \"vz\": 0.0}, \"acceleration\": {\"ax\": -0.2074026465415954, \"ay\": 0.0, \"az\": 0.0}, \"orientation\": {\"yaw\": 0.0, \"pitch\": 0.0, \"roll\": 0.0}, \"sensor\": \"fusion\", \"extras\": {}, \"record_hash\": \"7c97934730447bc28f738c9c38c90c497bd115a701fd78829ea67f249a017e5b\", \"anomaly_flag\": -1}}", "sha3": "4945b5fa0751577fec7607f1f57dac103a131a7fcdb51144789c3f50c257c54b8dc891ce4bea44d1068df21c869b065b3abf49614be3aec21f435a0d1723b687"}
{"data": "{\"timestamp\": 1756835832.660399, \"event\": {\"timestamp_ns\": 1756835832618832128, \"agent_id\": \"mehdi\", \"domain\": \"drone\", \"source_format\": \"json\", \"position\": {\"x\": 4411758.948932009, \"y\": -20537254.169640075, \"z\": 0.0}, \"velocity\": {\"vx\": 1763.4405988113915, \"vy\": 0.0, \"vz\": 0.0}, \"acceleration\": {\"ax\": -0.2473835349082947, \"ay\": 0.0, \"az\": 0.0}, \"orientation\": {\"yaw\": 0.0, \"pitch\": 0.0, \"roll\": 0.0}, \"sensor\": \"fusion\", \"extras\": {}, \"record_hash\": \"932ef57f3bfe6f96dccb502960d67017a9640b8fcae53654ec2cc96f4caf9203\", \"anomaly_flag\": -1}}", "sha3": "ac09e5ee281e9460073f981e8030e61586c11faebdba14700d5bd96bfae79cc942bc440ffa28bf3bdce8774052f7ee312ec65cdc657dd8c647a44c2a7a5cbbb9"}
{"data": "{\"timestamp\": 1756835832.7297993, \"event\": {\"timestamp_ns\": 1756835832681639936, \"agent_id\": \"mehdi\", \"domain\": \"drone\", \"source_format\": \"json\", \"position\": {\"x\": 4411935.291108106, \"y\": -20538193.1213727, \"z\": 0.0}, \"velocity\": {\"vx\": 1763.4217609779869, \"vy\": 0.0, \"vz\": 0.0}, \"acceleration\": {\"ax\": -0.1883783340454101, \"ay\": 0.0, \"az\": 0.0}, \"orientation\": {\"yaw\": 0.0, \"pitch\": 0.0, \"roll\": 0.0}, \"sensor\": \"fusion\", \"extras\": {}, \"record_hash\": \"efe57b12ba6ddd93bb41e8948a38187fd9dcfbf59e687234123e079b62a286b8\", \"anomaly_flag\": -1}}", "sha3": "55ad43c924eadbf6571de4646cf707774bdc09a38ec059262dd65121c26105125e6f1b7f7507c5c1250c6f5bf6bad3a6eb1c82d70a0e71b824ce05deecd351b3"}
{"data": "{\"timestamp\": 1756835832.7969859, \"event\": {\"timestamp_ns\": 1756835832750819840, \"agent_id\": \"mehdi\", \"domain\": \"drone\", \"source_format\": \"json\", \"position\": {\"x\": 4412111.631200508, \"y\": -20539132.07350526, \"z\": 0.0}, \"velocity\": {\"vx\": 1763.4009240182077, \"vy\": 0.0, \"vz\": 0.0}, \"acceleration\": {\"ax\": -0.2083695977926254, \"ay\": 0.0, \"az\": 0.0}, \"orientation\": {\"yaw\": 0.0, \"pitch\": 0.0, \"roll\": 0.0}, \"sensor\": \"fusion\", \"extras\": {}, \"record_hash\": \"6be93f2effd25bf29a13e269f7580415ba4dbb8c95448705dc3c32e70a417cd4\", \"anomaly_flag\": -1}}", "sha3": "428439663330f96619de60fcccb685a5d21206c791bbf371b536a5893f41775585d60efccc44e00da32fb233825571a27b6e22d87cdabccc98bca91f39169224"}
{"data": "{\"timestamp\": 1756835832.916611, \"event\": {\"timestamp_ns\": 1756835832821149184, \"agent_id\": \"mehdi\", \"domain\": \"drone\", \"source_format\": \"json\", \"position\": {\"x\": 4412287.969218916, \"y\": -20540071.025637873, \"z\": 0.0}, \"velocity\": {\"vx\": 1763.3801840843594, \"vy\": 0.0, \"vz\": 0.0}, \"acceleration\": {\"ax\": -0.2073993384838104, \"ay\": 0.0, \"az\": 0.0}, \"orientation\": {\"yaw\": 0.0, \"pitch\": 0.0, \"roll\": 0.0}, \"sensor\": \"fusion\", \"extras\": {}, \"record_hash\": \"06712149fca6ab3a0934e959b77171ba80b20acf25c43bc19291d6af90035292\", \"anomaly_flag\": -1}}", "sha3": "7ae32892f5fab5d3bc125cd966190bfd12f60a33c6181ab80d433ed76b7648f2a67042a29d56b678793154eb86721e0793ebbc37c3da99b8a253931e97d385bc"}
{"data": "{\"timestamp\": 1756835832.9959092, \"event\": {\"timestamp_ns\": 1756835832937763840, \"agent_id\": \"mehdi\", \"domain\": \"drone\", \"source_format\": \"json\", \"position\": {\"x\": 4412464.304973121, \"y\": -20541009.97736579, \"z\": 0.0}, \"velocity\": {\"vx\": 1763.3575420500672, \"vy\": 0.0, \"vz\": 0.0}, \"acceleration\": {\"ax\": -0.2264203429222107, \"ay\": 0.0, \"az\": 0.0}, \"orientation\": {\"yaw\": 0.0, \"pitch\": 0.0, \"roll\": 0.0}, \"sensor\": \"fusion\", \"extras\": {}, \"record_hash\": \"6a6acf84642d27d9c77195f3f9627478c617350a014c9575318f3e0760fd18c4\", \"anomaly_flag\": -1}}", "sha3": "628d7f0d353f05cc3ea833c62028cb66cc9304ed82398e303416f01d736b32d42e491ad4743415686fd2452214023dfeba3cdbf4604e9326165c6ba444483362"}
{"data": "{\"timestamp\": 1756835833.0737689, \"event\": {\"timestamp_ns\": 1756835833017095168, \"agent_id\": \"mehdi\", \"domain\": \"drone\", \"source_format\": \"json\", \"position\": {\"x\": 4412640.638653316, \"y\": -20541948.929093763, \"z\": 0.0}, \"velocity\": {\"vx\": 1763.3368019523061, \"vy\": 0.0, \"vz\": 0.0}, \"acceleration\": {\"ax\": -0.2074009776115417, \"ay\": 0.0, \"az\": 0.0}, \"orientation\": {\"yaw\": 0.0, \"pitch\": 0.0, \"roll\": 0.0}, \"sensor\": \"fusion\", \"extras\": {}, \"record_hash\": \"84fd692820c3991635873c62062727b04a26645999e49a57539dc951f1f5662e\", \"anomaly_flag\": -1}}", "sha3": "d2cb2cec460ef4e6b0654b44904f27fbe67dc52fb37fb0c51d83607202da38f68b14e8766a69fb0388d1f6e3aa40793406a60bad60abf60fe46762da641e6144"}
{"data": "{\"timestamp\": 1756835833.135383, \"event\": {\"timestamp_ns\": 1756835833094834944, \"agent_id\": \"mehdi\", \"domain\": \"drone\", \"source_format\": \"json\", \"position\": {\"x\": 4412816.969869395, \"y\": -20542887.880412184, \"z\": 0.0}, \"velocity\": {\"vx\": 1763.3121607901492, \"vy\": 0.0, \"vz\": 0.0}, \"acceleration\": {\"ax\": -0.2464116215705872, \"ay\": 0.0, \"az\": 0.0}, \"orientation\": {\"yaw\": 0.0, \"pitch\": 0.0, \"roll\": 0.0}, \"sensor\": \"fusion\", \"extras\": {}, \"record_hash\": \"d14dcfe05923e2f3c37acd2463bff757fa2e39910a0d89ce4c43abf539b10619\", \"anomaly_flag\": -1}}", "sha3": "404d24f116fb189ac0e1c34b6283eed51bce926d41999057006b0de9c3c3318c379987a85fd09a740f97cfdd3f23cfc52d84debc36055f6da07f5fd56729bb0a"}
{"data": "{\"timestamp\": 1756835833.20123, \"event\": {\"timestamp_ns\": 1756835833156645120, \"agent_id\": \"mehdi\", \"domain\": \"drone\", \"source_format\": \"json\", \"position\": {\"x\": 4412993.299201657, \"y\": -20543826.832135398, \"z\": 0.0}, \"velocity\": {\"vx\": 1763.2933226259388, \"vy\": 0.0, \"vz\": 0.0}, \"acceleration\": {\"ax\": -0.1883816421031952, \"ay\": 0.0, \"az\": 0.0}, \"orientation\": {\"yaw\": 0.0, \"pitch\": 0.0, \"roll\": 0.0}, \"sensor\": \"fusion\", \"extras\": {}, \"record_hash\": \"29d9ab4cd7d105b4fced5506ed4a9fa324e23f5e2935d9affe67c79a6f5d181b\", \"anomaly_flag\": -1}}", "sha3": "31c186957276af0c3e90a54fcdfebc114ccab3087dd2e0506ce4cf4a3b3798df6eb381684d0c0c13485725bde641e637bd471e25ed3e118d57735acdd1d16c99"}
{"data": "{\"timestamp\": 1756835833.2622259, \"event\": {\"timestamp_ns\": 1756835833222752000, \"agent_id\": \"mehdi\", \"domain\": \"drone\", \"source_format\": \"json\", \"position\": {\"x\": 4413169.627040193, \"y\": -20544765.784673013, \"z\": 0.0}, \"velocity\": {\"vx\": 1763.2783853592314, \"vy\": 0.0, \"vz\": 0.0}, \"acceleration\": {\"ax\": -0.1493726670742035, \"ay\": 0.0, \"az\": 0.0}, \"orientation\": {\"yaw\": 0.0, \"pitch\": 0.0, \"roll\": 0.0}, \"sensor\": \"fusion\", \"extras\": {}, \"record_hash\": \"a5ec7910facb000372bec211f0dfa8ce79702584a7422b0ddc2d9a14916969fc\", \"anomaly_flag\": -1}}", "sha3": "40efdf460813c8e1e906ce512e0550b8cf85804826d737bcc4352f1b01018c013300c566d2f2c5437c838e9e90d91c84f97cd5adad270751bc63a24e41a4936f"}
{"data": "{\"timestamp\": 1756835833.3233008, \"event\": {\"timestamp_ns\": 1756835833283542016, \"agent_id\": \"mehdi\", \"domain\": \"drone\", \"source_format\": \"json\", \"position\": {\"x\": 4413345.953175387, \"y\": -20545704.738420047, \"z\": 0.0}, \"velocity\": {\"vx\": 1763.261351937238, \"vy\": 0.0, \"vz\": 0.0}, \"acceleration\": {\"ax\": -0.1703342199325561, \"ay\": 0.0, \"az\": 0.0}, \"orientation\": {\"yaw\": 0.0, \"pitch\": 0.0, \"roll\": 0.0}, \"sensor\": \"fusion\", \"extras\": {}, \"record_hash\": \"f40a9a873fa3f8872f1ab10a420625d632bd06b4c23eb92d3e1b273d618cc635\", \"anomaly_flag\": -1}}", "sha3": "22e260811e0838f64edd6b3afc0f15a5cdf533c71616edf374d39e5e1b915749b86c6f4f2ba1cd3b11ce55a49672e565f3e361b74437e35628ccfa8e9471b771"}
{"data": "{\"timestamp\": 1756835833.3904123, \"event\": {\"timestamp_ns\": 1756835833345554176, \"agent_id\": \"mehdi\", \"domain\": \"drone\", \"source_format\": \"json\", \"position\": {\"x\": 4413522.277659091, \"y\": -20546643.692176867, \"z\": 0.0}, \"velocity\": {\"vx\": 1763.2448370369113, \"vy\": 0.0, \"vz\": 0.0}, \"acceleration\": {\"ax\": -0.1651490032672882, \"ay\": 0.0, \"az\": 0.0}, \"orientation\": {\"yaw\": 0.0, \"pitch\": 0.0, \"roll\": 0.0}, \"sensor\": \"fusion\", \"extras\": {}, \"record_hash\": \"37e3c1db94ba5ad6a78d86a5935386ed1e69897458bf83582d96ec277f24c385\", \"anomaly_flag\": -1}}", "sha3": "9e30c754cbd2a751595c634c279a4e48e334d69065622bbe70601f1696f4d75809b43a40632954e6eef017878398e5e6ba50370b65590cb6353ae5d657d8f324"}
{"data": "{\"timestamp\": 1756835833.452297, \"event\": {\"timestamp_ns\": 1756835833411577856, \"agent_id\": \"mehdi\", \"domain\": \"drone\", \"source_format\": \"json\", \"position\": {\"x\": 4413698.599683345, \"y\": -20547582.645524155, \"z\": 0.0}, \"velocity\": {\"vx\": 1763.2202425422108, \"vy\": 0.0, \"vz\": 0.0}, \"acceleration\": {\"ax\": -0.2459449470043182, \"ay\": 0.0, \"az\": 0.0}, \"orientation\": {\"yaw\": 0.0, \"pitch\": 0.0, \"roll\": 0.0}, \"sensor\": \"fusion\", \"extras\": {}, \"record_hash\": \"ae142f9998096d8e2dd15c83ba82c1067973a8685733a21effc00d56abcebdbb\", \"anomaly_flag\": -1}}", "sha3": "a53f6566955fa5e199f8dfb312aaf78bac778cb3531b6a9a8572fccf1a4eb3ced8da01b2fe03872d8cc64c9c8456cd94ac5f8c77f9242f1f5c76c2cbb58de543"}
{"data": "{\"timestamp\": 1756835833.5169392, \"event\": {\"timestamp_ns\": 1756835833474198016, \"agent_id\": \"mehdi\", \"domain\": \"drone\", \"source_format\": \"json\", \"position\": {\"x\": 4413874.919435023, \"y\": -20548521.59806689, \"z\": 0.0}, \"velocity\": {\"vx\": 1763.1975167842543, \"vy\": 0.0, \"vz\": 0.0}, \"acceleration\": {\"ax\": -0.2272575795650482, \"ay\": 0.0, \"az\": 0.0}, \"orientation\": {\"yaw\": 0.0, \"pitch\": 0.0, \"roll\": 0.0}, \"sensor\": \"fusion\", \"extras\": {}, \"record_hash\": \"87d424f60e4eeca403dbb3120d1e6e68d73e23c9ff4f0de55b56e2d24e3510ab\", \"anomaly_flag\": -1}}", "sha3": "67407f21138fc681c66713e983afa0dea8eb2617f277c604ec2c10dce5e189eca049bd16c6de52b64dde107d42e91ed5c1939e7a115a30867d753e6ffaa2513c"}
{"data": "{\"timestamp\": 1756835833.591329, \"event\": {\"timestamp_ns\": 1756835833540165888, \"agent_id\": \"mehdi\", \"domain\": \"drone\", \"source_format\": \"json\", \"position\": {\"x\": 4414051.236915197, \"y\": -20549460.55020495, \"z\": 0.0}, \"velocity\": {\"vx\": 1763.1748017402326, \"vy\": 0.0, \"vz\": 0.0}, \"acceleration\": {\"ax\": -0.2271504402160644, \"ay\": 0.0, \"az\": 0.0}, \"orientation\": {\"yaw\": 0.0, \"pitch\": 0.0, \"roll\": 0.0}, \"sensor\": \"fusion\", \"extras\": {}, \"record_hash\": \"088a424907d0da3e347e93d3ba05f090ee814abe92ca639af92594c50a62d54c\", \"anomaly_flag\": -1}}", "sha3": "ca43e0f696f125afbc022413efa040f7ae09f2a1c8fec180a1000749f32c2c85f3ca62dab76b11801ebdf6ba7f74302af06e913c52c394f2436235d2142ad314"}
{"data": "{\"timestamp\": 1756835833.6483238, \"event\": {\"timestamp_ns\": 1756835833612381952, \"agent_id\": \"mehdi\", \"domain\": \"drone\", \"source_format\": \"json\", \"position\": {\"x\": 4414227.552895788, \"y\": -20550399.50315743, \"z\": 0.0}, \"velocity\": {\"vx\": 1763.1598059104715, \"vy\": 0.0, \"vz\": 0.0}, \"acceleration\": {\"ax\": -0.1499582976102829, \"ay\": 0.0, \"az\": 0.0}, \"orientation\": {\"yaw\": 0.0, \"pitch\": 0.0, \"roll\": 0.0}, \"sensor\": \"fusion\", \"extras\": {}, \"record_hash\": \"4f4dc0856d2d6a18f36614497ec4a4779e86d6688f7bdfe08daf3214b5d40ea1\", \"anomaly_flag\": -1}}", "sha3": "4b3dba7a61f8624777e186d1391c06b18c7cb6ed7d614b137af878fcd9bda07139b0606f0f13ddf8df1b0d5d4e094a96276bb6e902e060745ecbd9458c798cfd"}
{"data": "{\"timestamp\": 1756835833.7091122, \"event\": {\"timestamp_ns\": 1756835833669179904, \"agent_id\": \"mehdi\", \"domain\": \"drone\", \"source_format\": \"json\", \"position\": {\"x\": 4414403.866989452, \"y\": -20551338.456914596, \"z\": 0.0}, \"velocity\": {\"vx\": 1763.1409366445575, \"vy\": 0.0, \"vz\": 0.0}, \"acceleration\": {\"ax\": -0.1886926591396332, \"ay\": 0.0, \"az\": 0.0}, \"orientation\": {\"yaw\": 0.0, \"pitch\": 0.0, \"roll\": 0.0}, \"sensor\": \"fusion\", \"extras\": {}, \"record_hash\": \"01c048979ac9506f10911e1f9134c4b0e308976fe19eb505b09456c109468a99\", \"anomaly_flag\": -1}}", "sha3": "fda90a6bcd8b458bfd02667ff7b24170803f676060eecb4ad3bfc1521a3762b90a296a8fd097f51ad96888411aad6de6f85c862fe62205db9f6ac4f287d369cc"}
{"data": "{\"timestamp\": 1756835833.768644, \"event\": {\"timestamp_ns\": 1756835833730561024, \"agent_id\": \"mehdi\", \"domain\": \"drone\", \"source_format\": \"json\", \"position\": {\"x\": 4414580.179390645, \"y\": -20552277.411481313, \"z\": 0.0}, \"velocity\": {\"vx\": 1763.1240119190845, \"vy\": 0.0, \"vz\": 0.0}, \"acceleration\": {\"ax\": -0.1692472547292709, \"ay\": 0.0, \"az\": 0.0}, \"orientation\": {\"yaw\": 0.0, \"pitch\": 0.0, \"roll\": 0.0}, \"sensor\": \"fusion\", \"extras\": {}, \"record_hash\": \"e0cf04833ce57472e4297cfdac3e8d16faeef3a9bb17098a4fccac41cbe4761d\", \"anomaly_flag\": -1}}", "sha3": "13e549d243e7c658e366dbbc0169b4bc0a312908e1f05cd82fe0089266c7e8b7558b1d5587ce4e4096154cb819f1ee59ed61841e5d2f9170aa46a52febb2e357"}
{"data": "{\"timestamp\": 1756835833.833431, \"event\": {\"timestamp_ns\": 1756835833789751040, \"agent_id\": \"mehdi\", \"domain\": \"drone\", \"source_format\": \"json\", \"position\": {\"x\": 4414756.489336512, \"y\": -20553216.365638487, \"z\": 0.0}, \"velocity\": {\"vx\": 1763.0994586707982, \"vy\": 0.0, \"vz\": 0.0}, \"acceleration\": {\"ax\": -0.2455324828624725, \"ay\": 0.0, \"az\": 0.0}, \"orientation\": {\"yaw\": 0.0, \"pitch\": 0.0, \"roll\": 0.0}, \"sensor\": \"fusion\", \"extras\": {}, \"record_hash\": \"5c6ee87ca610c05ee199023afd8311985708c792ec34f981c22393d13544620e\", \"anomaly_flag\": -1}}", "sha3": "8e010102edc94edd03d52a872f9ffdbe37875a1f6643268d8ce8d0e8104338188608a80d48c2b349641c46a15791f9b2f0736871e07ef9f2f13344cb01b2e062"}
{"data": "{\"timestamp\": 1756835833.9029725, \"event\": {\"timestamp_ns\": 1756835833854771968, \"agent_id\": \"mehdi\", \"domain\": \"drone\", \"source_format\": \"json\", \"position\": {\"x\": 4414932.797599648, \"y\": -20554155.320605192, \"z\": 0.0}, \"velocity\": {\"vx\": 1763.0826313571963, \"vy\": 0.0, \"vz\": 0.0}, \"acceleration\": {\"ax\": -0.1682731360197067, \"ay\": 0.0, \"az\": 0.0}, \"orientation\": {\"yaw\": 0.0, \"pitch\": 0.0, \"roll\": 0.0}, \"sensor\": \"fusion\", \"extras\": {}, \"record_hash\": \"c3e44058facc1152040b6643c368bf4617863d7e6a8856ab77856b042fbc5659\", \"anomaly_flag\": -1}}", "sha3": "1b93a0df51271c60e2736464f9b82e5f6ea157477a8df6743c57c84edfadd16a2a2b3336685de4c70f05dd9e017dc999fb93418d88b180483602287d9f9b7f92"}
{"data": "{\"timestamp\": 1756835833.966783, \"event\": {\"timestamp_ns\": 1756835833924253952, \"agent_id\": \"mehdi\", \"domain\": \"drone\", \"source_format\": \"json\", \"position\": {\"x\": 4415109.1041804515, \"y\": -20555094.275981545, \"z\": 0.0}, \"velocity\": {\"vx\": 1763.065808029655, \"vy\": 0.0, \"vz\": 0.0}, \"acceleration\": {\"ax\": -0.1682332754135131, \"ay\": 0.0, \"az\": 0.0}, \"orientation\": {\"yaw\": 0.0, \"pitch\": 0.0, \"roll\": 0.0}, \"sensor\": \"fusion\", \"extras\": {}, \"record_hash\": \"c7ed2b46c338ac2d683efe0c7fd992c02b7c892300c8276ec42deb7f38d4716c\", \"anomaly_flag\": -1}}", "sha3": "eff2c0c43e5756fd8b16ab1ff0b124135e54f17124c19d759711db743ce88dd675d83f4a445ab8dad31395ba2d3bab732408f74fc585e55fcf9c233094007d69"}
{"data": "{\"timestamp\": 1756835834.02945, \"event\": {\"timestamp_ns\": 1756835833987958016, \"agent_id\": \"mehdi\", \"domain\": \"drone\", \"source_format\": \"json\", \"position\": {\"x\": 4415285.408885534, \"y\": -20556033.23176268, \"z\": 0.0}, \"velocity\": {\"vx\": 1763.0470508249437, \"vy\": 0.0, \"vz\": 0.0}, \"acceleration\": {\"ax\": -0.1875720471143722, \"ay\": 0.0, \"az\": 0.0}, \"orientation\": {\"yaw\": 0.0, \"pitch\": 0.0, \"roll\": 0.0}, \"sensor\": \"fusion\", \"extras\": {}, \"record_hash\": \"f194e421f33c2f9735222d4b4fb5f1f731a9fdacea1648e36c151d854df3cb44\", \"anomaly_flag\": -1}}", "sha3": "0ebaea6700fdd0b1c3478de44449026d18ee52fd5c7688a8510863c377b429e08d4ad559d5235a3e00cebe5acc4ae91e442c98b032a5c54f5bb39a4c04ee1dd1"}
{"data": "{\"timestamp\": 1756835834.0927613, \"event\": {\"timestamp_ns\": 1756835834050920960, \"agent_id\": \"mehdi\", \"domain\": \"drone\", \"source_format\": \"json\", \"position\": {\"x\": 4415461.711531778, \"y\": -20556972.187543847, \"z\": 0.0}, \"velocity\": {\"vx\": 1763.0264624359047, \"vy\": 0.0, \"vz\": 0.0}, \"acceleration\": {\"ax\": -0.205883890390396, \"ay\": 0.0, \"az\": 0.0}, \"orientation\": {\"yaw\": 0.0, \"pitch\": 0.0, \"roll\": 0.0}, \"sensor\": \"fusion\", \"extras\": {}, \"record_hash\": \"29355dd2a91560eeaac167e1c68763ae638c7405bbe70f8c8169d488aa7ee307\", \"anomaly_flag\": -1}}", "sha3": "707cb433d83f25d460af09ba38944300959eb34e2a736b3a30b36477b9cfb606fcf0f86bf8685aefcd045d69e13f2541a1c27321b9e25c5e9ee0aef4599d3182"}
{"data": "{\"timestamp\": 1756835834.1597266, \"event\": {\"timestamp_ns\": 1756835834114657024, \"agent_id\": \"mehdi\", \"domain\": \"drone\", \"source_format\": \"json\", \"position\": {\"x\": 4415638.0121346945, \"y\": -20557911.14292515, \"z\": 0.0}, \"velocity\": {\"vx\": 1763.0060291634834, \"vy\": 0.0, \"vz\": 0.0}, \"acceleration\": {\"ax\": -0.2043327242136001, \"ay\": 0.0, \"az\": 0.0}, \"orientation\": {\"yaw\": 0.0, \"pitch\": 0.0, \"roll\": 0.0}, \"sensor\": \"fusion\", \"extras\": {}, \"record_hash\": \"8e5c559a5c0ff48bb0b4726e17b4a95aff435995ad82e3e8c81f9232d724d50c\", \"anomaly_flag\": -1}}", "sha3": "57ecb96852ac0653cd144e81e7c9bf3cbba5887f0597ec919ddaeb2ff30cd04b11d3b41ba1545c266ca9fc09d0b95b087f84fb14c41e4767f92df9b8d591136f"}
{"data": "{\"timestamp\": 1756835834.220747, \"event\": {\"timestamp_ns\": 1756835834181083904, \"agent_id\": \"mehdi\", \"domain\": \"drone\", \"source_format\": \"json\", \"position\": {\"x\": 4415814.311053727, \"y\": -20558850.098716073, \"z\": 0.0}, \"velocity\": {\"vx\": 1762.9891903223431, \"vy\": 0.0, \"vz\": 0.0}, \"acceleration\": {\"ax\": -0.1683884114027023, \"ay\": 0.0, \"az\": 0.0}, \"orientation\": {\"yaw\": 0.0, \"pitch\": 0.0, \"roll\": 0.0}, \"sensor\": \"fusion\", \"extras\": {}, \"record_hash\": \"f08e74239f9ad034689f6c2d80bba652ad79799358faf40401093423b796c516\", \"anomaly_flag\": -1}}", "sha3": "36e0cc8c23c1bc97dce32917501981e4cf8e75b02372091f9e16cd41d29e2a9084915af0e31775d1868a82fd66319b27f4a507fb9b5ce2a1cd72dbb965ba86b9"}
{"data": "{\"timestamp\": 1756835834.286725, \"event\": {\"timestamp_ns\": 1756835834241928192, \"agent_id\": \"mehdi\", \"domain\": \"drone\", \"source_format\": \"json\", \"position\": {\"x\": 4415990.607710724, \"y\": -20559789.05450215, \"z\": 0.0}, \"velocity\": {\"vx\": 1762.9665699662603, \"vy\": 0.0, \"vz\": 0.0}, \"acceleration\": {\"ax\": -0.2262035608291626, \"ay\": 0.0, \"az\": 0.0}, \"orientation\": {\"yaw\": 0.0, \"pitch\": 0.0, \"roll\": 0.0}, \"sensor\": \"fusion\", \"extras\": {}, \"record_hash\": \"9e08298fe72de76112d09dbd72444f9ea7092a2e2f67955082cb6fddd30528bf\", \"anomaly_flag\": -1}}", "sha3": "1ea36036c5eae958d3ffd36741913c09d754bd3a3a9462781545f1cd5c0484a5002a05e0e3aa025de31132e532704e2f1dd1dfe4e19aa847c4fc01a0fcf4fadb"}
{"data": "{\"timestamp\": 1756835834.3513885, \"event\": {\"timestamp_ns\": 1756835834307707904, \"agent_id\": \"mehdi\", \"domain\": \"drone\", \"source_format\": \"json\", \"position\": {\"x\": 4416166.902308218, \"y\": -20560728.01068811, \"z\": 0.0}, \"velocity\": {\"vx\": 1762.9459749476946, \"vy\": 0.0, \"vz\": 0.0}, \"acceleration\": {\"ax\": -0.2059501856565475, \"ay\": 0.0, \"az\": 0.0}, \"orientation\": {\"yaw\": 0.0, \"pitch\": 0.0, \"roll\": 0.0}, \"sensor\": \"fusion\", \"extras\": {}, \"record_hash\": \"4bdb554a5fcaef3aaa971a330a68be101ed76aff2583a880ed80a347a15bfa2e\", \"anomaly_flag\": -1}}", "sha3": "2141bc208cd2d5303274cd18dcf01469cd897fb6bb55ba736f93b63a1930db7f49b284685f14e7a3fd93a445188305806c2747d9b2e42fdcdfa6ff045afc46c0"}
{"data": "{\"timestamp\": 1756835834.4222233, \"event\": {\"timestamp_ns\": 1756835834372955136, \"agent_id\": \"mehdi\", \"domain\": \"drone\", \"source_format\": \"json\", \"position\": {\"x\": 4416343.19484803, \"y\": -20561666.967273965, \"z\": 0.0}, \"velocity\": {\"vx\": 1762.925398113016, \"vy\": 0.0, \"vz\": 0.0}, \"acceleration\": {\"ax\": -0.205768346786499, \"ay\": 0.0, \"az\": 0.0}, \"orientation\": {\"yaw\": 0.0, \"pitch\": 0.0, \"roll\": 0.0}, \"sensor\": \"fusion\", \"extras\": {}, \"record_hash\": \"1ad4a759ca062acdae59081e7f5f3bce71732c54f5462032d218ac9ae2a9ecc6\", \"anomaly_flag\": -1}}", "sha3": "c6e23dc9b718377c653bed90b8d8afbbd7da41b4013bfc357527b0df943946b6f6c479981ae77d9653032302c6143207641d1b3e6af943727e70c509f2c4bfb1"}
{"data": "{\"timestamp\": 1756835834.4840164, \"event\": {\"timestamp_ns\": 1756835834443602176, \"agent_id\": \"mehdi\", \"domain\": \"drone\", \"source_format\": \"json\", \"position\": {\"x\": 4416519.485524757, \"y\": -20562605.92426457, \"z\": 0.0}, \"velocity\": {\"vx\": 1762.906767265681, \"vy\": 0.0, \"vz\": 0.0}, \"acceleration\": {\"ax\": -0.1863084733486175, \"ay\": 0.0, \"az\": 0.0}, \"orientation\": {\"yaw\": 0.0, \"pitch\": 0.0, \"roll\": 0.0}, \"sensor\": \"fusion\", \"extras\": {}, \"record_hash\": \"beb3a31a2dd3733d22c1ae2556038e42b72b3eeda323deeff07a242c1789172e\", \"anomaly_flag\": -1}}", "sha3": "94d794d1c01d2d1a9da47f582ef30ac617ffe598b1e4746b12f2281f2f46b25d1d36a52052481088d9216987ae101d54f21de1568eeb297a4fb8b7c58bc286c2"}
{"data": "{\"timestamp\": 1756835834.5495114, \"event\": {\"timestamp_ns\": 1756835834505018880, \"agent_id\": \"mehdi\", \"domain\": \"drone\", \"source_format\": \"json\", \"position\": {\"x\": 4416695.774316066, \"y\": -20563544.881659925, \"z\": 0.0}, \"velocity\": {\"vx\": 1762.8879130946434, \"vy\": 0.0, \"vz\": 0.0}, \"acceleration\": {\"ax\": -0.1885417103767395, \"ay\": 0.0, \"az\": 0.0}, \"orientation\": {\"yaw\": 0.0, \"pitch\": 0.0, \"roll\": 0.0}, \"sensor\": \"fusion\", \"extras\": {}, \"record_hash\": \"8df8fc2d219b4ec91e93679fa6c974e1f6a2b7328c533b0434f07eb155640e44\", \"anomaly_flag\": -1}}", "sha3": "df4bf3ff0001f170d5aa392b67e85709c5ba778998db34016b9ace1e1d041cdd7cad432f131ec767462098ffb0077cd4d0e503d1e77c2c7cb359f15bc0a02eca"}
{"data": "{\"timestamp\": 1756835834.6136153, \"event\": {\"timestamp_ns\": 1756835834570964224, \"agent_id\": \"mehdi\", \"domain\": \"drone\", \"source_format\": \"json\", \"position\": {\"x\": 4416872.0604610555, \"y\": -20564483.83864082, \"z\": 0.0}, \"velocity\": {\"vx\": 1762.8614498959817, \"vy\": 0.0, \"vz\": 0.0}, \"acceleration\": {\"ax\": -0.264631986618042, \"ay\": 0.0, \"az\": 0.0}, \"orientation\": {\"yaw\": 0.0, \"pitch\": 0.0, \"roll\": 0.0}, \"sensor\": \"fusion\", \"extras\": {}, \"record_hash\": \"c60f191e4a2fe12ab1074bbc97d2c4b75a6fc41e44a8d209c7b2032f5dae9b08\", \"anomaly_flag\": -1}}", "sha3": "cdabf7cc58ca4b55d016c2f930adf01a193f4fd3e3074a2ab5477c3b6ade9af87c717f21a5a4cb0c4452446121c846261d7cad50094abdc20c7596efc8133b5b"}
{"data": "{\"timestamp\": 1756835834.6771932, \"event\": {\"timestamp_ns\": 1756835834634927872, \"agent_id\": \"mehdi\", \"domain\": \"drone\", \"source_format\": \"json\", \"position\": {\"x\": 4417048.344555989, \"y\": -20565422.795621715, \"z\": 0.0}, \"velocity\": {\"vx\": 1762.840949338857, \"vy\": 0.0, \"vz\": 0.0}, \"acceleration\": {\"ax\": -0.2050055712461472, \"ay\": 0.0, \"az\": 0.0}, \"orientation\": {\"yaw\": 0.0, \"pitch\": 0.0, \"roll\": 0.0}, \"sensor\": \"fusion\", \"extras\": {}, \"record_hash\": \"0e7be87d947a8d38fd8549796ff73151eec65084693be70f4bddf876d543beee\", \"anomaly_flag\": -1}}", "sha3": "849d21104d8c84bbe78f173918bfd85ef50c2d1b97ed77aa950a594e9f575d8c2823920d90844a69ccb0e5320da26f1e9692049d5fc562e97a78077349fe0031"}
{"data": "{\"timestamp\": 1756835834.740228, \"event\": {\"timestamp_ns\": 1756835834699561984, \"agent_id\": \"mehdi\", \"domain\": \"drone\", \"source_format\": \"json\", \"position\": {\"x\": 4417224.626587601, \"y\": -20566361.75260261, \"z\": 0.0}, \"velocity\": {\"vx\": 1762.820316128615, \"vy\": 0.0, \"vz\": 0.0}, \"acceleration\": {\"ax\": -0.2063321024179458, \"ay\": 0.0, \"az\": 0.0}, \"orientation\": {\"yaw\": 0.0, \"pitch\": 0.0, \"roll\": 0.0}, \"sensor\": \"fusion\", \"extras\": {}, \"record_hash\": \"937617c974c69052fc01ac8101ba4bba5d7a434deedab2c14f295f4ee3ea0ba7\", \"anomaly_flag\": -1}}", "sha3": "5d61565bc7590879190d502f84d3fd9aa01c2882241d388fae3e001fc02fc1910b2cb60b141d268184229b318491696d7a4fcd0322ecb15525bbb51158bd96b0"}
{"data": "{\"timestamp\": 1756835834.800608, \"event\": {\"timestamp_ns\": 1756835834761097984, \"agent_id\": \"mehdi\", \"domain\": \"drone\", \"source_format\": \"json\", \"position\": {\"x\": 4417400.906736826, \"y\": -20567300.71038813, \"z\": 0.0}, \"velocity\": {\"vx\": 1762.8014922456778, \"vy\": 0.0, \"vz\": 0.0}, \"acceleration\": {\"ax\": -0.1882388293743133, \"ay\": 0.0, \"az\": 0.0}, \"orientation\": {\"yaw\": 0.0, \"pitch\": 0.0, \"roll\": 0.0}, \"sensor\": \"fusion\", \"extras\": {}, \"record_hash\": \"13ae7d316793f0379759f3f974cc70e61532c493dd94a9ecdf35d1fd22c58513\", \"anomaly_flag\": -1}}", "sha3": "f644875ae25993aad68bac185913f7f405e5ac4d0b5df698876cfa4de340c666098c304ccfd18dc2ef7834768de726b9f1f3fb41630e8e6a2ca80c2c3271e8df"}
{"data": "{\"timestamp\": 1756835834.8645365, \"event\": {\"timestamp_ns\": 1756835834821990912, \"agent_id\": \"mehdi\", \"domain\": \"drone\", \"source_format\": \"json\", \"position\": {\"x\": 4417577.18463664, \"y\": -20568239.66776891, \"z\": 0.0}, \"velocity\": {\"vx\": 1762.7789981471337, \"vy\": 0.0, \"vz\": 0.0}, \"acceleration\": {\"ax\": -0.2249409854412078, \"ay\": 0.0, \"az\": 0.0}, \"orientation\": {\"yaw\": 0.0, \"pitch\": 0.0, \"roll\": 0.0}, \"sensor\": \"fusion\", \"extras\": {}, \"record_hash\": \"646faf64e8054635073e0cc1771df5325d72036b531f7760945f74d7e0157862\", \"anomaly_flag\": -1}}", "sha3": "6620b8fbb96e5b9353ef62312b78d546aa49cfd7613ce9c443e9a6ff8343243d8683ecc17b306e67aad478e63c78349b4c2f43ff2faf42a4acebbb7e4d21bb34"}
{"data": "{\"timestamp\": 1756835834.9278603, \"event\": {\"timestamp_ns\": 1756835834886856960, \"agent_id\": \"mehdi\", \"domain\": \"drone\", \"source_format\": \"json\", \"position\": {\"x\": 4417753.461064393, \"y\": -20569178.62596403, \"z\": 0.0}, \"velocity\": {\"vx\": 1762.7642775239385, \"vy\": 0.0, \"vz\": 0.0}, \"acceleration\": {\"ax\": -0.1472062319517135, \"ay\": 0.0, \"az\": 0.0}, \"orientation\": {\"yaw\": 0.0, \"pitch\": 0.0, \"roll\": 0.0}, \"sensor\": \"fusion\", \"extras\": {}, \"record_hash\": \"34463930eaf52a81d8285870a4ef149a9d9cb8bcd6573e4b0b177423034f42de\", \"anomaly_flag\": -1}}", "sha3": "627ad7d02116cce0c254a88d55e846e692b7b8303bccd5e360808388cd4bd75c759a98ee40c1497793d7fe4490ecf6585c8f7c392c61af71ce38c3842a9cf981"}
{"data": "{\"timestamp\": 1756835834.9894876, \"event\": {\"timestamp_ns\": 1756835834948916992, \"agent_id\": \"mehdi\", \"domain\": \"drone\", \"source_format\": \"json\", \"position\": {\"x\": 4417929.734854703, \"y\": -20570117.58334481, \"z\": 0.0}, \"velocity\": {\"vx\": 1762.737903103415, \"vy\": 0.0, \"vz\": 0.0}, \"acceleration\": {\"ax\": -0.2637442052364349, \"ay\": 0.0, \"az\": 0.0}, \"orientation\": {\"yaw\": 0.0, \"pitch\": 0.0, \"roll\": 0.0}, \"sensor\": \"fusion\", \"extras\": {}, \"record_hash\": \"660477715ceb2013ec7ee7dc2d3c49eadb8f2bc47c9a56a842c8eebb950f6068\", \"anomaly_flag\": -1}}", "sha3": "0ee8b70b2a5931aafc73947861b31aa97c428b5156c66e3772f60d2e51699a514bc12db989d04a4e0fc37b99795314a7d27485c7cbb3c40f0ea6349467e8510f"}
{"data": "{\"timestamp\": 1756835835.0531566, \"event\": {\"timestamp_ns\": 1756835835010600192, \"agent_id\": \"mehdi\", \"domain\": \"drone\", \"source_format\": \"json\", \"position\": {\"x\": 4418106.006394018, \"y\": -20571056.540720727, \"z\": 0.0}, \"velocity\": {\"vx\": 1762.715393158976, \"vy\": 0.0, \"vz\": 0.0}, \"acceleration\": {\"ax\": -0.2250994443893432, \"ay\": 0.0, \"az\": 0.0}, \"orientation\": {\"yaw\": 0.0, \"pitch\": 0.0, \"roll\": 0.0}, \"sensor\": \"fusion\", \"extras\": {}, \"record_hash\": \"327fd3feff13c1ac5a714cd4254361d49ab373d2e60a0cab3f06237c439c688f\", \"anomaly_flag\": -1}}", "sha3": "77936016a467009b042b41e0f4c89b24201652d29d6dc1ff12ffe1e7efbef044158257fca7c3f5a38abffd075e77ccfe23b221426e7c3944748bec4753c88296"}
{"data": "{\"timestamp\": 1756835835.1142447, \"event\": {\"timestamp_ns\": 1756835835074333952, \"agent_id\": \"mehdi\", \"domain\": \"drone\", \"source_format\": \"json\", \"position\": {\"x\": 4418282.276076019, \"y\": -20571995.498101506, \"z\": 0.0}, \"velocity\": {\"vx\": 1762.696820005957, \"vy\": 0.0, \"vz\": 0.0}, \"acceleration\": {\"ax\": -0.1857315301895141, \"ay\": 0.0, \"az\": 0.0}, \"orientation\": {\"yaw\": 0.0, \"pitch\": 0.0, \"roll\": 0.0}, \"sensor\": \"fusion\", \"extras\": {}, \"record_hash\": \"59d5390ccd3c006ffa96863e576f23166cf35a834f056784688aef9148a5a41e\", \"anomaly_flag\": -1}}", "sha3": "7aceb5c47d489765275575407b12d31466f3047be744855d0f9139d00caf86ef6425d664c38f3ca32a94be4379718ec483f7ea2d70608e883dff465ef4e50da1"}
{"data": "{\"timestamp\": 1756835835.1742845, \"event\": {\"timestamp_ns\": 1756835835135570176, \"agent_id\": \"mehdi\", \"domain\": \"drone\", \"source_format\": \"json\", \"position\": {\"x\": 4418458.543875416, \"y\": -20572934.456286907, \"z\": 0.0}, \"velocity\": {\"vx\": 1762.677993974272, \"vy\": 0.0, \"vz\": 0.0}, \"acceleration\": {\"ax\": -0.1882603168487548, \"ay\": 0.0, \"az\": 0.0}, \"orientation\": {\"yaw\": 0.0, \"pitch\": 0.0, \"roll\": 0.0}, \"sensor\": \"fusion\", \"extras\": {}, \"record_hash\": \"9c453e849bb2002c6787777d29b02addbc956215a8017f8ee6e298a816a89421\", \"anomaly_flag\": -1}}", "sha3": "6a20a475c9f1d499b224dc888af909683be781daa5a623468fb6fc196bb95a478cc75aa6d55e1277fdbad309c93f0081291b84c1341e83f42009e43281744304"}
{"data": "{\"timestamp\": 1756835835.2368286, \"event\": {\"timestamp_ns\": 1756835835195674880, \"agent_id\": \"mehdi\", \"domain\": \"drone\", \"source_format\": \"json\", \"position\": {\"x\": 4418634.810004626, \"y\": -20573873.41488191, \"z\": 0.0}, \"velocity\": {\"vx\": 1762.6612921046055, \"vy\": 0.0, \"vz\": 0.0}, \"acceleration\": {\"ax\": -0.1670186966657638, \"ay\": 0.0, \"az\": 0.0}, \"orientation\": {\"yaw\": 0.0, \"pitch\": 0.0, \"roll\": 0.0}, \"sensor\": \"fusion\", \"extras\": {}, \"record_hash\": \"6757380b4e85cac525be60cd05e12812095de5624b31c1fd4c1b29639fbcc960\", \"anomaly_flag\": -1}}", "sha3": "c8a667e262203c79005cea0c7da78a1cec0cac41d3f78de6c38b21889fbb09dcb73d1cd3e17edc28a1c2fead25e329b99565cc07008a9815270056434870d9d0"}
{"data": "{\"timestamp\": 1756835835.311484, \"event\": {\"timestamp_ns\": 1756835835259155968, \"agent_id\": \"mehdi\", \"domain\": \"drone\", \"source_format\": \"json\", \"position\": {\"x\": 4418811.074043358, \"y\": -20574812.37467656, \"z\": 0.0}, \"velocity\": {\"vx\": 1762.6403873147406, \"vy\": 0.0, \"vz\": 0.0}, \"acceleration\": {\"ax\": -0.2090478986501693, \"ay\": 0.0, \"az\": 0.0}, \"orientation\": {\"yaw\": 0.0, \"pitch\": 0.0, \"roll\": 0.0}, \"sensor\": \"fusion\", \"extras\": {}, \"record_hash\": \"ee6a507947d3eea6c9c50bf6aa6870bbd100204a14bfcb53252d402c09b4aa67\", \"anomaly_flag\": -1}}", "sha3": "af4dcf093dba5c195957942ee356983d5b991b4f5ea14bed8a42d71aacdf13fa0dc4388031cea5168b03d702a83ccde02e242caf0486893600194e0d994f7338"}
{"data": "{\"timestamp\": 1756835835.3829324, \"event\": {\"timestamp_ns\": 1756835835335040000, \"agent_id\": \"mehdi\", \"domain\": \"drone\", \"source_format\": \"json\", \"position\": {\"x\": 4418987.335852791, \"y\": -20575751.33406647, \"z\": 0.0}, \"velocity\": {\"vx\": 1762.6180943282284, \"vy\": 0.0, \"vz\": 0.0}, \"acceleration\": {\"ax\": -0.2229298651218414, \"ay\": 0.0, \"az\": 0.0}, \"orientation\": {\"yaw\": 0.0, \"pitch\": 0.0, \"roll\": 0.0}, \"sensor\": \"fusion\", \"extras\": {}, \"record_hash\": \"5b9f5a26336d6981124d9bdfa80a75fe725364161e713927327cc652bba42749\", \"anomaly_flag\": -1}}", "sha3": "9e244ea178e2e053152308a6039b3725bf9f0743784e332d3c17c99567f2f321ee1b8a27e812ad290a28848141bd7ac8a15d37d97cac2682ab1ed7cc8eb603a4"}
{"data": "{\"timestamp\": 1756835835.4466927, \"event\": {\"timestamp_ns\": 1756835835404425984, \"agent_id\": \"mehdi\", \"domain\": \"drone\", \"source_format\": \"json\", \"position\": {\"x\": 4419163.595417958, \"y\": -20576690.293051638, \"z\": 0.0}, \"velocity\": {\"vx\": 1762.5956516684928, \"vy\": 0.0, \"vz\": 0.0}, \"acceleration\": {\"ax\": -0.2244265973567962, \"ay\": 0.0, \"az\": 0.0}, \"orientation\": {\"yaw\": 0.0, \"pitch\": 0.0, \"roll\": 0.0}, \"sensor\": \"fusion\", \"extras\": {}, \"record_hash\": \"1a4136328452c58754e3468f4c15e228e4aa313c7482600900266a589522c9de\", \"anomaly_flag\": -1}}", "sha3": "29a0825ef3d16a113b94adaeb236bd47ffc6d1fc525791c0d9e97acdd952e889a30cf0e86ef89467c2b966d049b30edd9d5df7b16b58c600cea14645d0fe40e3"}
{"data": "{\"timestamp\": 1756835835.510491, \"event\": {\"timestamp_ns\": 1756835835467736064, \"agent_id\": \"mehdi\", \"domain\": \"drone\", \"source_format\": \"json\", \"position\": {\"x\": 4419339.853110145, \"y\": -20577629.252441548, \"z\": 0.0}, \"velocity\": {\"vx\": 1762.5769218685068, \"vy\": 0.0, \"vz\": 0.0}, \"acceleration\": {\"ax\": -0.1872979998588562, \"ay\": 0.0, \"az\": 0.0}, \"orientation\": {\"yaw\": 0.0, \"pitch\": 0.0, \"roll\": 0.0}, \"sensor\": \"fusion\", \"extras\": {}, \"record_hash\": \"f62a0d7db5bafd7c7e9c57addf718c72c6518f24a3ae19f019ff2a7b64e248c1\", \"anomaly_flag\": -1}}", "sha3": "24f27763b93d600b54433da93fd9b8b05b0e5ca61d3542f3cb8793e5ba84a4755825065568421993056e25b5f225267ae71f96cfc441d85da9e4754d2b70cdda"}
{"data": "{\"timestamp\": 1756835835.5753264, \"event\": {\"timestamp_ns\": 1756835835531488000, \"agent_id\": \"mehdi\", \"domain\": \"drone\", \"source_format\": \"json\", \"position\": {\"x\": 4419516.109121672, \"y\": -20578568.212640945, \"z\": 0.0}, \"velocity\": {\"vx\": 1762.5601152749696, \"vy\": 0.0, \"vz\": 0.0}, \"acceleration\": {\"ax\": -0.1680659353733062, \"ay\": 0.0, \"az\": 0.0}, \"orientation\": {\"yaw\": 0.0, \"pitch\": 0.0, \"roll\": 0.0}, \"sensor\": \"fusion\", \"extras\": {}, \"record_hash\": \"26900b7dca7ba8ab40479ecc7c2040d3261451422e8a7244af66134459552f2a\", \"anomaly_flag\": -1}}", "sha3": "ceb1e128850b3033cbf0d56c018d875fe293750a3c0731f4c728bcedcb3e6e70a74a217961888aa47fc87fad94a236ffab92974e7c26a2e2aa9adaf1f7f4e061"}
{"data": "{\"timestamp\": 1756835835.6377716, \"event\": {\"timestamp_ns\": 1756835835597481984, \"agent_id\": \"mehdi\", \"domain\": \"drone\", \"source_format\": \"json\", \"position\": {\"x\": 4419692.362490256, \"y\": -20579507.172026, \"z\": 0.0}, \"velocity\": {\"vx\": 1762.5336858482995, \"vy\": 0.0, \"vz\": 0.0}, \"acceleration\": {\"ax\": -0.2642942667007446, \"ay\": 0.0, \"az\": 0.0}, \"orientation\": {\"yaw\": 0.0, \"pitch\": 0.0, \"roll\": 0.0}, \"sensor\": \"fusion\", \"extras\": {}, \"record_hash\": \"c5fad1d7250be242b8a4564d1a9d359b7d205211993cfd1d6a7ae1efc7d027a8\", \"anomaly_flag\": -1}}", "sha3": "5ac90b5d75c9418712eaeca6743baef4f0c000cffde14b24df4b9225e720b98341c3265ca1a9ad584d8bd08a8d22ce359ac8b52f9a3272bd28451c335157e41a"}
{"data": "{\"timestamp\": 1756835835.756274, \"event\": {\"timestamp_ns\": 1756835835659363072, \"agent_id\": \"mehdi\", \"domain\": \"drone\", \"source_format\": \"json\", \"position\": {\"x\": 4419868.613813764, \"y\": -20580446.131011177, \"z\": 0.0}, \"velocity\": {\"vx\": 1762.5132350774445, \"vy\": 0.0, \"vz\": 0.0}, \"acceleration\": {\"ax\": -0.2045077085494995, \"ay\": 0.0, \"az\": 0.0}, \"orientation\": {\"yaw\": 0.0, \"pitch\": 0.0, \"roll\": 0.0}, \"sensor\": \"fusion\", \"extras\": {}, \"record_hash\": \"9ef29bd2c246787b727780f04bf6ac2838f0d0e448de036c4dbfa9f295586efb\", \"anomaly_flag\": -1}}", "sha3": "f6cb937c59278da789621c8f68b5d7669f97ba645eebb5a2dae3e2dadfd43b6a4923be108e387bf8026fad54ab3fc22eb6c73092921bc6533b15c1a3b4a6f5e0"}
{"data": "{\"timestamp\": 1756835835.8424814, \"event\": {\"timestamp_ns\": 1756835835780081152, \"agent_id\": \"mehdi\", \"domain\": \"drone\", \"source_format\": \"json\", \"position\": {\"x\": 4420044.863256591, \"y\": -20581385.090401094, \"z\": 0.0}, \"velocity\": {\"vx\": 1762.4944282652773, \"vy\": 0.0, \"vz\": 0.0}, \"acceleration\": {\"ax\": -0.1880681216716766, \"ay\": 0.0, \"az\": 0.0}, \"orientation\": {\"yaw\": 0.0, \"pitch\": 0.0, \"roll\": 0.0}, \"sensor\": \"fusion\", \"extras\": {}, \"record_hash\": \"e501dc0497c1a60b778591ecb8ec9fdfaa72a927f1f33803f1d3bf702d9ce1ef\", \"anomaly_flag\": -1}}", "sha3": "94699ceaf6bae504592d2cdbb9f82c6caba03c1ce49cc94a3eccee2b8c6507520d66008bdb0e7ba96c84e2dcfe6455faf67d4310708ee25e0e44edfca3e63b08"}
{"data": "{\"timestamp\": 1756835835.9438517, \"event\": {\"timestamp_ns\": 1756835835863559936, \"agent_id\": \"mehdi\", \"domain\": \"drone\", \"source_format\": \"json\", \"position\": {\"x\": 4420221.110852554, \"y\": -20582324.04979587, \"z\": 0.0}, \"velocity\": {\"vx\": 1762.4759596319832, \"vy\": 0.0, \"vz\": 0.0}, \"acceleration\": {\"ax\": -0.1846863329410553, \"ay\": 0.0, \"az\": 0.0}, \"orientation\": {\"yaw\": 0.0, \"pitch\": 0.0, \"roll\": 0.0}, \"sensor\": \"fusion\", \"extras\": {}, \"record_hash\": \"1b7cc8d65d9ac112514d139b9e223ce24d472d31374258ebf8be16b1ec18702f\", \"anomaly_flag\": -1}}", "sha3": "fddfaca89c42896e605b878e0e30bc78381af9dfd8dd97fd248355cc80755c8077107b905c5ba3b8facaa133096fc99ae562061cde0a1848effcd6e580f83f44"}
{"data": "{\"timestamp\": 1756835836.031221, \"event\": {\"timestamp_ns\": 1756835835966023936, \"agent_id\": \"mehdi\", \"domain\": \"drone\", \"source_format\": \"json\", \"position\": {\"x\": 4420397.35658041, \"y\": -20583263.009595387, \"z\": 0.0}, \"velocity\": {\"vx\": 1762.4572785587943, \"vy\": 0.0, \"vz\": 0.0}, \"acceleration\": {\"ax\": -0.1868107318878173, \"ay\": 0.0, \"az\": 0.0}, \"orientation\": {\"yaw\": 0.0, \"pitch\": 0.0, \"roll\": 0.0}, \"sensor\": \"fusion\", \"extras\": {}, \"record_hash\": \"bfa978a686befdbfcc5ff092294adafe07c6738edc9bc73d41ae41c428030719\", \"anomaly_flag\": -1}}", "sha3": "e963e1954e0f133f02bd1b17bbdf3a3292f6a8792288947521e96d7460cfe5d23775af71ddbed3d2bdec319ac2cc4dab39445d1701cad8231947c1c26dc931e4"}
{"data": "{\"timestamp\": 1756835836.1276007, \"event\": {\"timestamp_ns\": 1756835836052717824, \"agent_id\": \"mehdi\", \"domain\": \"drone\", \"source_format\": \"json\", \"position\": {\"x\": 4420573.600647343, \"y\": -20584201.97020434, \"z\": 0.0}, \"velocity\": {\"vx\": 1762.4406693296469, \"vy\": 0.0, \"vz\": 0.0}, \"acceleration\": {\"ax\": -0.1660922914743423, \"ay\": 0.0, \"az\": 0.0}, \"orientation\": {\"yaw\": 0.0, \"pitch\": 0.0, \"roll\": 0.0}, \"sensor\": \"fusion\", \"extras\": {}, \"record_hash\": \"eb71427a62a7819d815b357e5bd20c6bdde3c18537bbaea4925bfe4813cc6f8b\", \"anomaly_flag\": -1}}", "sha3": "f2984d7483107fa87fdaf763167ec87af91eb5a0bba3cafd5b96b515c1baa898487f5a2c7ef97c663d05c5af453f3628b8d581febbf59bc74ad6a94d9bcc7890"}
{"data": "{\"timestamp\": 1756835836.2159922, \"event\": {\"timestamp_ns\": 1756835836148701952, \"agent_id\": \"mehdi\", \"domain\": \"drone\", \"source_format\": \"json\", \"position\": {\"x\": 4420749.842645957, \"y\": -20585140.931213118, \"z\": 0.0}, \"velocity\": {\"vx\": 1762.4199861394204, \"vy\": 0.0, \"vz\": 0.0}, \"acceleration\": {\"ax\": -0.2068319022655487, \"ay\": 0.0, \"az\": 0.0}, \"orientation\": {\"yaw\": 0.0, \"pitch\": 0.0, \"roll\": 0.0}, \"sensor\": \"fusion\", \"extras\": {}, \"record_hash\": \"b542115cfe5f21c27e69cfb4228708fe4e2b4119dc73b3587ee31a6cbcacae66\", \"anomaly_flag\": -1}}", "sha3": "5dba123ac84983e7dbbc82193a146babafb46afb1924249742f703c47f124dde4b0f719bdbf99b76460aaa5e550d1ad1146befa2de75ff47354a82454c7ffb31"}
{"data": "{\"timestamp\": 1756835836.3131282, \"event\": {\"timestamp_ns\": 1756835836237627904, \"agent_id\": \"mehdi\", \"domain\": \"drone\", \"source_format\": \"json\", \"position\": {\"x\": 4420926.082576318, \"y\": -20586079.89262173, \"z\": 0.0}, \"velocity\": {\"vx\": 1762.3993036018646, \"vy\": 0.0, \"vz\": 0.0}, \"acceleration\": {\"ax\": -0.2068253755569458, \"ay\": 0.0, \"az\": 0.0}, \"orientation\": {\"yaw\": 0.0, \"pitch\": 0.0, \"roll\": 0.0}, \"sensor\": \"fusion\", \"extras\": {}, \"record_hash\": \"5868ceb0e1f324990ddc6525806c1625a39b3d5dd342d7de4e2b1118f04ea6cd\", \"anomaly_flag\": -1}}", "sha3": "91ad0fe3f3c1c505737de9cab6be01fbb17d4071a07e6d78bd85f84326d7750fc43ecd18d1f0eb1e4ff570652d36770e66f2da66a58db87134bd76f3b5daf5c3"}
{"data": "{\"timestamp\": 1756835836.4323385, \"event\": {\"timestamp_ns\": 1756835836334141952, \"agent_id\": \"mehdi\", \"domain\": \"drone\", \"source_format\": \"json\", \"position\": {\"x\": 4421102.3208483355, \"y\": -20587018.85443989, \"z\": 0.0}, \"velocity\": {\"vx\": 1762.382720177058, \"vy\": 0.0, \"vz\": 0.0}, \"acceleration\": {\"ax\": -0.1658342480659485, \"ay\": 0.0, \"az\": 0.0}, \"orientation\": {\"yaw\": 0.0, \"pitch\": 0.0, \"roll\": 0.0}, \"sensor\": \"fusion\", \"extras\": {}, \"record_hash\": \"5edd35a96a6660c0a004a5ab433ca177d7b1acad8c46b92aaf0dc012660a357c\", \"anomaly_flag\": -1}}", "sha3": "0f1d306148bbcb0be2e1718b4902f47e2d996f3ae49c0a05f846ea56154947291a95bf22e50e6535b9493c2325e377051e97cd91dfafb31052bbdd8f89fb2272"}
{"data": "{\"timestamp\": 1756835836.5233529, \"event\": {\"timestamp_ns\": 1756835836453900032, \"agent_id\": \"mehdi\", \"domain\": \"drone\", \"source_format\": \"json\", \"position\": {\"x\": 4421278.55687854, \"y\": -20587957.815853253, \"z\": 0.0}, \"velocity\": {\"vx\": 1762.3603020386731, \"vy\": 0.0, \"vz\": 0.0}, \"acceleration\": {\"ax\": -0.2241813838481903, \"ay\": 0.0, \"az\": 0.0}, \"orientation\": {\"yaw\": 0.0, \"pitch\": 0.0, \"roll\": 0.0}, \"sensor\": \"fusion\", \"extras\": {}, \"record_hash\": \"8127e5e09f9fa7fa7c6749045d1f4b1b629ee1820f965c4604e400a5709bc156\", \"anomaly_flag\": -1}}", "sha3": "9e83c4baf849d0d512001df14bb078e0b6f24ca45abefcdbc02d37722d452f5e8ca4950c25f4d01fdc5d368ee7f4d36c82c0e24e8274178268dee99b77427ceb"}
{"data": "{\"timestamp\": 1756835836.6196175, \"event\": {\"timestamp_ns\": 1756835836544529920, \"agent_id\": \"mehdi\", \"domain\": \"drone\", \"source_format\": \"json\", \"position\": {\"x\": 4421454.791237232, \"y\": -20588896.77767617, \"z\": 0.0}, \"velocity\": {\"vx\": 1762.3435869293248, \"vy\": 0.0, \"vz\": 0.0}, \"acceleration\": {\"ax\": -0.1671510934829712, \"ay\": 0.0, \"az\": 0.0}, \"orientation\": {\"yaw\": 0.0, \"pitch\": 0.0, \"roll\": 0.0}, \"sensor\": \"fusion\", \"extras\": {}, \"record_hash\": \"1fc383c7d04770e5f6ea1db7cf31cf6f6de296863786835b6e644b287f0fde1b\", \"anomaly_flag\": -1}}", "sha3": "6c5c8b17d687049e0911314ee8d8d115ab31fb4f3e27378bb22cd60a87a7712228098ee0e8bade1dc215bb5c8684b41b1d96fec0c5cf9110a3f48da29e8f4abe"}
{"data": "{\"timestamp\": 1756835836.712847, \"event\": {\"timestamp_ns\": 1756835836640806912, \"agent_id\": \"mehdi\", \"domain\": \"drone\", \"source_format\": \"json\", \"position\": {\"x\": 4421631.023737673, \"y\": -20589835.739503894, \"z\": 0.0}, \"velocity\": {\"vx\": 1762.3250044034755, \"vy\": 0.0, \"vz\": 0.0}, \"acceleration\": {\"ax\": -0.1858252584934234, \"ay\": 0.0, \"az\": 0.0}, \"orientation\": {\"yaw\": 0.0, \"pitch\": 0.0, \"roll\": 0.0}, \"sensor\": \"fusion\", \"extras\": {}, \"record_hash\": \"1afa89f785d401dc66c0415a5db5d52f80ebe8a602c66303328bf91826f8642d\", \"anomaly_flag\": -1}}", "sha3": "ac46e1f507e192bbcf0871c59e9ca0c5956b0b79c58ff052058c7a99000ea62d8f8804c3678dd7f0e746d7d9b1f12591326c5da77e43647a058662e9fed9229e"}
{"data": "{\"timestamp\": 1756835836.8048983, \"event\": {\"timestamp_ns\": 1756835836734280960, \"agent_id\": \"mehdi\", \"domain\": \"drone\", \"source_format\": \"json\", \"position\": {\"x\": 4421807.254188929, \"y\": -20590774.700931683, \"z\": 0.0}, \"velocity\": {\"vx\": 1762.3045125575698, \"vy\": 0.0, \"vz\": 0.0}, \"acceleration\": {\"ax\": -0.2049184590578079, \"ay\": 0.0, \"az\": 0.0}, \"orientation\": {\"yaw\": 0.0, \"pitch\": 0.0, \"roll\": 0.0}, \"sensor\": \"fusion\", \"extras\": {}, \"record_hash\": \"3232c25201b05c88ab443a73f9badd0283f3602792286e68798ec23a0a1bce89\", \"anomaly_flag\": -1}}", "sha3": "c8264dc784ba3bd1e4e284839457040cf1693dac9732432582310a3a648d4ada49cfb69e1de7736fe61093f3429b18980c908d276c05cf6666f915d017a02079"}
{"data": "{\"timestamp\": 1756835836.8826857, \"event\": {\"timestamp_ns\": 1756835836826134016, \"agent_id\": \"mehdi\", \"domain\": \"drone\", \"source_format\": \"json\", \"position\": {\"x\": 4421983.48279015, \"y\": -20591713.66236428, \"z\": 0.0}, \"velocity\": {\"vx\": 1762.286012207154, \"vy\": 0.0, \"vz\": 0.0}, \"acceleration\": {\"ax\": -0.1850035041570663, \"ay\": 0.0, \"az\": 0.0}, \"orientation\": {\"yaw\": 0.0, \"pitch\": 0.0, \"roll\": 0.0}, \"sensor\": \"fusion\", \"extras\": {}, \"record_hash\": \"18a6b571043fd693a38dfbf0eb550b189b72341926aa28ee59401a8c943ebf93\", \"anomaly_flag\": -1}}", "sha3": "4a0caf5de0dbdcf86770f46dfff6f460f9162d485d7e21b624458f5622d7e735a8096594fbf4f64835a2515844fa878028769c1ad8c2bb8fcbae7c80ed6bcea9"}
{"data": "{\"timestamp\": 1756835836.9829242, \"event\": {\"timestamp_ns\": 1756835836904404992, \"agent_id\": \"mehdi\", \"domain\": \"drone\", \"source_format\": \"json\", \"position\": {\"x\": 4422159.709712433, \"y\": -20592652.62460631, \"z\": 0.0}, \"velocity\": {\"vx\": 1762.2692228333985, \"vy\": 0.0, \"vz\": 0.0}, \"acceleration\": {\"ax\": -0.1678937375545501, \"ay\": 0.0, \"az\": 0.0}, \"orientation\": {\"yaw\": 0.0, \"pitch\": 0.0, \"roll\": 0.0}, \"sensor\": \"fusion\", \"extras\": {}, \"record_hash\": \"aefbbfe79402187309b6f35ee0a90325c496221ba44721a26ea97df47cd68e67\", \"anomaly_flag\": -1}}", "sha3": "eafd5f6611405ea9a6e6de9d0ed6d2f5e2b32fb4e42d4190c0369eb34de094eb7b0ac65ec3e1cfb53f033489536cd1b4e6fad9dde67fe63b9eb6d310913e87d3"}
{"data": "{\"timestamp\": 1756835837.0550058, \"event\": {\"timestamp_ns\": 1756835837003828992, \"agent_id\": \"mehdi\", \"domain\": \"drone\", \"source_format\": \"json\", \"position\": {\"x\": 4422335.934403275, \"y\": -20593591.586043663, \"z\": 0.0}, \"velocity\": {\"vx\": 1762.246908424977, \"vy\": 0.0, \"vz\": 0.0}, \"acceleration\": {\"ax\": -0.2231440842151641, \"ay\": 0.0, \"az\": 0.0}, \"orientation\": {\"yaw\": 0.0, \"pitch\": 0.0, \"roll\": 0.0}, \"sensor\": \"fusion\", \"extras\": {}, \"record_hash\": \"efc35ebc6c17586d73f3d182db9f2cbc5537af9b492729185768194440b5fd01\", \"anomaly_flag\": -1}}", "sha3": "44e6e966aecaebe40daba903d3ad04c5bab7417e8405e94f3fdd1541f0e89dacc744fa3f7d6b448d28748314ec34e041d5ae4b59445a9e85018696e53dad4fbb"}
{"data": "{\"timestamp\": 1756835837.1327395, \"event\": {\"timestamp_ns\": 1756835837076244224, \"agent_id\": \"mehdi\", \"domain\": \"drone\", \"source_format\": \"json\", \"position\": {\"x\": 4422512.157229716, \"y\": -20594530.547885705, \"z\": 0.0}, \"velocity\": {\"vx\": 1762.2282644050156, \"vy\": 0.0, \"vz\": 0.0}, \"acceleration\": {\"ax\": -0.1864401996135712, \"ay\": 0.0, \"az\": 0.0}, \"orientation\": {\"yaw\": 0.0, \"pitch\": 0.0, \"roll\": 0.0}, \"sensor\": \"fusion\", \"extras\": {}, \"record_hash\": \"6c997f35a6551af88e37c08353bd07a2b93b4bbc71998e43d7a76e2a9b439649\", \"anomaly_flag\": -1}}", "sha3": "ba61b4546020a3125fcf9c7d5614eee0190e7f1af098a8d07f9295ca94fb8776ede6260ef12ba0238767024ee4c0830af14aa8730fa41fb7a86eb9e6f88786e7"}
{"data": "{\"timestamp\": 1756835837.2081842, \"event\": {\"timestamp_ns\": 1756835837155293952, \"agent_id\": \"mehdi\", \"domain\": \"drone\", \"source_format\": \"json\", \"position\": {\"x\": 4422688.377797095, \"y\": -20595469.509722836, \"z\": 0.0}, \"velocity\": {\"vx\": 1762.20567378867, \"vy\": 0.0, \"vz\": 0.0}, \"acceleration\": {\"ax\": -0.2259061634540558, \"ay\": 0.0, \"az\": 0.0}, \"orientation\": {\"yaw\": 0.0, \"pitch\": 0.0, \"roll\": 0.0}, \"sensor\": \"fusion\", \"extras\": {}, \"record_hash\": \"2d2f5b5a0e24ee0e6ac1b0d57a922f227246b6b7e3c63fe6797a34b4406aee4f\", \"anomaly_flag\": -1}}", "sha3": "6c20e0d3b4f6d9a1e8c04d42ca6f817322be710f8514bf2bd6e99b78c815959d466c75cb09f3ce00be70a723edf6375e5bc7cd4f0667daa014a3c27e71053af7"}
{"data": "{\"timestamp\": 1756835837.2723484, \"event\": {\"timestamp_ns\": 1756835837229180160, \"agent_id\": \"mehdi\", \"domain\": \"drone\", \"source_format\": \"json\", \"position\": {\"x\": 4422864.612739537, \"y\": -20596408.47115866, \"z\": 0.0}, \"velocity\": {\"vx\": 1762.3494244204794, \"vy\": 0.0, \"vz\": 0.0}, \"acceleration\": {\"ax\": 1.4375063180923462, \"ay\": 0.0, \"az\": 0.0}, \"orientation\": {\"yaw\": 0.0, \"pitch\": 0.0, \"roll\": 0.0}, \"sensor\": \"fusion\", \"extras\": {}, \"record_hash\": \"e6598144cb962480fdcd940f5343d1dd06e13d22ea72cafa63958f836e7b5c43\", \"anomaly_flag\": -1}}", "sha3": "5646dd83e791c019cbb21e7cb633a09ef28f34d9a20dac8faac5bdc372fc5d61085732efc8856f9714fc19a1093002623c25bef760a1f584563f3a8c4d49d46d"}
{"data": "{\"timestamp\": 1756835837.3388615, \"event\": {\"timestamp_ns\": 1756835837293412864, \"agent_id\": \"mehdi\", \"domain\": \"drone\", \"source_format\": \"json\", \"position\": {\"x\": 4423040.901950148, \"y\": -20597347.431560807, \"z\": 0.0}, \"velocity\": {\"vx\": 1762.8921061145102, \"vy\": 0.0, \"vz\": 0.0}, \"acceleration\": {\"ax\": 5.426816940307617, \"ay\": 0.0, \"az\": 0.0}, \"orientation\": {\"yaw\": 0.0, \"pitch\": 0.0, \"roll\": 0.0}, \"sensor\": \"fusion\", \"extras\": {}, \"record_hash\": \"15948608938dca546bc27b9e261802310617ce67dcfd71686973710446895449\", \"anomaly_flag\": -1}}", "sha3": "ac7704dce8699f19431edba2f0e666790ba4efb0a40a3e710ba7fd96b8ca337033b90cdf41c788e4fc032e78ad029f6b970d04931c81211191505ceebdd74d7a"}
{"data": "{\"timestamp\": 1756835837.4184957, \"event\": {\"timestamp_ns\": 1756835837359981056, \"agent_id\": \"mehdi\", \"domain\": \"drone\", \"source_format\": \"json\", \"position\": {\"x\": 4423217.231011052, \"y\": -20598286.392178856, \"z\": 0.0}, \"velocity\": {\"vx\": 1763.2906090365682, \"vy\": 0.0, \"vz\": 0.0}, \"acceleration\": {\"ax\": 3.985029220581055, \"ay\": 0.0, \"az\": 0.0}, \"orientation\": {\"yaw\": 0.0, \"pitch\": 0.0, \"roll\": 0.0}, \"sensor\": \"fusion\", \"extras\": {}, \"record_hash\": \"dbca1cd02976ddf7139d6c672c4e4f32fedb8442bfa153bdc805013273626497\", \"anomaly_flag\": -1}}", "sha3": "9befbed0fc3ba85d5e86035cb7b3e79861ce2de01e6a2ba53c5d413840e2c83e4ae255e2d0fb1b003864a626b523f56e47a3a4685384da86eee1eb994ca27c5c"}
{"data": "{\"timestamp\": 1756835837.5027764, \"event\": {\"timestamp_ns\": 1756835837440355072, \"agent_id\": \"mehdi\", \"domain\": \"drone\", \"source_format\": \"json\", \"position\": {\"x\": 4423393.595756668, \"y\": -20599225.35331143, \"z\": 0.0}, \"velocity\": {\"vx\": 1763.6474561558996, \"vy\": 0.0, \"vz\": 0.0}, \"acceleration\": {\"ax\": 3.568471193313598, \"ay\": 0.0, \"az\": 0.0}, \"orientation\": {\"yaw\": 0.0, \"pitch\": 0.0, \"roll\": 0.0}, \"sensor\": \"fusion\", \"extras\": {}, \"record_hash\": \"bcac9e29e98f77f20e58a74356bf06a571e591f2f2db5c4ffc6837858e7601da\", \"anomaly_flag\": -1}}", "sha3": "7e0a41373a37c6a32acd4bfe23971b7d62d407dad633ad435527ecdd4e97558278fd2548432d58f75d40dc9f3c809af58e28cdb2643b2ba33cef4aed30e0ec6d"}
{"data": "{\"timestamp\": 1756835837.5770695, \"event\": {\"timestamp_ns\": 1756835837523803904, \"agent_id\": \"mehdi\", \"domain\": \"drone\", \"source_format\": \"json\", \"position\": {\"x\": 4423569.995447786, \"y\": -20600164.31453948, \"z\": 0.0}, \"velocity\": {\"vx\": 1763.9969111787116, \"vy\": 0.0, \"vz\": 0.0}, \"acceleration\": {\"ax\": 3.4945502281188965, \"ay\": 0.0, \"az\": 0.0}, \"orientation\": {\"yaw\": 0.0, \"pitch\": 0.0, \"roll\": 0.0}, \"sensor\": \"fusion\", \"extras\": {}, \"record_hash\": \"7eda7e81b1b3fae907c3117e2c491a9b1d94dc87b44836866d82b514ff8010d7\", \"anomaly_flag\": -1}}", "sha3": "6eadaa512be86be51113be8bb4dd652c99af9ce5794f23b25d6b8225013c450475e6347e4f5aa2307c08cf8b98ec468535aee93d9bd5ecba0b635502b30a8263"}
