{"data": "{\"timestamp\": 1756835450.7204795, \"event\": {\"timestamp_ns\": 1756835450672928000, \"agent_id\": \"berk\", \"domain\": \"drone\", \"source_format\": \"json\", \"position\": {\"x\": 6253521.500255521, \"y\": -30328608.871657245, \"z\": 0.0}, \"velocity\": {\"vx\": 2086.6172855247723, \"vy\": 0.0, \"vz\": 0.0}, \"acceleration\": {\"ax\": -0.2462933957576752, \"ay\": 0.0, \"az\": 0.0}, \"orientation\": {\"yaw\": 0.0, \"pitch\": 0.0, \"roll\": 0.0}, \"sensor\": \"fusion\", \"extras\": {}, \"record_hash\": \"94da79121eae3e8aa6725745ff409b473aba350c9b6ef73348aab5ecd586b358\", \"anomaly_flag\": -1}}", "sha3": "3485726f5e46bdf53836f050dd83246b130ab76bac3eab5a234ddc1f580696cbaa620e99d9e3efdd0f117049ca6e897137c3e9d08388fc187261b94dd21e924e"}
{"data": "{\"timestamp\": 1756835450.7944407, \"event\": {\"timestamp_ns\": 1756835450743736064, \"agent_id\": \"berk\", \"domain\": \"drone\", \"source_format\": \"json\", \"position\": {\"x\": 6253730.160101423, \"y\": -30329769.457394358, \"z\": 0.0}, \"velocity\": {\"vx\": 2086.59845901476, \"vy\": 0.0, \"vz\": 0.0}, \"acceleration\": {\"ax\": -0.1882651001214981, \"ay\": 0.0, \"az\": 0.0}, \"orientation\": {\"yaw\": 0.0, \"pitch\": 0.0, \"roll\": 0.0}, \"sensor\": \"fusion\", \"extras\": {}, \"record_hash\": \"e91e89e15006202f4e5f3ffbf3e9ef06ab2937a4f1345a4c4f35ae945410f329\", \"anomaly_flag\": -1}}", "sha3": "fadae9bfeaedbc977502e8e76a685fec066242dc443e8583d0ad3442dbc447e06728731c11b18e86f355ced678c7ae856769a07aa61efa8c31ad152988404b72"}
{"data": "{\"timestamp\": 1756835450.874088, \"event\": {\"timestamp_ns\": 1756835450816070144, \"agent_id\": \"berk\", \"domain\": \"drone\", \"source_format\": \"json\", \"position\": {\"x\": 6253938.817855058, \"y\": -30330930.043931287, \"z\": 0.0}, \"velocity\": {\"vx\": 2086.577536350952, \"vy\": 0.0, \"vz\": 0.0}, \"acceleration\": {\"ax\": -0.2092266380786896, \"ay\": 0.0, \"az\": 0.0}, \"orientation\": {\"yaw\": 0.0, \"pitch\": 0.0, \"roll\": 0.0}, \"sensor\": \"fusion\", \"extras\": {}, \"record_hash\": \"2c85e8a65390dbbf9a4f25ca0b029cb3beb5fed1546b5892736a5eedf09b35b6\", \"anomaly_flag\": -1}}", "sha3": "8c1d70b22304c028f0482ff936f1ec3b11e72ad84c05928b919648caf524936c64e4cee6d4fde1ecca384c5ae74ec7a4380648559bf7b13191b0f6fc0c5f6069"}
{"data": "{\"timestamp\": 1756835450.9762583, \"event\": {\"timestamp_ns\": 1756835450895672064, \"agent_id\": \"berk\", \"domain\": \"drone\", \"source_format\": \"json\", \"position\": {\"x\": 6254147.473345622, \"y\": -30332090.630063526, \"z\": 0.0}, \"velocity\": {\"vx\": 2086.554905641542, \"vy\": 0.0, \"vz\": 0.0}, \"acceleration\": {\"ax\": -0.2263070940971374, \"ay\": 0.0, \"az\": 0.0}, \"orientation\": {\"yaw\": 0.0, \"pitch\": 0.0, \"roll\": 0.0}, \"sensor\": \"fusion\", \"extras\": {}, \"record_hash\": \"0901678a20534b171da2f5c925bec37450abef68a238a2aede61a73c537de05f\", \"anomaly_flag\": -1}}", "sha3": "31d64bce915d55217a1743fa95ae3624c1ba93690a0bde337bd939dad41fdbf1a5dad24568bb1b4bdd028f0591e3a001e36d04db9b43a37e0921a0ffaa3e6e6c"}
{"data": "{\"timestamp\": 1756835451.0471146, \"event\": {\"timestamp_ns\": 1756835450997302016, \"agent_id\": \"berk\", \"domain\": \"drone\", \"source_format\": \"json\", \"position\": {\"x\": 6254356.126573116, \"y\": -30333251.215791073, \"z\": 0.0}, \"velocity\": {\"vx\": 2086.532274932132, \"vy\": 0.0, \"vz\": 0.0}, \"acceleration\": {\"ax\": -0.2263070940971374, \"ay\": 0.0, \"az\": 0.0}, \"orientation\": {\"yaw\": 0.0, \"pitch\": 0.0, \"roll\": 0.0}, \"sensor\": \"fusion\", \"extras\": {}, \"record_hash\": \"764b483997286050a10ba1376b115e62c69819454c5f3568fa5652a89f7778ea\", \"anomaly_flag\": -1}}", "sha3": "474c1c95951c3c619a6d7fc2d962431ef5ac22fa02af400320e7db782352b8cda074292ea2da529a9e5524b61202741936beed371fde14ff55c4bb25aa2048c4"}
{"data": "{\"timestamp\": 1756835451.1046152, \"event\": {\"timestamp_ns\": 1756835451068713984, \"agent_id\": \"berk\", \"domain\": \"drone\", \"source_format\": \"json\", \"position\": {\"x\": 6254564.777737468, \"y\": -30334411.80111879, \"z\": 0.0}, \"velocity\": {\"vx\": 2086.5116435174805, \"vy\": 0.0, \"vz\": 0.0}, \"acceleration\": {\"ax\": -0.2063141465187072, \"ay\": 0.0, \"az\": 0.0}, \"orientation\": {\"yaw\": 0.0, \"pitch\": 0.0, \"roll\": 0.0}, \"sensor\": \"fusion\", \"extras\": {}, \"record_hash\": \"172bc7ddb6fbbd1ec01aecca7734791b46d85328d24b12173d45047090d40018\", \"anomaly_flag\": -1}}", "sha3": "a92c35a770a1261866f5ad210944d8e35e2a4bb8dc05d9fe18302d95d78088400c6e9a9521c1e71fa9dace48cb7404e325ac30a8ff2ceceb8a8fc7114aadf02b"}
{"data": "{\"timestamp\": 1756835451.1846614, \"event\": {\"timestamp_ns\": 1756835451126211840, \"agent_id\": \"berk\", \"domain\": \"drone\", \"source_format\": \"json\", \"position\": {\"x\": 6254773.426838662, \"y\": -30335572.386046678, \"z\": 0.0}, \"velocity\": {\"vx\": 2086.4910119359356, \"vy\": 0.0, \"vz\": 0.0}, \"acceleration\": {\"ax\": -0.206315815448761, \"ay\": 0.0, \"az\": 0.0}, \"orientation\": {\"yaw\": 0.0, \"pitch\": 0.0, \"roll\": 0.0}, \"sensor\": \"fusion\", \"extras\": {}, \"record_hash\": \"a954e2e12a1c27a1e3ba0690b8e22986c10d566b3848f2f332621cd2bf7b804f\", \"anomaly_flag\": -1}}", "sha3": "ac43cc73d646ebb22cdbdaf1561c3b1cb14b1a5508a64c80fad5ed9b12bed5ce852314da90a68a02725ad7e1bd9ceae5f474c26cde4ba1decabcfaa33dcf304e"}
{"data": "{\"timestamp\": 1756835451.2617996, \"event\": {\"timestamp_ns\": 1756835451205646080, \"agent_id\": \"berk\", \"domain\": \"drone\", \"source_format\": \"json\", \"position\": {\"x\": 6254982.073866977, \"y\": -30336732.970974617, \"z\": 0.0}, \"velocity\": {\"vx\": 2086.470283161567, \"vy\": 0.0, \"vz\": 0.0}, \"acceleration\": {\"ax\": -0.2072877436876297, \"ay\": 0.0, \"az\": 0.0}, \"orientation\": {\"yaw\": 0.0, \"pitch\": 0.0, \"roll\": 0.0}, \"sensor\": \"fusion\", \"extras\": {}, \"record_hash\": \"d55932b20e0a811fbe59eba460bf20b0ea1edfe25f61e2720a6ebe5818985e66\", \"anomaly_flag\": -1}}", "sha3": "3a8b85d8826c435ecb0f99898b57844e60770248dd23340892c895066c2c866b8123baa854d453922fea92e49102dedcdfe1ee8633c340b93497f90e11840dfb"}
{"data": "{\"timestamp\": 1756835451.33584, \"event\": {\"timestamp_ns\": 1756835451283448064, \"agent_id\": \"berk\", \"domain\": \"drone\", \"source_format\": \"json\", \"position\": {\"x\": 6255190.718822416, \"y\": -30337893.555902608, \"z\": 0.0}, \"velocity\": {\"vx\": 2086.449554387198, \"vy\": 0.0, \"vz\": 0.0}, \"acceleration\": {\"ax\": -0.2072877436876297, \"ay\": 0.0, \"az\": 0.0}, \"orientation\": {\"yaw\": 0.0, \"pitch\": 0.0, \"roll\": 0.0}, \"sensor\": \"fusion\", \"extras\": {}, \"record_hash\": \"5efe7e33a132c5ec73563e82d175d6a5b0744aed7afb4d4ba56924462b118a1b\", \"anomaly_flag\": -1}}", "sha3": "734f25e45b29552d59b603ca396d7bd07ce0c19c64528c83958813bd9827e9cad70fe3216d134b3af4917db75313138882ab61be6b6b8a1a979c273cc6315c1f"}
{"data": "{\"timestamp\": 1756835451.421268, \"event\": {\"timestamp_ns\": 1756835451357174016, \"agent_id\": \"berk\", \"domain\": \"drone\", \"source_format\": \"json\", \"position\": {\"x\": 6255399.3615051145, \"y\": -30339054.14082579, \"z\": 0.0}, \"velocity\": {\"vx\": 2086.4268269811732, \"vy\": 0.0, \"vz\": 0.0}, \"acceleration\": {\"ax\": -0.2272740602493286, \"ay\": 0.0, \"az\": 0.0}, \"orientation\": {\"yaw\": 0.0, \"pitch\": 0.0, \"roll\": 0.0}, \"sensor\": \"fusion\", \"extras\": {}, \"record_hash\": \"aba973002e366af086ba6176b3e61b51d3c49a4d5c396833f2fdc64711c687ac\", \"anomaly_flag\": -1}}", "sha3": "501d08ba6e82028db94d2fed602c00d64c84317efcccd551818d4a46b4c0d95b2659dca4abfc5339986587bfc43298565b22ae3a95f79c228be6c33db781afd2"}
{"data": "{\"timestamp\": 1756835451.4852166, \"event\": {\"timestamp_ns\": 1756835451442405888, \"agent_id\": \"berk\", \"domain\": \"drone\", \"source_format\": \"json\", \"position\": {\"x\": 6255608.002314848, \"y\": -30340214.725753885, \"z\": 0.0}, \"velocity\": {\"vx\": 2086.4080973361592, \"vy\": 0.0, \"vz\": 0.0}, \"acceleration\": {\"ax\": -0.187296450138092, \"ay\": 0.0, \"az\": 0.0}, \"orientation\": {\"yaw\": 0.0, \"pitch\": 0.0, \"roll\": 0.0}, \"sensor\": \"fusion\", \"extras\": {}, \"record_hash\": \"42a3bca285a4614af5b40f995e5e57a7bbf8bcb6ca271bfc834735101e66613b\", \"anomaly_flag\": -1}}", "sha3": "6d1a9c35aa4781c2c48919395881101d2bdbd586440ff674c8a556edf6e8a110dd35501fc4799ffa4ae6a30b727b71463eaa65fe665e39a61b8271ead0ce8149"}
{"data": "{\"timestamp\": 1756835451.5456698, \"event\": {\"timestamp_ns\": 1756835451506144000, \"agent_id\": \"berk\", \"domain\": \"drone\", \"source_format\": \"json\", \"position\": {\"x\": 6255816.640661598, \"y\": -30341375.310272425, \"z\": 0.0}, \"velocity\": {\"vx\": 2086.383467498885, \"vy\": 0.0, \"vz\": 0.0}, \"acceleration\": {\"ax\": -0.2462983727455139, \"ay\": 0.0, \"az\": 0.0}, \"orientation\": {\"yaw\": 0.0, \"pitch\": 0.0, \"roll\": 0.0}, \"sensor\": \"fusion\", \"extras\": {}, \"record_hash\": \"d103197700d64bc45535ba0c3f7cdcbdb599800480fe39cb05cf892567181aac\", \"anomaly_flag\": -1}}", "sha3": "afa0ee6b6228c974090355f0433e40bb564dbe3502d717285b5c66589a83b83e7d0b300e5ee2b09259369fc872816141f1d94a92ede48b9039a8bedc6b79da04"}
{"data": "{\"timestamp\": 1756835451.6073508, \"event\": {\"timestamp_ns\": 1756835451567387136, \"agent_id\": \"berk\", \"domain\": \"drone\", \"source_format\": \"json\", \"position\": {\"x\": 6256025.277145086, \"y\": -30342535.894396, \"z\": 0.0}, \"velocity\": {\"vx\": 2086.364834879802, \"vy\": 0.0, \"vz\": 0.0}, \"acceleration\": {\"ax\": -0.186326190829277, \"ay\": 0.0, \"az\": 0.0}, \"orientation\": {\"yaw\": 0.0, \"pitch\": 0.0, \"roll\": 0.0}, \"sensor\": \"fusion\", \"extras\": {}, \"record_hash\": \"e18cf06cd716d0be6cac6dda31a59ec1b889684241bb681fe9b227d0393b7dc3\", \"anomaly_flag\": -1}}", "sha3": "ba56a4bc200652ce09aa5992935c1fbf4a0b0e675cbfb4b652d98c683a4c9cf2bf233b34e05a97e4f83479768f7830ab845afcfe682cccccff3455f4f5ae1ed4"}
{"data": "{\"timestamp\": 1756835451.7036366, \"event\": {\"timestamp_ns\": 1756835451628467968, \"agent_id\": \"berk\", \"domain\": \"drone\", \"source_format\": \"json\", \"position\": {\"x\": 6256233.911945819, \"y\": -30343696.478929225, \"z\": 0.0}, \"velocity\": {\"vx\": 2086.348007333742, \"vy\": 0.0, \"vz\": 0.0}, \"acceleration\": {\"ax\": -0.1682754606008529, \"ay\": 0.0, \"az\": 0.0}, \"orientation\": {\"yaw\": 0.0, \"pitch\": 0.0, \"roll\": 0.0}, \"sensor\": \"fusion\", \"extras\": {}, \"record_hash\": \"eddcafb2c76b0860c64129b51de6a1c63fadca2191f2de7afeff94718031e64a\", \"anomaly_flag\": -1}}", "sha3": "95c959a4d7c8c15faa3ffb1273be95094be87c2afcc0736ac4e3cfdc5684bc68fcd1f933fd7132d047d75514ebff917dc43d89de0f0036eb72ed606a77355e07"}
{"data": "{\"timestamp\": 1756835451.7828138, \"event\": {\"timestamp_ns\": 1756835451724761856, \"agent_id\": \"berk\", \"domain\": \"drone\", \"source_format\": \"json\", \"position\": {\"x\": 6256442.5444835145, \"y\": -30344857.06305776, \"z\": 0.0}, \"velocity\": {\"vx\": 2086.325376955138, \"vy\": 0.0, \"vz\": 0.0}, \"acceleration\": {\"ax\": -0.2263037860393524, \"ay\": 0.0, \"az\": 0.0}, \"orientation\": {\"yaw\": 0.0, \"pitch\": 0.0, \"roll\": 0.0}, \"sensor\": \"fusion\", \"extras\": {}, \"record_hash\": \"9d800cc5e4d77baeace05c82231ea882035da22ab2180aa1e1bb3d4e7069535f\", \"anomaly_flag\": -1}}", "sha3": "d6b9e011b2956358d094c774ac23108929712c1ab05e520631c0bc66349766928395ae2b40e89bee744ce45a4d10fcc729f2d07efee9efd3debe0daadbb26ca4"}
{"data": "{\"timestamp\": 1756835451.8410952, \"event\": {\"timestamp_ns\": 1756835451803958016, \"agent_id\": \"berk\", \"domain\": \"drone\", \"source_format\": \"json\", \"position\": {\"x\": 6256651.174567979, \"y\": -30346017.646376863, \"z\": 0.0}, \"velocity\": {\"vx\": 2086.300844641493, \"vy\": 0.0, \"vz\": 0.0}, \"acceleration\": {\"ax\": -0.2453231364488601, \"ay\": 0.0, \"az\": 0.0}, \"orientation\": {\"yaw\": 0.0, \"pitch\": 0.0, \"roll\": 0.0}, \"sensor\": \"fusion\", \"extras\": {}, \"record_hash\": \"2f2277f164ff180036d4982245449a4f5da51cc6e55933a4c99931c693db4add\", \"anomaly_flag\": -1}}", "sha3": "fddcae1250e88c1a3eb5099f71cb5e5e3ca5fc3f6ce4f9089b6a00a9917f7d0d9994080a828e68bc0ba2bb0db2982d387122b16bec7f791813d98b687436cd50"}
{"data": "{\"timestamp\": 1756835451.8997056, \"event\": {\"timestamp_ns\": 1756835451862344960, \"agent_id\": \"berk\", \"domain\": \"drone\", \"source_format\": \"json\", \"position\": {\"x\": 6256859.802959986, \"y\": -30347178.230505504, \"z\": 0.0}, \"velocity\": {\"vx\": 2086.283920069502, \"vy\": 0.0, \"vz\": 0.0}, \"acceleration\": {\"ax\": -0.1692457199096679, \"ay\": 0.0, \"az\": 0.0}, \"orientation\": {\"yaw\": 0.0, \"pitch\": 0.0, \"roll\": 0.0}, \"sensor\": \"fusion\", \"extras\": {}, \"record_hash\": \"da831a822db49efd0774a8e8e0ae90b9014450cefac2c5f6a9cb33bd56354893\", \"anomaly_flag\": -1}}", "sha3": "83cac19e80c85932ffc8c5b32f6c50d0f035ecc21954ac70c94215d0821829d0ee2df81e85f9d789f7e3c362f1837497b4bbfe7a69188508e22a689e20fb5729"}
{"data": "{\"timestamp\": 1756835451.9637425, \"event\": {\"timestamp_ns\": 1756835451920954112, \"agent_id\": \"berk\", \"domain\": \"drone\", \"source_format\": \"json\", \"position\": {\"x\": 6257068.429279116, \"y\": -30348338.814634196, \"z\": 0.0}, \"velocity\": {\"vx\": 2086.2631912951333, \"vy\": 0.0, \"vz\": 0.0}, \"acceleration\": {\"ax\": -0.2072877436876297, \"ay\": 0.0, \"az\": 0.0}, \"orientation\": {\"yaw\": 0.0, \"pitch\": 0.0, \"roll\": 0.0}, \"sensor\": \"fusion\", \"extras\": {}, \"record_hash\": \"76e17164731702d65dc4d8626eb4c069fffee40d5303042a6c5c9dd2431a453a\", \"anomaly_flag\": -1}}", "sha3": "b32a43fde989984023a1b12010b9810139d06778ab462bdad35d5e60f3a00967c5ff89053bbe471c03d58e33ad82e1183547c5cb2dd17eb1f4bdbf3e3c9f3b10"}
{"data": "{\"timestamp\": 1756835452.023221, \"event\": {\"timestamp_ns\": 1756835451984914944, \"agent_id\": \"berk\", \"domain\": \"drone\", \"source_format\": \"json\", \"position\": {\"x\": 6257277.052954804, \"y\": -30349499.397548713, \"z\": 0.0}, \"velocity\": {\"vx\": 2086.236756882535, \"vy\": 0.0, \"vz\": 0.0}, \"acceleration\": {\"ax\": -0.2643441259860992, \"ay\": 0.0, \"az\": 0.0}, \"orientation\": {\"yaw\": 0.0, \"pitch\": 0.0, \"roll\": 0.0}, \"sensor\": \"fusion\", \"extras\": {}, \"record_hash\": \"ee3aec836442d907301d931617c302b05d498daef4a20aeb7301fc23e03876f2\", \"anomaly_flag\": -1}}", "sha3": "bd49b3c99606356e39aeddec6a7c737bef8f4185d485b45cf8414fed72377a6ab8cf79590c246dd7d4bf8035a1cd10c92f89990e1166e711c869b0347a19cc4a"}
{"data": "{\"timestamp\": 1756835452.0862038, \"event\": {\"timestamp_ns\": 1756835452044723968, \"agent_id\": \"berk\", \"domain\": \"drone\", \"source_format\": \"json\", \"position\": {\"x\": 6257485.674738122, \"y\": -30350659.981267903, \"z\": 0.0}, \"velocity\": {\"vx\": 2086.217833181189, \"vy\": 0.0, \"vz\": 0.0}, \"acceleration\": {\"ax\": -0.1892370134592056, \"ay\": 0.0, \"az\": 0.0}, \"orientation\": {\"yaw\": 0.0, \"pitch\": 0.0, \"roll\": 0.0}, \"sensor\": \"fusion\", \"extras\": {}, \"record_hash\": \"459c597f4dfbd65be45c0be14d4a5a6119c934403b68a9205081175b36c45852\", \"anomaly_flag\": -1}}", "sha3": "c375741646bfe4885e66bde2d15e850419c4c10279dac10873730b84fad159874c97b74c0025f9ef4d8db01f6906c26fae0200af2ee0df55571cd820692b82b0"}
{"data": "{\"timestamp\": 1756835452.1534145, \"event\": {\"timestamp_ns\": 1756835452107512832, \"agent_id\": \"berk\", \"domain\": \"drone\", \"source_format\": \"json\", \"position\": {\"x\": 6257694.294258386, \"y\": -30351820.564582404, \"z\": 0.0}, \"velocity\": {\"vx\": 2086.1952026356917, \"vy\": 0.0, \"vz\": 0.0}, \"acceleration\": {\"ax\": -0.2263054549694061, \"ay\": 0.0, \"az\": 0.0}, \"orientation\": {\"yaw\": 0.0, \"pitch\": 0.0, \"roll\": 0.0}, \"sensor\": \"fusion\", \"extras\": {}, \"record_hash\": \"82e139f2c0395eec6ff22427bc099c9383e76e57b335ffd3fb26c7c6896cd302\", \"anomaly_flag\": -1}}", "sha3": "22cf5563b9bff6877ea74608b61f106cbbf24904f2256838cecbf21fc426c73ccec87c5ca556e888a6bc4f239dcc5cbc58ecd8724e9b1302ea2839bf2c4dfc69"}
{"data": "{\"timestamp\": 1756835452.209832, \"event\": {\"timestamp_ns\": 1756835452174370048, \"agent_id\": \"berk\", \"domain\": \"drone\", \"source_format\": \"json\", \"position\": {\"x\": 6257902.9118960155, \"y\": -30352981.1483017, \"z\": 0.0}, \"velocity\": {\"vx\": 2086.1763762940627, \"vy\": 0.0, \"vz\": 0.0}, \"acceleration\": {\"ax\": -0.1882634162902832, \"ay\": 0.0, \"az\": 0.0}, \"orientation\": {\"yaw\": 0.0, \"pitch\": 0.0, \"roll\": 0.0}, \"sensor\": \"fusion\", \"extras\": {}, \"record_hash\": \"3083c9b43fe8b97f80a7fc5b78b6876e57ecf23f18be995276f18e0e84fb17df\", \"anomaly_flag\": -1}}", "sha3": "1c2f01780672dd2c6e9072c06a5cd767784d08ddc4ee4d1402cc896f153b5a1de78475f835b82199cfd893418b3d29074d56fb6b68c9204e43dbd9912e45cacc"}
{"data": "{\"timestamp\": 1756835452.2732263, \"event\": {\"timestamp_ns\": 1756835452230694912, \"agent_id\": \"berk\", \"domain\": \"drone\", \"source_format\": \"json\", \"position\": {\"x\": 6258111.527270574, \"y\": -30354141.731616303, \"z\": 0.0}, \"velocity\": {\"vx\": 2086.153745584653, \"vy\": 0.0, \"vz\": 0.0}, \"acceleration\": {\"ax\": -0.2263070940971374, \"ay\": 0.0, \"az\": 0.0}, \"orientation\": {\"yaw\": 0.0, \"pitch\": 0.0, \"roll\": 0.0}, \"sensor\": \"fusion\", \"extras\": {}, \"record_hash\": \"a2df3b12c3093456ed5b30ca21a106d9d80e72938ed5eb94f3fbb2d3b285aef1\", \"anomaly_flag\": -1}}", "sha3": "c3ee7aa7d3cb99524ea26477c64d2ea6df45dfee8a996e7d3169e75e728cdd864ef86ce289985562ec68f228c3573c400b818ba394431257417ddf12e64db5f6"}
{"data": "{\"timestamp\": 1756835452.3291492, \"event\": {\"timestamp_ns\": 1756835452294161920, \"agent_id\": \"berk\", \"domain\": \"drone\", \"source_format\": \"json\", \"position\": {\"x\": 6258320.140762449, \"y\": -30355302.315335702, \"z\": 0.0}, \"velocity\": {\"vx\": 2086.134918746815, \"vy\": 0.0, \"vz\": 0.0}, \"acceleration\": {\"ax\": -0.1882683783769607, \"ay\": 0.0, \"az\": 0.0}, \"orientation\": {\"yaw\": 0.0, \"pitch\": 0.0, \"roll\": 0.0}, \"sensor\": \"fusion\", \"extras\": {}, \"record_hash\": \"94f0c276c5062a3f7ad8f20ef2a5151ad39b4ee205de581896dbc4b5e6ea6b1b\", \"anomaly_flag\": -1}}", "sha3": "7ac4076dc948561394d2a650420ce8f522f1686cf4278b96cab14b71d6be7eeec294bfd3f1a47a844d5beaa1d1a9ea01070f27748ef2c8fb162550c9e99aa6cc"}
{"data": "{\"timestamp\": 1756835452.3840518, \"event\": {\"timestamp_ns\": 1756835452350009856, \"agent_id\": \"berk\", \"domain\": \"drone\", \"source_format\": \"json\", \"position\": {\"x\": 6258528.751991269, \"y\": -30356462.89865041, \"z\": 0.0}, \"velocity\": {\"vx\": 2086.112288201318, \"vy\": 0.0, \"vz\": 0.0}, \"acceleration\": {\"ax\": -0.2263054549694061, \"ay\": 0.0, \"az\": 0.0}, \"orientation\": {\"yaw\": 0.0, \"pitch\": 0.0, \"roll\": 0.0}, \"sensor\": \"fusion\", \"extras\": {}, \"record_hash\": \"6bc140c491ef58774899474ec30904405e83302b9797612ffceec9167278a3e1\", \"anomaly_flag\": -1}}", "sha3": "b5aa8acf21b659c8c114563fd9ad6129b49ace7998e56b504361b494a9237b7219e2848e356dc3210efccb49afb5bfc2a3dcf407e1e2789ebe91ccd6f24d24d2"}
{"data": "{\"timestamp\": 1756835452.4423063, \"event\": {\"timestamp_ns\": 1756835452405114880, \"agent_id\": \"berk\", \"domain\": \"drone\", \"source_format\": \"json\", \"position\": {\"x\": 6258737.3613471575, \"y\": -30357623.48197003, \"z\": 0.0}, \"velocity\": {\"vx\": 2086.0935588841294, \"vy\": 0.0, \"vz\": 0.0}, \"acceleration\": {\"ax\": -0.1872931718826294, \"ay\": 0.0, \"az\": 0.0}, \"orientation\": {\"yaw\": 0.0, \"pitch\": 0.0, \"roll\": 0.0}, \"sensor\": \"fusion\", \"extras\": {}, \"record_hash\": \"5a814c14b53d3c0fa2f94bbc5347afe4e8a45bf5e3ebff4a7d9fb9e3e37e2e57\", \"anomaly_flag\": -1}}", "sha3": "c0b36e3fd87f992d19f070066a29c4697594eb2a492e5d8730c91210d454d56f39d9b8fdefde4490ca593e06f140985e07c4525d39b1e3da1e17d4d13b6a0371"}
{"data": "{\"timestamp\": 1756835452.5024886, \"event\": {\"timestamp_ns\": 1756835452463668224, \"agent_id\": \"berk\", \"domain\": \"drone\", \"source_format\": \"json\", \"position\": {\"x\": 6258945.968454174, \"y\": -30358784.06528484, \"z\": 0.0}, \"velocity\": {\"vx\": 2086.071070158944, \"vy\": 0.0, \"vz\": 0.0}, \"acceleration\": {\"ax\": -0.2248872518539428, \"ay\": 0.0, \"az\": 0.0}, \"orientation\": {\"yaw\": 0.0, \"pitch\": 0.0, \"roll\": 0.0}, \"sensor\": \"fusion\", \"extras\": {}, \"record_hash\": \"770ffd5f61e59cbfc00271c72510afaa4d2495220e113824635d7b4aec8f8d20\", \"anomaly_flag\": -1}}", "sha3": "5b5e71593e30cd8455d8ea463da35a59237db026ae9252eae0cb21fb9add5f505c57f6b5226fa0b1dbf6bc209f0ec776e7e94326d9c1d1c2cb73bb621d8b612c"}
{"data": "{\"timestamp\": 1756835452.570345, \"event\": {\"timestamp_ns\": 1756835452523629824, \"agent_id\": \"berk\", \"domain\": \"drone\", \"source_format\": \"json\", \"position\": {\"x\": 6259154.5734824315, \"y\": -30359944.648999587, \"z\": 0.0}, \"velocity\": {\"vx\": 2086.0502825726726, \"vy\": 0.0, \"vz\": 0.0}, \"acceleration\": {\"ax\": -0.2078758627176284, \"ay\": 0.0, \"az\": 0.0}, \"orientation\": {\"yaw\": 0.0, \"pitch\": 0.0, \"roll\": 0.0}, \"sensor\": \"fusion\", \"extras\": {}, \"record_hash\": \"507f84f2f5b58d35e63282a352d1f918431eade2271ede114c586f276df1f100\", \"anomaly_flag\": -1}}", "sha3": "dbe77749598957c2bbe4493a318ce8b66adfab31943186b621cce49901f89de663372118e9e303f9865746ce45d5f32d6e16913ad14099826c137e2f5a5c3485"}
{"data": "{\"timestamp\": 1756835452.6282074, \"event\": {\"timestamp_ns\": 1756835452591502848, \"agent_id\": \"berk\", \"domain\": \"drone\", \"source_format\": \"json\", \"position\": {\"x\": 6259363.176413142, \"y\": -30361105.233114265, \"z\": 0.0}, \"velocity\": {\"vx\": 2086.02930710809, \"vy\": 0.0, \"vz\": 0.0}, \"acceleration\": {\"ax\": -0.2097546458244324, \"ay\": 0.0, \"az\": 0.0}, \"orientation\": {\"yaw\": 0.0, \"pitch\": 0.0, \"roll\": 0.0}, \"sensor\": \"fusion\", \"extras\": {}, \"record_hash\": \"8b7cd539724643ba6caf4a0fec3e885ab6a52e0b5959bf0169a43ec892d94045\", \"anomaly_flag\": -1}}", "sha3": "364a7608e0e8492bd2a0df245c25449d4bbc03e66fc655176b9adc1c36c8cc142943ffe46e4492efe8abb0c860839fd87fc17f0144d96887f6ff71cf20120f08"}
{"data": "{\"timestamp\": 1756835452.6899865, \"event\": {\"timestamp_ns\": 1756835452649319936, \"agent_id\": \"berk\", \"domain\": \"drone\", \"source_format\": \"json\", \"position\": {\"x\": 6259571.777649269, \"y\": -30362265.81763859, \"z\": 0.0}, \"velocity\": {\"vx\": 2086.012361273632, \"vy\": 0.0, \"vz\": 0.0}, \"acceleration\": {\"ax\": -0.1694583445787429, \"ay\": 0.0, \"az\": 0.0}, \"orientation\": {\"yaw\": 0.0, \"pitch\": 0.0, \"roll\": 0.0}, \"sensor\": \"fusion\", \"extras\": {}, \"record_hash\": \"284a973c7d33809a510ba6a807c74882228dff71057661b618810dd0007dab26\", \"anomaly_flag\": -1}}", "sha3": "5a21cb28dab7ac3e49014133c7e76d15759908899e63ab88d29f8db0c78aae7bac1c34f2eb300c61c298fb1c5d5db137d6101c4a33c5931a405ab970bd991900"}
{"data": "{\"timestamp\": 1756835452.7539365, \"event\": {\"timestamp_ns\": 1756835452711066112, \"agent_id\": \"berk\", \"domain\": \"drone\", \"source_format\": \"json\", \"position\": {\"x\": 6259780.376798837, \"y\": -30363426.402562838, \"z\": 0.0}, \"velocity\": {\"vx\": 2085.991495676801, \"vy\": 0.0, \"vz\": 0.0}, \"acceleration\": {\"ax\": -0.2086559683084488, \"ay\": 0.0, \"az\": 0.0}, \"orientation\": {\"yaw\": 0.0, \"pitch\": 0.0, \"roll\": 0.0}, \"sensor\": \"fusion\", \"extras\": {}, \"record_hash\": \"fa549230564efc7f4d132924a82821777761bb8b27812954b48d654ef53220c6\", \"anomaly_flag\": -1}}", "sha3": "27fd3fe3f487b96d6ac2967017c4d82fa11722e2d9537819cdea0b4b762baa8ba8fdf6ca5d504877f1561ed8a501f3697ad24bb244840798cf12c1b79a3bf3a0"}
{"data": "{\"timestamp\": 1756835452.8166847, \"event\": {\"timestamp_ns\": 1756835452774817024, \"agent_id\": \"berk\", \"domain\": \"drone\", \"source_format\": \"json\", \"position\": {\"x\": 6259988.9740810385, \"y\": -30364586.987491988, \"z\": 0.0}, \"velocity\": {\"vx\": 2085.97282201247, \"vy\": 0.0, \"vz\": 0.0}, \"acceleration\": {\"ax\": -0.1867366433143616, \"ay\": 0.0, \"az\": 0.0}, \"orientation\": {\"yaw\": 0.0, \"pitch\": 0.0, \"roll\": 0.0}, \"sensor\": \"fusion\", \"extras\": {}, \"record_hash\": \"efb5c727eb0d681d340e8b0c6b65cb3cedf37cbd649f28b86b2b0e06cf8fee3b\", \"anomaly_flag\": -1}}", "sha3": "f42d7ceaf331d602525dbd186182ddb379e26646534533bbc2d4e5bf1df33797dd27a6758d0c899b105dd774901ad20abf426f1881accbc6c21bbd9ede2b84ae"}
{"data": "{\"timestamp\": 1756835452.8760138, \"event\": {\"timestamp_ns\": 1756835452837862912, \"agent_id\": \"berk\", \"domain\": \"drone\", \"source_format\": \"json\", \"position\": {\"x\": 6260197.569282293, \"y\": -30365747.572821055, \"z\": 0.0}, \"velocity\": {\"vx\": 2085.9520125527833, \"vy\": 0.0, \"vz\": 0.0}, \"acceleration\": {\"ax\": -0.2080945968627929, \"ay\": 0.0, \"az\": 0.0}, \"orientation\": {\"yaw\": 0.0, \"pitch\": 0.0, \"roll\": 0.0}, \"sensor\": \"fusion\", \"extras\": {}, \"record_hash\": \"11cb21ed03a0278adaf0f88e3e1bf23691287d645a606d5da1d2049fee0a0360\", \"anomaly_flag\": -1}}", "sha3": "d4ec44ec10d2f20b50f9d6be8730b8e48fafaa64eaa18c6a13fcae5f6e1183979b45d05308cc5862f2a8e13210dbf93cf4dc673273c7f7a5b0233f3229db8827"}
{"data": "{\"timestamp\": 1756835452.9436042, \"event\": {\"timestamp_ns\": 1756835452897031936, \"agent_id\": \"berk\", \"domain\": \"drone\", \"source_format\": \"json\", \"position\": {\"x\": 6260406.162607294, \"y\": -30366908.158554897, \"z\": 0.0}, \"velocity\": {\"vx\": 2085.9332500060054, \"vy\": 0.0, \"vz\": 0.0}, \"acceleration\": {\"ax\": -0.1876254677772522, \"ay\": 0.0, \"az\": 0.0}, \"orientation\": {\"yaw\": 0.0, \"pitch\": 0.0, \"roll\": 0.0}, \"sensor\": \"fusion\", \"extras\": {}, \"record_hash\": \"4c5d88fced5da04e0299f0d2dc574610208a60946fa5a1d6665525e6df11cfaf\", \"anomaly_flag\": -1}}", "sha3": "940eae0372f1b81cc3cb58509db207930a4d00df15ee96e6499752febc992268d608ebca7acce9a382eb6f8680967c3b221c7deb85bd29129f543a60426d0d44"}
{"data": "{\"timestamp\": 1756835453.0498414, \"event\": {\"timestamp_ns\": 1756835452964723968, \"agent_id\": \"berk\", \"domain\": \"drone\", \"source_format\": \"json\", \"position\": {\"x\": 6260614.754068228, \"y\": -30368068.744293634, \"z\": 0.0}, \"velocity\": {\"vx\": 2085.9146093447657, \"vy\": 0.0, \"vz\": 0.0}, \"acceleration\": {\"ax\": -0.1864066123962402, \"ay\": 0.0, \"az\": 0.0}, \"orientation\": {\"yaw\": 0.0, \"pitch\": 0.0, \"roll\": 0.0}, \"sensor\": \"fusion\", \"extras\": {}, \"record_hash\": \"7d47c97463f9332022efe9ab5574d8797bee3b0e28bbb5ed33c5cae6007a987f\", \"anomaly_flag\": -1}}", "sha3": "21e9e385cb9fc6d3cb735e7fb28c3e7e5dbac3bc37cb61da36fb228dd28945da637a44091772825c2c7df869e25936e624b1c997acbf5fcf992a6b7d8e25f024"}
{"data": "{\"timestamp\": 1756835453.132384, \"event\": {\"timestamp_ns\": 1756835453071037952, \"agent_id\": \"berk\", \"domain\": \"drone\", \"source_format\": \"json\", \"position\": {\"x\": 6260823.343076824, \"y\": -30369229.329222914, \"z\": 0.0}, \"velocity\": {\"vx\": 2085.890085956916, \"vy\": 0.0, \"vz\": 0.0}, \"acceleration\": {\"ax\": -0.245233878493309, \"ay\": 0.0, \"az\": 0.0}, \"orientation\": {\"yaw\": 0.0, \"pitch\": 0.0, \"roll\": 0.0}, \"sensor\": \"fusion\", \"extras\": {}, \"record_hash\": \"4b6726ab648fdb7ed771c4b6a329abb41949025a432b9a8ad9103923c2552855\", \"anomaly_flag\": -1}}", "sha3": "c2c482b9d986f888709a31152873d3b72665ad1099eb75d1545081be90ac9b13cbcadedf77e24a36ae38901ecfc41a0150124e42a36a36551c5f20866e2d2881"}
{"data": "{\"timestamp\": 1756835453.219487, \"event\": {\"timestamp_ns\": 1756835453154976000, \"agent_id\": \"berk\", \"domain\": \"drone\", \"source_format\": \"json\", \"position\": {\"x\": 6261031.9300273005, \"y\": -30370389.914152216, \"z\": 0.0}, \"velocity\": {\"vx\": 2085.8695047666283, \"vy\": 0.0, \"vz\": 0.0}, \"acceleration\": {\"ax\": -0.2058119028806686, \"ay\": 0.0, \"az\": 0.0}, \"orientation\": {\"yaw\": 0.0, \"pitch\": 0.0, \"roll\": 0.0}, \"sensor\": \"fusion\", \"extras\": {}, \"record_hash\": \"e1a48681286252cc133101bd7cb615dc3ac79f970a0b7abe963118d12c35fe79\", \"anomaly_flag\": -1}}", "sha3": "dd9e4eb91e3da9971771b6f027092c7482b054c21eb1936a574caeec17b77ce5429f0c4df12215bfc6bfdc26c8319ea2d2234f08c0f97e3e227d98c47b70da4d"}
{"data": "{\"timestamp\": 1756835453.3148234, \"event\": {\"timestamp_ns\": 1756835453242697984, \"agent_id\": \"berk\", \"domain\": \"drone\", \"source_format\": \"json\", \"position\": {\"x\": 6261240.514913852, \"y\": -30371550.499081533, \"z\": 0.0}, \"velocity\": {\"vx\": 2085.8488655154556, \"vy\": 0.0, \"vz\": 0.0}, \"acceleration\": {\"ax\": -0.2063925117254256, \"ay\": 0.0, \"az\": 0.0}, \"orientation\": {\"yaw\": 0.0, \"pitch\": 0.0, \"roll\": 0.0}, \"sensor\": \"fusion\", \"extras\": {}, \"record_hash\": \"7e5fdafc8e323c456f6b7e1b364c42ec45cf1987266145adfed5d0bbe42437a3\", \"anomaly_flag\": -1}}", "sha3": "f113d28d1a9d3a9c132953c78fd9e04af7fdac2e3b7d892850d478187b6eddd953860219a4d933e5dd55b04c7f158fa9cea88e45c6b694d5f504f1cb9265940e"}
{"data": "{\"timestamp\": 1756835453.70475, \"event\": {\"timestamp_ns\": 1756835453340073984, \"agent_id\": \"berk\", \"domain\": \"drone\", \"source_format\": \"json\", \"position\": {\"x\": 6261449.097920229, \"y\": -30372711.084815487, \"z\": 0.0}, \"velocity\": {\"vx\": 2085.8300637637226, \"vy\": 0.0, \"vz\": 0.0}, \"acceleration\": {\"ax\": -0.1880175173282623, \"ay\": 0.0, \"az\": 0.0}, \"orientation\": {\"yaw\": 0.0, \"pitch\": 0.0, \"roll\": 0.0}, \"sensor\": \"fusion\", \"extras\": {}, \"record_hash\": \"4a616afb01681e8b2ba0683552c22b6767feee81fe5b0f70255f6b64f482573a\", \"anomaly_flag\": -1}}", "sha3": "a2ccc78c6016509cb054249fcd7116868d64b88d48e1659e7ed9fd9434efee91ca4bf854668295448f0f832ab0da85fcc8b800ddaae01c48b85f18073d9ff997"}
{"data": "{\"timestamp\": 1756835453.779648, \"event\": {\"timestamp_ns\": 1756835453726078976, \"agent_id\": \"berk\", \"domain\": \"drone\", \"source_format\": \"json\", \"position\": {\"x\": 6261657.679261205, \"y\": -30373871.670959048, \"z\": 0.0}, \"velocity\": {\"vx\": 2085.8134097565858, \"vy\": 0.0, \"vz\": 0.0}, \"acceleration\": {\"ax\": -0.1665400713682174, \"ay\": 0.0, \"az\": 0.0}, \"orientation\": {\"yaw\": 0.0, \"pitch\": 0.0, \"roll\": 0.0}, \"sensor\": \"fusion\", \"extras\": {}, \"record_hash\": \"5a7d647242cba34df856c557313e529ce8654e061bd5bf3235e0ee4be3b4a782\", \"anomaly_flag\": -1}}", "sha3": "367f5824be15819d2ed88c5c72c5de3281f710595b9671a126c71b35c048a9ac65f976c36888f1eb952aeeaa1ab718b98f2cb0ae1ff0e68cef547f7fddb4d93f"}
{"data": "{\"timestamp\": 1756835453.8914034, \"event\": {\"timestamp_ns\": 1756835453801014016, \"agent_id\": \"berk\", \"domain\": \"drone\", \"source_format\": \"json\", \"position\": {\"x\": 6261866.258160358, \"y\": -30375032.256293125, \"z\": 0.0}, \"velocity\": {\"vx\": 2085.7889915351716, \"vy\": 0.0, \"vz\": 0.0}, \"acceleration\": {\"ax\": -0.244182214140892, \"ay\": 0.0, \"az\": 0.0}, \"orientation\": {\"yaw\": 0.0, \"pitch\": 0.0, \"roll\": 0.0}, \"sensor\": \"fusion\", \"extras\": {}, \"record_hash\": \"bb04eef6a39a3ee8f9a7c1caf0b2f23927b3187662930b0c6e75d9571394e23c\", \"anomaly_flag\": -1}}", "sha3": "3959b275ccf45ce47090d4267fd96bbbdfaef5b272ed61b2a1237ef6c82caf3d160d84050317616b3465eb900c3ba9735bdf47647b2ab8d6d9784668a60a1fda"}
{"data": "{\"timestamp\": 1756835454.008663, \"event\": {\"timestamp_ns\": 1756835453912623872, \"agent_id\": \"berk\", \"domain\": \"drone\", \"source_format\": \"json\", \"position\": {\"x\": 6262074.835201189, \"y\": -30376192.841632064, \"z\": 0.0}, \"velocity\": {\"vx\": 2085.770408303007, \"vy\": 0.0, \"vz\": 0.0}, \"acceleration\": {\"ax\": -0.1858323216438293, \"ay\": 0.0, \"az\": 0.0}, \"orientation\": {\"yaw\": 0.0, \"pitch\": 0.0, \"roll\": 0.0}, \"sensor\": \"fusion\", \"extras\": {}, \"record_hash\": \"90cb21b3cc5aa442c6bf85db51a330efa5284b579b1e013cea5e073676a18e05\", \"anomaly_flag\": -1}}", "sha3": "2228c79695c477a6098f75c57f97527bf67fca038437e60fa30ff789ca5c0d2e329b71317a798cdcc48508f272527649ea0be218919bb5b572c19671d26e4585"}
{"data": "{\"timestamp\": 1756835454.0979953, \"event\": {\"timestamp_ns\": 1756835454029508096, \"agent_id\": \"berk\", \"domain\": \"drone\", \"source_format\": \"json\", \"position\": {\"x\": 6262283.41076326, \"y\": -30377353.42778535, \"z\": 0.0}, \"velocity\": {\"vx\": 2085.7556207139937, \"vy\": 0.0, \"vz\": 0.0}, \"acceleration\": {\"ax\": -0.147875890135765, \"ay\": 0.0, \"az\": 0.0}, \"orientation\": {\"yaw\": 0.0, \"pitch\": 0.0, \"roll\": 0.0}, \"sensor\": \"fusion\", \"extras\": {}, \"record_hash\": \"59210d516e756dce204fca4a675bbab2a63ba7621b92265a2899b0a362a24a90\", \"anomaly_flag\": -1}}", "sha3": "627617604f4ab8718cbf434599f8b537c211e411416e74a1ff57def16d179f469581ec237193a1cdc9f08d6d23749900496d0a07cb2b2503884a83acf5331941"}
{"data": "{\"timestamp\": 1756835454.2124338, \"event\": {\"timestamp_ns\": 1756835454119236096, \"agent_id\": \"berk\", \"domain\": \"drone\", \"source_format\": \"json\", \"position\": {\"x\": 6262491.9842662, \"y\": -30378514.014738396, \"z\": 0.0}, \"velocity\": {\"vx\": 2085.7350294013468, \"vy\": 0.0, \"vz\": 0.0}, \"acceleration\": {\"ax\": -0.2059131264686584, \"ay\": 0.0, \"az\": 0.0}, \"orientation\": {\"yaw\": 0.0, \"pitch\": 0.0, \"roll\": 0.0}, \"sensor\": \"fusion\", \"extras\": {}, \"record_hash\": \"be34618862a22ed23fbbee0bc630d3a3b3aad73ebb5c2220abb6b1e24ad9d87c\", \"anomaly_flag\": -1}}", "sha3": "f01a059c673bc263d2b745b89329ee3ddde34a36880a3b4cb6de8f251e53eacd968eb3d0ce11680cba0a94f9aafc75863086748fe20290372540af61262d7a5b"}
{"data": "{\"timestamp\": 1756835454.3151166, \"event\": {\"timestamp_ns\": 1756835454235717120, \"agent_id\": \"berk\", \"domain\": \"drone\", \"source_format\": \"json\", \"position\": {\"x\": 6262700.555313593, \"y\": -30379674.60128184, \"z\": 0.0}, \"velocity\": {\"vx\": 2085.7104739298074, \"vy\": 0.0, \"vz\": 0.0}, \"acceleration\": {\"ax\": -0.2455547153949737, \"ay\": 0.0, \"az\": 0.0}, \"orientation\": {\"yaw\": 0.0, \"pitch\": 0.0, \"roll\": 0.0}, \"sensor\": \"fusion\", \"extras\": {}, \"record_hash\": \"ea631e1e7f3875b6720e4eef26272488ed1b75cdac45c6344d37cb61f25f544b\", \"anomaly_flag\": -1}}", "sha3": "9833d1d587bfceafb90c98698c740db0bfaaeb8699ab9144a25dffca01cb53eb6baa3a62d5bf76b026b5c937551829eca0179db3abd6b8848c0574f623115204"}
{"data": "{\"timestamp\": 1756835454.396711, \"event\": {\"timestamp_ns\": 1756835454336889856, \"agent_id\": \"berk\", \"domain\": \"drone\", \"source_format\": \"json\", \"position\": {\"x\": 6262909.124115563, \"y\": -30380835.187420543, \"z\": 0.0}, \"velocity\": {\"vx\": 2085.68801969783, \"vy\": 0.0, \"vz\": 0.0}, \"acceleration\": {\"ax\": -0.2245423197746276, \"ay\": 0.0, \"az\": 0.0}, \"orientation\": {\"yaw\": 0.0, \"pitch\": 0.0, \"roll\": 0.0}, \"sensor\": \"fusion\", \"extras\": {}, \"record_hash\": \"338b940eef2b90d7331e1724b1822265ef99aa48bb16b0d063b5fe779ef1fb71\", \"anomaly_flag\": -1}}", "sha3": "de3c165889e03420b04a66b1ed052f72efa74bb82c1ec37a8b1a22f36ad3bc94138835ea02d8a60d02e31ccf2d549106723eeb064e7ae1b366b3548ff814f785"}
{"data": "{\"timestamp\": 1756835454.5000093, \"event\": {\"timestamp_ns\": 1756835454417924864, \"agent_id\": \"berk\", \"domain\": \"drone\", \"source_format\": \"json\", \"position\": {\"x\": 6263117.691043856, \"y\": -30381995.773963988, \"z\": 0.0}, \"velocity\": {\"vx\": 2085.669282930061, \"vy\": 0.0, \"vz\": 0.0}, \"acceleration\": {\"ax\": -0.1873676776885986, \"ay\": 0.0, \"az\": 0.0}, \"orientation\": {\"yaw\": 0.0, \"pitch\": 0.0, \"roll\": 0.0}, \"sensor\": \"fusion\", \"extras\": {}, \"record_hash\": \"70b1ae7d9ea98ce58b9a90b8929598a4c754447e880f421a7576187658e27c3e\", \"anomaly_flag\": -1}}", "sha3": "f2c44e82b82a917e76f6b16289feb9d57f6ea370bf9bbe708b0dd7b357fee4250d238d73aa677805cd88644c630976eddb5f7b6fa5e1ba8bbda5bdc96babf654"}
{"data": "{\"timestamp\": 1756835454.5952804, \"event\": {\"timestamp_ns\": 1756835454521145088, \"agent_id\": \"berk\", \"domain\": \"drone\", \"source_format\": \"json\", \"position\": {\"x\": 6263326.255721357, \"y\": -30383156.36010269, \"z\": 0.0}, \"velocity\": {\"vx\": 2085.6467750091997, \"vy\": 0.0, \"vz\": 0.0}, \"acceleration\": {\"ax\": -0.225079208612442, \"ay\": 0.0, \"az\": 0.0}, \"orientation\": {\"yaw\": 0.0, \"pitch\": 0.0, \"roll\": 0.0}, \"sensor\": \"fusion\", \"extras\": {}, \"record_hash\": \"625ab39402355bb79e09b48e2c82301289d8b1c111bf1971b161e4577261abb0\", \"anomaly_flag\": -1}}", "sha3": "8de09cddcefaba285e061194e5aaf7fbeec89212c929d2a289f41cd8c3c5dd960441f46006368ecf72514f3a0cf65c9efe33851312674f9cb05cf0537b3f35a9"}
{"data": "{\"timestamp\": 1756835454.6733475, \"event\": {\"timestamp_ns\": 1756835454616379904, \"agent_id\": \"berk\", \"domain\": \"drone\", \"source_format\": \"json\", \"position\": {\"x\": 6263534.818156866, \"y\": -30384316.945836652, \"z\": 0.0}, \"velocity\": {\"vx\": 2085.6243550945965, \"vy\": 0.0, \"vz\": 0.0}, \"acceleration\": {\"ax\": -0.2241991460323333, \"ay\": 0.0, \"az\": 0.0}, \"orientation\": {\"yaw\": 0.0, \"pitch\": 0.0, \"roll\": 0.0}, \"sensor\": \"fusion\", \"extras\": {}, \"record_hash\": \"12385c4507f890c285dbd8bf17aacd37ac59c76888ec87acf89f166a4d65777a\", \"anomaly_flag\": -1}}", "sha3": "f2ea87a207a6d508c1ede78df4ecfca7b5107803b8c8c720fefb35a779664871efe2894b70b56e01dca0c66daf7be6a425580984333760f939b7d31cdd2d61bf"}
{"data": "{\"timestamp\": 1756835454.7560816, \"event\": {\"timestamp_ns\": 1756835454694326016, \"agent_id\": \"berk\", \"domain\": \"drone\", \"source_format\": \"json\", \"position\": {\"x\": 6263743.378337499, \"y\": -30385477.53116587, \"z\": 0.0}, \"velocity\": {\"vx\": 2085.601806323692, \"vy\": 0.0, \"vz\": 0.0}, \"acceleration\": {\"ax\": -0.2254877090454101, \"ay\": 0.0, \"az\": 0.0}, \"orientation\": {\"yaw\": 0.0, \"pitch\": 0.0, \"roll\": 0.0}, \"sensor\": \"fusion\", \"extras\": {}, \"record_hash\": \"056a0fff35272ceed111e7a9463f5ba36f7729152485ff57c9fccf07057ddce1\", \"anomaly_flag\": -1}}", "sha3": "06f045528e0abc62a3ae155fc2612ac23f1fd6d52dc9fbcb6507faf51de329c1f80c0e5fed69101d7788ba2ebb53cff2b7b1496488484318e3537a51074e92c9"}
{"data": "{\"timestamp\": 1756835454.8361995, \"event\": {\"timestamp_ns\": 1756835454777817088, \"agent_id\": \"berk\", \"domain\": \"drone\", \"source_format\": \"json\", \"position\": {\"x\": 6263951.936272381, \"y\": -30386638.11609035, \"z\": 0.0}, \"velocity\": {\"vx\": 2085.5793488224, \"vy\": 0.0, \"vz\": 0.0}, \"acceleration\": {\"ax\": -0.224575012922287, \"ay\": 0.0, \"az\": 0.0}, \"orientation\": {\"yaw\": 0.0, \"pitch\": 0.0, \"roll\": 0.0}, \"sensor\": \"fusion\", \"extras\": {}, \"record_hash\": \"2959d0cc7b45a786cf7e1b562478728da0ac87f2f54e021d0596e6214d11abc7\", \"anomaly_flag\": -1}}", "sha3": "28f71a4a535247bc00fd42da36d9627222b80b046c13c789be20ffdea5987b525667b9782340d97e35bf6b6acc6f904f3668ab34221053fb9e52eb36a7d34e7c"}
{"data": "{\"timestamp\": 1756835454.9251287, \"event\": {\"timestamp_ns\": 1756835454857728000, \"agent_id\": \"berk\", \"domain\": \"drone\", \"source_format\": \"json\", \"position\": {\"x\": 6264160.4923396045, \"y\": -30387798.70141957, \"z\": 0.0}, \"velocity\": {\"vx\": 2085.560672237441, \"vy\": 0.0, \"vz\": 0.0}, \"acceleration\": {\"ax\": -0.1867658495903015, \"ay\": 0.0, \"az\": 0.0}, \"orientation\": {\"yaw\": 0.0, \"pitch\": 0.0, \"roll\": 0.0}, \"sensor\": \"fusion\", \"extras\": {}, \"record_hash\": \"12d9e566f0aa39211baa51ec88d0182bb75b09848a434c67e45366c0db202e18\", \"anomaly_flag\": -1}}", "sha3": "64ed43c56b90856b812384a9ef0ba121bd9d264d2d638a2902e93cd226423924ac76ede79fdcd0bb6bc91809d736f9ff5b700886be19d22a592af3ec4a732704"}
{"data": "{\"timestamp\": 1756835455.0210705, \"event\": {\"timestamp_ns\": 1756835454952950016, \"agent_id\": \"berk\", \"domain\": \"drone\", \"source_format\": \"json\", \"position\": {\"x\": 6264369.046553682, \"y\": -30388959.28675365, \"z\": 0.0}, \"velocity\": {\"vx\": 2085.5421407674403, \"vy\": 0.0, \"vz\": 0.0}, \"acceleration\": {\"ax\": -0.1853147000074386, \"ay\": 0.0, \"az\": 0.0}, \"orientation\": {\"yaw\": 0.0, \"pitch\": 0.0, \"roll\": 0.0}, \"sensor\": \"fusion\", \"extras\": {}, \"record_hash\": \"7e52befd914ae91a994e738afa241156141e92f9b33c51f8dbea4e223ed93107\", \"anomaly_flag\": -1}}", "sha3": "632f7bb72328331a3e79dd4d1fbbdd954c0f609f0da4a8014cc2ff662ca99174512dc6399318dc41b3e0b15640138f4076d1c842ad4f50aed0b38094a4ce674f"}
{"data": "{\"timestamp\": 1756835455.1270409, \"event\": {\"timestamp_ns\": 1756835455047842048, \"agent_id\": \"berk\", \"domain\": \"drone\", \"source_format\": \"json\", \"position\": {\"x\": 6264577.5983268, \"y\": -30390119.87127825, \"z\": 0.0}, \"velocity\": {\"vx\": 2085.51773119019, \"vy\": 0.0, \"vz\": 0.0}, \"acceleration\": {\"ax\": -0.2440957725048065, \"ay\": 0.0, \"az\": 0.0}, \"orientation\": {\"yaw\": 0.0, \"pitch\": 0.0, \"roll\": 0.0}, \"sensor\": \"fusion\", \"extras\": {}, \"record_hash\": \"06fcb3d18fe07b26a5dcef043afadb9bc5d1666272dbad4873c35bcf9b72fe23\", \"anomaly_flag\": -1}}", "sha3": "c0e796c75febe40b609884a6bd9cb7d584ea5c63463325f1317d87deacf6189767a92c56f66b69f7bf92956026869970ca7850aec7b75706f29b19390bc3a29d"}
{"data": "{\"timestamp\": 1756835455.2496564, \"event\": {\"timestamp_ns\": 1756835455148092928, \"agent_id\": \"berk\", \"domain\": \"drone\", \"source_format\": \"json\", \"position\": {\"x\": 6264786.148227961, \"y\": -30391280.45620759, \"z\": 0.0}, \"velocity\": {\"vx\": 2085.49901160644, \"vy\": 0.0, \"vz\": 0.0}, \"acceleration\": {\"ax\": -0.1871958374977112, \"ay\": 0.0, \"az\": 0.0}, \"orientation\": {\"yaw\": 0.0, \"pitch\": 0.0, \"roll\": 0.0}, \"sensor\": \"fusion\", \"extras\": {}, \"record_hash\": \"6e0874b61540daa38bb36f3f144b13f4637ecbf2e3fd2a6912c2487169f117df\", \"anomaly_flag\": -1}}", "sha3": "19540752dedf89b0b4813cc202ac6e5ec8fa5df5718cc39d1ac11588894c1dacc7823b11687aea6f725eefe7cd09f0848f501bd5533f5f0b0d717c30104bc751"}
{"data": "{\"timestamp\": 1756835455.3289793, \"event\": {\"timestamp_ns\": 1756835455270523904, \"agent_id\": \"berk\", \"domain\": \"drone\", \"source_format\": \"json\", \"position\": {\"x\": 6264994.696076943, \"y\": -30392441.041136928, \"z\": 0.0}, \"velocity\": {\"vx\": 2085.4784898196312, \"vy\": 0.0, \"vz\": 0.0}, \"acceleration\": {\"ax\": -0.2052178680896759, \"ay\": 0.0, \"az\": 0.0}, \"orientation\": {\"yaw\": 0.0, \"pitch\": 0.0, \"roll\": 0.0}, \"sensor\": \"fusion\", \"extras\": {}, \"record_hash\": \"259b3cbbce230fc54f1f9620acbd84e5b2b38331a4ba162194661d7a50795f11\", \"anomaly_flag\": -1}}", "sha3": "b305ad867d311a9826d4f16c04945fc692a6610bbc54afa4865d21ed08dfc56167af928cdaf27303598838b4a4d6754bbf8526f3728368152ca681c50d7dff95"}
{"data": "{\"timestamp\": 1756835455.4347966, \"event\": {\"timestamp_ns\": 1756835455350192128, \"agent_id\": \"berk\", \"domain\": \"drone\", \"source_format\": \"json\", \"position\": {\"x\": 6265203.242073054, \"y\": -30393601.626071125, \"z\": 0.0}, \"velocity\": {\"vx\": 2085.459961122737, \"vy\": 0.0, \"vz\": 0.0}, \"acceleration\": {\"ax\": -0.1852869689464569, \"ay\": 0.0, \"az\": 0.0}, \"orientation\": {\"yaw\": 0.0, \"pitch\": 0.0, \"roll\": 0.0}, \"sensor\": \"fusion\", \"extras\": {}, \"record_hash\": \"6f645fc7dd475a93dc7606ef791068acd3c1d61d1ee528692c532fc6fc0cc35f\", \"anomaly_flag\": -1}}", "sha3": "8714a3d82580290c9ed22437f01af30b54f023b03a47b64b98f88244b6a7ef192aef0527723146a5b6bb19b65164e5fc2028f152ec65cdb65498af5363794017"}
{"data": "{\"timestamp\": 1756835455.509918, \"event\": {\"timestamp_ns\": 1756835455455650048, \"agent_id\": \"berk\", \"domain\": \"drone\", \"source_format\": \"json\", \"position\": {\"x\": 6265411.786181804, \"y\": -30394762.21220983, \"z\": 0.0}, \"velocity\": {\"vx\": 2085.4410874892924, \"vy\": 0.0, \"vz\": 0.0}, \"acceleration\": {\"ax\": -0.1887363344430923, \"ay\": 0.0, \"az\": 0.0}, \"orientation\": {\"yaw\": 0.0, \"pitch\": 0.0, \"roll\": 0.0}, \"sensor\": \"fusion\", \"extras\": {}, \"record_hash\": \"2172caf16e8703d239eb6db8a056bf347c5a2ea82647e356e55df996ca1fe623\", \"anomaly_flag\": -1}}", "sha3": "95ddc580760e5abad11803c9912662c62b460f12ffcf3aad352644ee5dd4ee6cf71df63cb78144a5aeb29136510dea994e01bbb54cb466bbf44907733a6713de"}
{"data": "{\"timestamp\": 1756835455.597444, \"event\": {\"timestamp_ns\": 1756835455531506176, \"agent_id\": \"berk\", \"domain\": \"drone\", \"source_format\": \"json\", \"position\": {\"x\": 6265620.3286131285, \"y\": -30395922.799158018, \"z\": 0.0}, \"velocity\": {\"vx\": 2085.4243132476663, \"vy\": 0.0, \"vz\": 0.0}, \"acceleration\": {\"ax\": -0.1677424162626266, \"ay\": 0.0, \"az\": 0.0}, \"orientation\": {\"yaw\": 0.0, \"pitch\": 0.0, \"roll\": 0.0}, \"sensor\": \"fusion\", \"extras\": {}, \"record_hash\": \"af02979575f334c2b94e8709c2e23385f36cf1db6c290c4ddf7741f4d3666bc2\", \"anomaly_flag\": -1}}", "sha3": "cbac96ef31dca0a4cfd4d8c32b939bbb9ae3e52274181c7dfc279fba1f7df528efab6291fcc645b1ea1a31f2091f248722a451b1a48f8df40316ed51eb9c535b"}
{"data": "{\"timestamp\": 1756835455.6746922, \"event\": {\"timestamp_ns\": 1756835455618526976, \"agent_id\": \"berk\", \"domain\": \"drone\", \"source_format\": \"json\", \"position\": {\"x\": 6265828.8689632155, \"y\": -30397083.387305852, \"z\": 0.0}, \"velocity\": {\"vx\": 2085.4035008658625, \"vy\": 0.0, \"vz\": 0.0}, \"acceleration\": {\"ax\": -0.2081238180398941, \"ay\": 0.0, \"az\": 0.0}, \"orientation\": {\"yaw\": 0.0, \"pitch\": 0.0, \"roll\": 0.0}, \"sensor\": \"fusion\", \"extras\": {}, \"record_hash\": \"ba661f9c6c53d2a56123421225f06dd91d59eecfd4928a10a8c27974288397c4\", \"anomaly_flag\": -1}}", "sha3": "69605561d4bfc32c8e708fa7f496a06ceb5535a57394ff2ae6cd887070a143f3487c9e7cb4be42646546d8cd7de4d15d76ae1c4dcb5cb6829da3d37a4948af2c"}
{"data": "{\"timestamp\": 1756835455.7414672, \"event\": {\"timestamp_ns\": 1756835455695672064, \"agent_id\": \"berk\", \"domain\": \"drone\", \"source_format\": \"json\", \"position\": {\"x\": 6266037.407247473, \"y\": -30398243.97585357, \"z\": 0.0}, \"velocity\": {\"vx\": 2085.382842568026, \"vy\": 0.0, \"vz\": 0.0}, \"acceleration\": {\"ax\": -0.2065829783678054, \"ay\": 0.0, \"az\": 0.0}, \"orientation\": {\"yaw\": 0.0, \"pitch\": 0.0, \"roll\": 0.0}, \"sensor\": \"fusion\", \"extras\": {}, \"record_hash\": \"c1057b67aae1ccd186c4b1bf088df3c50e1ad24532c6634c5c5b8f1dbd2b3b90\", \"anomaly_flag\": -1}}", "sha3": "9bb3820da1348b2780409b2088fc2570fb7ce4c25d914b52fb9761e8089ddc206051282f85f04d178b51070b865461939a9eda627006f9d7ae7afb1d660d929e"}
{"data": "{\"timestamp\": 1756835455.8115757, \"event\": {\"timestamp_ns\": 1756835455762680064, \"agent_id\": \"berk\", \"domain\": \"drone\", \"source_format\": \"json\", \"position\": {\"x\": 6266245.943659202, \"y\": -30399404.56520591, \"z\": 0.0}, \"velocity\": {\"vx\": 2085.3641172935227, \"vy\": 0.0, \"vz\": 0.0}, \"acceleration\": {\"ax\": -0.1872527450323104, \"ay\": 0.0, \"az\": 0.0}, \"orientation\": {\"yaw\": 0.0, \"pitch\": 0.0, \"roll\": 0.0}, \"sensor\": \"fusion\", \"extras\": {}, \"record_hash\": \"023049334540594fdb2332d11f283d2fab120fdec268485384aff177e5e598eb\", \"anomaly_flag\": -1}}", "sha3": "2a07b46f6b7d018f2bc36dd359818ed4e1d115e06844075c9e867fdd012b50887ff7a67fc44cb6d0b2fc2913037bdbbd90c059fcd0d833d51176d304af6a7e78"}
{"data": "{\"timestamp\": 1756835455.877869, \"event\": {\"timestamp_ns\": 1756835455832807168, \"agent_id\": \"berk\", \"domain\": \"drone\", \"source_format\": \"json\", \"position\": {\"x\": 6266454.477834585, \"y\": -30400565.153753627, \"z\": 0.0}, \"velocity\": {\"vx\": 2085.3417538304784, \"vy\": 0.0, \"vz\": 0.0}, \"acceleration\": {\"ax\": -0.2236346304416656, \"ay\": 0.0, \"az\": 0.0}, \"orientation\": {\"yaw\": 0.0, \"pitch\": 0.0, \"roll\": 0.0}, \"sensor\": \"fusion\", \"extras\": {}, \"record_hash\": \"403287c6d50f85b96b60c153a8083c2be160897787703a683387a1726ba99a95\", \"anomaly_flag\": -1}}", "sha3": "7f0fa0c87d3e890739f96e99307a3b6bc30d1ae122c72e10860d2586f870f1ce0d82d9c13b919dece036b195df08f7839f688db4097c4336830e7f137d9addde"}
{"data": "{\"timestamp\": 1756835455.9392107, \"event\": {\"timestamp_ns\": 1756835455899108864, \"agent_id\": \"berk\", \"domain\": \"drone\", \"source_format\": \"json\", \"position\": {\"x\": 6266663.009774489, \"y\": -30401725.74149672, \"z\": 0.0}, \"velocity\": {\"vx\": 2085.3193990443806, \"vy\": 0.0, \"vz\": 0.0}, \"acceleration\": {\"ax\": -0.2235478609800338, \"ay\": 0.0, \"az\": 0.0}, \"orientation\": {\"yaw\": 0.0, \"pitch\": 0.0, \"roll\": 0.0}, \"sensor\": \"fusion\", \"extras\": {}, \"record_hash\": \"05afcbc82b5bf3f02b07675ce2982d54712fe9dff3b461b4b02e8c08cff159fc\", \"anomaly_flag\": -1}}", "sha3": "196224e2708261142e0e3be32541fed7aa113e01b39c7e8e77e5d74ff571166af3f0336c437d692eea652f621dce88d390f421f3253566f12660dd42b58570d0"}
{"data": "{\"timestamp\": 1756835456.0039163, \"event\": {\"timestamp_ns\": 1756835455960300800, \"agent_id\": \"berk\", \"domain\": \"drone\", \"source_format\": \"json\", \"position\": {\"x\": 6266871.539856571, \"y\": -30402886.329244673, \"z\": 0.0}, \"velocity\": {\"vx\": 2085.300820817516, \"vy\": 0.0, \"vz\": 0.0}, \"acceleration\": {\"ax\": -0.1857822686433792, \"ay\": 0.0, \"az\": 0.0}, \"orientation\": {\"yaw\": 0.0, \"pitch\": 0.0, \"roll\": 0.0}, \"sensor\": \"fusion\", \"extras\": {}, \"record_hash\": \"8326b106d2204f6b4a72ef0963677553c8ee97efa071ece98a60a981ba0c4bc8\", \"anomaly_flag\": -1}}", "sha3": "7cc60feafb342174182c928acf8662d46e8195237195cebc5823b9aa859317d17afcc88cd91a509c585b977f498b42cce4e45958bbab72f88070a5b56bf7c80b"}
{"data": "{\"timestamp\": 1756835456.06511, \"event\": {\"timestamp_ns\": 1756835456025309184, \"agent_id\": \"berk\", \"domain\": \"drone\", \"source_format\": \"json\", \"position\": {\"x\": 6267080.067683537, \"y\": -30404046.916987713, \"z\": 0.0}, \"velocity\": {\"vx\": 2085.278269662426, \"vy\": 0.0, \"vz\": 0.0}, \"acceleration\": {\"ax\": -0.2255115509033203, \"ay\": 0.0, \"az\": 0.0}, \"orientation\": {\"yaw\": 0.0, \"pitch\": 0.0, \"roll\": 0.0}, \"sensor\": \"fusion\", \"extras\": {}, \"record_hash\": \"45d5a6a90398fe024e5fb5d93600e9f8bc3f81047fc6542a4a8ffd936da3a753\", \"anomaly_flag\": -1}}", "sha3": "5a89dfd051b864041701ed34828d98e3b0671d87d25ea4bc7f17a37bc3fa98c79aba6526441e67a8907836ddc0b594fc168604c7b94e5c2ba4b21d3c824f5ee6"}
{"data": "{\"timestamp\": 1756835456.1261876, \"event\": {\"timestamp_ns\": 1756835456086426112, \"agent_id\": \"berk\", \"domain\": \"drone\", \"source_format\": \"json\", \"position\": {\"x\": 6267288.593260816, \"y\": -30405207.50432596, \"z\": 0.0}, \"velocity\": {\"vx\": 2085.255772795246, \"vy\": 0.0, \"vz\": 0.0}, \"acceleration\": {\"ax\": -0.224968671798706, \"ay\": 0.0, \"az\": 0.0}, \"orientation\": {\"yaw\": 0.0, \"pitch\": 0.0, \"roll\": 0.0}, \"sensor\": \"fusion\", \"extras\": {}, \"record_hash\": \"5de5b4f271668675443f9738f9775910b72516f80a5aeb8ad6dfe0c193d4be75\", \"anomaly_flag\": -1}}", "sha3": "837ceb6fd90a11f4b48cdc192928207d8f3ac429b5e42f7e15dd14b6fdabf316e0c965f1e997308fc539e00ab09594af85222910c356ad5019278b3a6638c811"}
{"data": "{\"timestamp\": 1756835456.195868, \"event\": {\"timestamp_ns\": 1756835456147088128, \"agent_id\": \"berk\", \"domain\": \"drone\", \"source_format\": \"json\", \"position\": {\"x\": 6267497.117156899, \"y\": -30406368.092473637, \"z\": 0.0}, \"velocity\": {\"vx\": 2085.2389608253693, \"vy\": 0.0, \"vz\": 0.0}, \"acceleration\": {\"ax\": -0.1681196987628936, \"ay\": 0.0, \"az\": 0.0}, \"orientation\": {\"yaw\": 0.0, \"pitch\": 0.0, \"roll\": 0.0}, \"sensor\": \"fusion\", \"extras\": {}, \"record_hash\": \"107b8c030fc5f19aac3fab50a77cace6c96a396a20e528d28bddea91a7e1e1b5\", \"anomaly_flag\": -1}}", "sha3": "b47ef117439e1dae9efd162831d757f1f7d965b8d55a9d3f9321b8a9203c64e806db9347f6f96e8d85f8b48769ae67a3e7a1d2691f5409aa6e5a33dbb63165a1"}
{"data": "{\"timestamp\": 1756835456.2584727, \"event\": {\"timestamp_ns\": 1756835456217307136, \"agent_id\": \"berk\", \"domain\": \"drone\", \"source_format\": \"json\", \"position\": {\"x\": 6267705.638831408, \"y\": -30407528.679416757, \"z\": 0.0}, \"velocity\": {\"vx\": 2085.2167450954175, \"vy\": 0.0, \"vz\": 0.0}, \"acceleration\": {\"ax\": -0.2221572995185852, \"ay\": 0.0, \"az\": 0.0}, \"orientation\": {\"yaw\": 0.0, \"pitch\": 0.0, \"roll\": 0.0}, \"sensor\": \"fusion\", \"extras\": {}, \"record_hash\": \"429c7619463b4c221da41b7022338b687bd84d5e734e61dff31570c915f1b026\", \"anomaly_flag\": -1}}", "sha3": "75bd97de76c3f56b0ffac0bfea54f791178c528d02d615198a47ac37076f82fcb6fefc3d07ab779b2b2be4b7b9711ba15db2a9cb5d4a427af591860cc26bd5ff"}
{"data": "{\"timestamp\": 1756835456.3228393, \"event\": {\"timestamp_ns\": 1756835456279924992, \"agent_id\": \"berk\", \"domain\": \"drone\", \"source_format\": \"json\", \"position\": {\"x\": 6267914.158633979, \"y\": -30408689.266764566, \"z\": 0.0}, \"velocity\": {\"vx\": 2085.1980257083633, \"vy\": 0.0, \"vz\": 0.0}, \"acceleration\": {\"ax\": -0.1871938705444336, \"ay\": 0.0, \"az\": 0.0}, \"orientation\": {\"yaw\": 0.0, \"pitch\": 0.0, \"roll\": 0.0}, \"sensor\": \"fusion\", \"extras\": {}, \"record_hash\": \"88eeeb3eab1262e429dc4c8a8c9a697296233f3111e11e9158e95e13dc1fa4a2\", \"anomaly_flag\": -1}}", "sha3": "f5c7f6368c440ad66a917646c7405791dae27e63f3ea37c86040ba06ba5d29fcca48f533893ba13fc2db7e59d5134773f6817cb23a6d6f5c850493224706fef8"}
{"data": "{\"timestamp\": 1756835456.3824017, \"event\": {\"timestamp_ns\": 1756835456344120064, \"agent_id\": \"berk\", \"domain\": \"drone\", \"source_format\": \"json\", \"position\": {\"x\": 6268122.676189989, \"y\": -30409849.854107466, \"z\": 0.0}, \"velocity\": {\"vx\": 2085.175560097859, \"vy\": 0.0, \"vz\": 0.0}, \"acceleration\": {\"ax\": -0.2246561050415039, \"ay\": 0.0, \"az\": 0.0}, \"orientation\": {\"yaw\": 0.0, \"pitch\": 0.0, \"roll\": 0.0}, \"sensor\": \"fusion\", \"extras\": {}, \"record_hash\": \"f65a70a5032b6835c49823f15c6d5e12a7c443923e5838b59bbff4c588b2eeb9\", \"anomaly_flag\": -1}}", "sha3": "7d24603e7f9dcfc52b7ae8dcb01b07729531cd42a8048a71ba8849e3f2e71d86f731856a4edc9d22767302d9e247d3108c0ffdae0de214a1be8859962b9a5b00"}
{"data": "{\"timestamp\": 1756835456.447539, \"event\": {\"timestamp_ns\": 1756835456403785984, \"agent_id\": \"berk\", \"domain\": \"drone\", \"source_format\": \"json\", \"position\": {\"x\": 6268331.1914873505, \"y\": -30411010.441045567, \"z\": 0.0}, \"velocity\": {\"vx\": 2085.1529736210564, \"vy\": 0.0, \"vz\": 0.0}, \"acceleration\": {\"ax\": -0.2258647680282593, \"ay\": 0.0, \"az\": 0.0}, \"orientation\": {\"yaw\": 0.0, \"pitch\": 0.0, \"roll\": 0.0}, \"sensor\": \"fusion\", \"extras\": {}, \"record_hash\": \"03f78301fa4767e01bbd4da84673d6d22e00dd227022ba53cce1363407f3d56e\", \"anomaly_flag\": -1}}", "sha3": "df3bcf5323ac0981c6f91f09567decc7362af7affc094330b498907072b50899cb6281ea6c87aaa1decf9cf1ed009e9455f6a4762468c8b8314babc7facdf9dc"}
{"data": "{\"timestamp\": 1756835456.5165927, \"event\": {\"timestamp_ns\": 1756835456469038848, \"agent_id\": \"berk\", \"domain\": \"drone\", \"source_format\": \"json\", \"position\": {\"x\": 6268539.704741431, \"y\": -30412171.027583737, \"z\": 0.0}, \"velocity\": {\"vx\": 2085.132540809081, \"vy\": 0.0, \"vz\": 0.0}, \"acceleration\": {\"ax\": -0.2043281197547913, \"ay\": 0.0, \"az\": 0.0}, \"orientation\": {\"yaw\": 0.0, \"pitch\": 0.0, \"roll\": 0.0}, \"sensor\": \"fusion\", \"extras\": {}, \"record_hash\": \"24cb20784473f6ef2f324d4e8fa51c8461f7639ed1702008ab2f5cc13bd1bd6b\", \"anomaly_flag\": -1}}", "sha3": "d474c133545c6bf0cfc27019a526754a11d73b1ee48a9d32d93c620a5ac1739d4ebbb2ae1804344455b0b0ec4184cae890cae2c7ad5d680cd9f4ed1f01f51a47"}
{"data": "{\"timestamp\": 1756835456.5777361, \"event\": {\"timestamp_ns\": 1756835456537751808, \"agent_id\": \"berk\", \"domain\": \"drone\", \"source_format\": \"json\", \"position\": {\"x\": 6268748.216121791, \"y\": -30413331.614926424, \"z\": 0.0}, \"velocity\": {\"vx\": 2085.1138035912973, \"vy\": 0.0, \"vz\": 0.0}, \"acceleration\": {\"ax\": -0.1873721778392792, \"ay\": 0.0, \"az\": 0.0}, \"orientation\": {\"yaw\": 0.0, \"pitch\": 0.0, \"roll\": 0.0}, \"sensor\": \"fusion\", \"extras\": {}, \"record_hash\": \"def4d388a112f1220ccec1651c86fec6bd834a0196f77b807aab64d7ce29ca9f\", \"anomaly_flag\": -1}}", "sha3": "a15b9d0df66b5cb6671c2622df8bb3c693316b566d394ba608dfd88260c989643a70e66a9d3c5ad513ebc3a10b12ce5b7e16e86fc1dad5d9d76b25a6559a5373"}
{"data": "{\"timestamp\": 1756835456.6373782, \"event\": {\"timestamp_ns\": 1756835456598747904, \"agent_id\": \"berk\", \"domain\": \"drone\", \"source_format\": \"json\", \"position\": {\"x\": 6268956.725047846, \"y\": -30414492.202259287, \"z\": 0.0}, \"velocity\": {\"vx\": 2085.0892605562667, \"vy\": 0.0, \"vz\": 0.0}, \"acceleration\": {\"ax\": -0.2454303503036499, \"ay\": 0.0, \"az\": 0.0}, \"orientation\": {\"yaw\": 0.0, \"pitch\": 0.0, \"roll\": 0.0}, \"sensor\": \"fusion\", \"extras\": {}, \"record_hash\": \"f3d3ab4f248239b4279728769f2accb142c9640b30a330aef557ab19db6ec595\", \"anomaly_flag\": -1}}", "sha3": "bf7f28d6343aecfb33785332ce3ab286625d2d3a4947779fb9aac197f77a7ebdcb016a90d4c3ca8acb34fb29b7c838339ea777557db5ceea0b5bb418b9c2fd54"}
{"data": "{\"timestamp\": 1756835456.7058966, \"event\": {\"timestamp_ns\": 1756835456658662144, \"agent_id\": \"berk\", \"domain\": \"drone\", \"source_format\": \"json\", \"position\": {\"x\": 6269165.231934529, \"y\": -30415652.789192166, \"z\": 0.0}, \"velocity\": {\"vx\": 2085.0688668240764, \"vy\": 0.0, \"vz\": 0.0}, \"acceleration\": {\"ax\": -0.2039373219013214, \"ay\": 0.0, \"az\": 0.0}, \"orientation\": {\"yaw\": 0.0, \"pitch\": 0.0, \"roll\": 0.0}, \"sensor\": \"fusion\", \"extras\": {}, \"record_hash\": \"38fffc7c05752a9bea002e71db03ace5f594232f8ff27b37bb073d7d402b9c59\", \"anomaly_flag\": -1}}", "sha3": "6520624950b1bb9dc3a8e0f9d19fb11dba00fdeec45de1f52aa8c7d5f7145268298399c3d5dc603f4d48d2baa7fcb642bcde1d559ae01057a74b3b712f7249bb"}
{"data": "{\"timestamp\": 1756835456.766867, \"event\": {\"timestamp_ns\": 1756835456728226816, \"agent_id\": \"berk\", \"domain\": \"drone\", \"source_format\": \"json\", \"position\": {\"x\": 6269373.73657194, \"y\": -30416813.375720195, \"z\": 0.0}, \"velocity\": {\"vx\": 2085.0463741113404, \"vy\": 0.0, \"vz\": 0.0}, \"acceleration\": {\"ax\": -0.2249271273612976, \"ay\": 0.0, \"az\": 0.0}, \"orientation\": {\"yaw\": 0.0, \"pitch\": 0.0, \"roll\": 0.0}, \"sensor\": \"fusion\", \"extras\": {}, \"record_hash\": \"e7bd03bea45a469b1fcc09dade1ad70bcd1fa061d2d25e987fde81b9fbbe5f39\", \"anomaly_flag\": -1}}", "sha3": "2d264b59781d2df2d2ffbc9c97791146b86913d56b5deca37be91ab6e23a3d4f7efeb82bf71f8179f4e4b00cfd302e28925785647287770f4f9647d95dc80ba9"}
{"data": "{\"timestamp\": 1756835456.8323483, \"event\": {\"timestamp_ns\": 1756835456788009984, \"agent_id\": \"berk\", \"domain\": \"drone\", \"source_format\": \"json\", \"position\": {\"x\": 6269582.239343383, \"y\": -30417973.962652862, \"z\": 0.0}, \"velocity\": {\"vx\": 2085.027714436219, \"vy\": 0.0, \"vz\": 0.0}, \"acceleration\": {\"ax\": -0.1865967512130737, \"ay\": 0.0, \"az\": 0.0}, \"orientation\": {\"yaw\": 0.0, \"pitch\": 0.0, \"roll\": 0.0}, \"sensor\": \"fusion\", \"extras\": {}, \"record_hash\": \"c36f8f1f8e922e1601a698d400bfb0ef171a816571088353833e8c5cc84a7b49\", \"anomaly_flag\": -1}}", "sha3": "03e7505dc79b5a9e37c535f98c80d431857d6b7b5853a30845017ffcf1c1abcb4e48c80791dd0e588e3f254f9318bc4410fce1553709eb244ba440efa4e50164"}
{"data": "{\"timestamp\": 1756835456.8923237, \"event\": {\"timestamp_ns\": 1756835456853293056, \"agent_id\": \"berk\", \"domain\": \"drone\", \"source_format\": \"json\", \"position\": {\"x\": 6269790.740262502, \"y\": -30419134.549190402, \"z\": 0.0}, \"velocity\": {\"vx\": 2085.0091911812283, \"vy\": 0.0, \"vz\": 0.0}, \"acceleration\": {\"ax\": -0.1852325499057769, \"ay\": 0.0, \"az\": 0.0}, \"orientation\": {\"yaw\": 0.0, \"pitch\": 0.0, \"roll\": 0.0}, \"sensor\": \"fusion\", \"extras\": {}, \"record_hash\": \"4f2b56d333b6cef6c4206bebff2894e8529ec7beb970f05a32cdaba84cd44edf\", \"anomaly_flag\": -1}}", "sha3": "cbd0b6215c0f26d220f8d314aaf034c0bbea7000a23c6582ab18e8143dfb3e1e47733e5a11c72cf04468870c36b7360173f9fdc957c12db2da062e3f8dc86019"}
