{"data": "{\"timestamp\": 1756835649.4623628, \"event\": {\"timestamp_ns\": 1756835649415270144, \"agent_id\": \"hurcan\", \"domain\": \"drone\", \"source_format\": \"json\", \"position\": {\"x\": 1460424.7999192367, \"y\": -5306612.687753114, \"z\": 0.0}, \"velocity\": {\"vx\": 861.570759074804, \"vy\": 0.0, \"vz\": 0.0}, \"acceleration\": {\"ax\": -0.1504092812538147, \"ay\": 0.0, \"az\": 0.0}, \"orientation\": {\"yaw\": 0.0, \"pitch\": 0.0, \"roll\": 0.0}, \"sensor\": \"fusion\", \"extras\": {}, \"record_hash\": \"bfe465fe66ce6b07d4c67d4cfc04fa867f557e6154b6738869c1c44d6caabd31\", \"anomaly_flag\": -1}}", "sha3": "cd261548f12948cf8ea48b24a4d9b07497451500e9966dc47bf6b103762d5346de792685203c4935c78cb775b317d125e4a57bd5098cebcc79f4883dbfacc14f"}
{"data": "{\"timestamp\": 1756835649.5368, \"event\": {\"timestamp_ns\": 1756835649483678976, \"agent_id\": \"hurcan\", \"domain\": \"drone\", \"source_format\": \"json\", \"position\": {\"x\": 1460510.9545206297, \"y\": -5307048.814743361, \"z\": 0.0}, \"velocity\": {\"vx\": 861.5460139293639, \"vy\": 0.0, \"vz\": 0.0}, \"acceleration\": {\"ax\": -0.2474514544010162, \"ay\": 0.0, \"az\": 0.0}, \"orientation\": {\"yaw\": 0.0, \"pitch\": 0.0, \"roll\": 0.0}, \"sensor\": \"fusion\", \"extras\": {}, \"record_hash\": \"b1360927803f6dc045d7fb354660ba3e09b8af32480e084c0fa177fff1f94238\", \"anomaly_flag\": -1}}", "sha3": "a537f2ed7404e5a29d22fc88aa464cdb98b9b317b3d81510f33c0ff92680ffc4f3503208419b8eefd4c253df496e7d1c9b98f63ffb65947f36a3647600baf89c"}
{"data": "{\"timestamp\": 1756835649.6165779, \"event\": {\"timestamp_ns\": 1756835649557878016, \"agent_id\": \"hurcan\", \"domain\": \"drone\", \"source_format\": \"json\", \"position\": {\"x\": 1460597.1066572606, \"y\": -5307484.941324049, \"z\": 0.0}, \"velocity\": {\"vx\": 861.5213663090435, \"vy\": 0.0, \"vz\": 0.0}, \"acceleration\": {\"ax\": -0.2464762032032013, \"ay\": 0.0, \"az\": 0.0}, \"orientation\": {\"yaw\": 0.0, \"pitch\": 0.0, \"roll\": 0.0}, \"sensor\": \"fusion\", \"extras\": {}, \"record_hash\": \"e90b489fb10e855e997a0da8ca84ff133e519a1f22d035c8cbeb2b4567092a21\", \"anomaly_flag\": -1}}", "sha3": "121ba5fd42ce69136dd42af98ba14e8d8f8df57b8c1210f986f188a2ab172f0bbe886dcb74971bfd3db2b180b974577efc1236492f963c4bf4913a6c884ccbac"}
{"data": "{\"timestamp\": 1756835649.6805568, \"event\": {\"timestamp_ns\": 1756835649637803008, \"agent_id\": \"hurcan\", \"domain\": \"drone\", \"source_format\": \"json\", \"position\": {\"x\": 1460683.256728856, \"y\": -5307921.067504897, \"z\": 0.0}, \"velocity\": {\"vx\": 861.5007159535256, \"vy\": 0.0, \"vz\": 0.0}, \"acceleration\": {\"ax\": -0.2065035551786422, \"ay\": 0.0, \"az\": 0.0}, \"orientation\": {\"yaw\": 0.0, \"pitch\": 0.0, \"roll\": 0.0}, \"sensor\": \"fusion\", \"extras\": {}, \"record_hash\": \"80002eee5258064fca97c10a4e29d499afc0a5f1d140687e184e06cc58a08df4\", \"anomaly_flag\": -1}}", "sha3": "5b3c574642974bae1d2d71fc78ee5a2ea273f0528caaf060679602a8ba11c21bf39f067243664c7bfc61af468fbfea15f1c60e354535436ca86be18c2aa5733b"}
{"data": "{\"timestamp\": 1756835649.7591836, \"event\": {\"timestamp_ns\": 1756835649701656064, \"agent_id\": \"hurcan\", \"domain\": \"drone\", \"source_format\": \"json\", \"position\": {\"x\": 1460769.4047354157, \"y\": -5308357.193285906, \"z\": 0.0}, \"velocity\": {\"vx\": 861.4800655980077, \"vy\": 0.0, \"vz\": 0.0}, \"acceleration\": {\"ax\": -0.2065035551786422, \"ay\": 0.0, \"az\": 0.0}, \"orientation\": {\"yaw\": 0.0, \"pitch\": 0.0, \"roll\": 0.0}, \"sensor\": \"fusion\", \"extras\": {}, \"record_hash\": \"3b3fd40f8b850906cd15cfd972459fc3bafcac037d585de03f1a5ededaca7ecf\", \"anomaly_flag\": -1}}", "sha3": "71f94b1e6ce80f3b5a9cd3bacce3978dea1e101317352884030a0ed9726d163306cb1336de91c09a528ed4f9c7839b8c54118f03a917b0123ec21e48f19c2a00"}
{"data": "{\"timestamp\": 1756835649.8231277, \"event\": {\"timestamp_ns\": 1756835649780679936, \"agent_id\": \"hurcan\", \"domain\": \"drone\", \"source_format\": \"json\", \"position\": {\"x\": 1460855.550647897, \"y\": -5308793.3198667215, \"z\": 0.0}, \"velocity\": {\"vx\": 861.4591248114076, \"vy\": 0.0, \"vz\": 0.0}, \"acceleration\": {\"ax\": -0.2094078660011291, \"ay\": 0.0, \"az\": 0.0}, \"orientation\": {\"yaw\": 0.0, \"pitch\": 0.0, \"roll\": 0.0}, \"sensor\": \"fusion\", \"extras\": {}, \"record_hash\": \"930b528b5b8bfb48c3bf7cefccb7cd282ad736cd2096346edfa07be03fb2caed\", \"anomaly_flag\": -1}}", "sha3": "c3f06a32f18b6168b4355dc55f67cd48dd4549fd8d9dd99acee946e3372507e4a8d983720463da16b537847f3d8039541599b1dba8c50232e3f3d1f72b2b705d"}
{"data": "{\"timestamp\": 1756835649.8901422, \"event\": {\"timestamp_ns\": 1756835649844482816, \"agent_id\": \"hurcan\", \"domain\": \"drone\", \"source_format\": \"json\", \"position\": {\"x\": 1460941.6946856019, \"y\": -5309229.446452441, \"z\": 0.0}, \"velocity\": {\"vx\": 861.440377049562, \"vy\": 0.0, \"vz\": 0.0}, \"acceleration\": {\"ax\": -0.1874776184558868, \"ay\": 0.0, \"az\": 0.0}, \"orientation\": {\"yaw\": 0.0, \"pitch\": 0.0, \"roll\": 0.0}, \"sensor\": \"fusion\", \"extras\": {}, \"record_hash\": \"feed2fb1e3dd535fcb1b36986101feef3d82e17b01c12204f57ff38e4ed7307c\", \"anomaly_flag\": -1}}", "sha3": "d551055449404b87713f2cf0eb95bc134b1107f806f4e866cde35c34cadffe22f70ee1bbbac4e6d1ae0f1a8578a804ca26484bba8df4e680c746a23a1d855696"}
{"data": "{\"timestamp\": 1756835649.955213, \"event\": {\"timestamp_ns\": 1756835649911305984, \"agent_id\": \"hurcan\", \"domain\": \"drone\", \"source_format\": \"json\", \"position\": {\"x\": 1461027.8362779508, \"y\": -5309665.571828835, \"z\": 0.0}, \"velocity\": {\"vx\": 861.4159234900442, \"vy\": 0.0, \"vz\": 0.0}, \"acceleration\": {\"ax\": -0.2445355951786041, \"ay\": 0.0, \"az\": 0.0}, \"orientation\": {\"yaw\": 0.0, \"pitch\": 0.0, \"roll\": 0.0}, \"sensor\": \"fusion\", \"extras\": {}, \"record_hash\": \"d66185c8ee8a1b9398b3e697666ab731523e56e21f674db4bc84a09cd6ab4a5a\", \"anomaly_flag\": -1}}", "sha3": "30338f993d3c876e6996a8381596678aa96b59db9dc5396d1497dccf427b695f6281d5c6cb6abeca21babccdb65a7da9e2bb50f7d6ed0d80c859c13881c32da9"}
{"data": "{\"timestamp\": 1756835650.0126991, \"event\": {\"timestamp_ns\": 1756835649976560128, \"agent_id\": \"hurcan\", \"domain\": \"drone\", \"source_format\": \"json\", \"position\": {\"x\": 1461113.975605434, \"y\": -5310101.696800529, \"z\": 0.0}, \"velocity\": {\"vx\": 861.393274833676, \"vy\": 0.0, \"vz\": 0.0}, \"acceleration\": {\"ax\": -0.2264865636825561, \"ay\": 0.0, \"az\": 0.0}, \"orientation\": {\"yaw\": 0.0, \"pitch\": 0.0, \"roll\": 0.0}, \"sensor\": \"fusion\", \"extras\": {}, \"record_hash\": \"8b19185f011d7715b98a05f1446a91e855c024e0aa1499cfbdd1382e2f8b6c5f\", \"anomaly_flag\": -1}}", "sha3": "bb877d9e30813c7eef0041b9f8e8af17feb74964e741792cdb896e94d79e9d4441b89b8dfb953da67d03f2f56ab5bc09d7238eacd1402accc8e39007ba993779"}
{"data": "{\"timestamp\": 1756835650.0764866, \"event\": {\"timestamp_ns\": 1756835650033648128, \"agent_id\": \"hurcan\", \"domain\": \"drone\", \"source_format\": \"json\", \"position\": {\"x\": 1461200.1132483343, \"y\": -5310537.822181869, \"z\": 0.0}, \"velocity\": {\"vx\": 861.376429002401, \"vy\": 0.0, \"vz\": 0.0}, \"acceleration\": {\"ax\": -0.1684583127498626, \"ay\": 0.0, \"az\": 0.0}, \"orientation\": {\"yaw\": 0.0, \"pitch\": 0.0, \"roll\": 0.0}, \"sensor\": \"fusion\", \"extras\": {}, \"record_hash\": \"9ba7a27cccf55d3eb8db8a345bbbc29309c1434813e4c75ac5f6fb9b499e7c36\", \"anomaly_flag\": -1}}", "sha3": "dd40ba54b86e23cda976cfc19e653264f7452725818e8e17e270cb54d40984f09b0a1d8e45c7e8e7296f745bdb86b62a78d5891ec8e667ab53964feb47ab4ab2"}
{"data": "{\"timestamp\": 1756835650.145113, \"event\": {\"timestamp_ns\": 1756835650097612032, \"agent_id\": \"hurcan\", \"domain\": \"drone\", \"source_format\": \"json\", \"position\": {\"x\": 1461286.2488262318, \"y\": -5310973.94716337, \"z\": 0.0}, \"velocity\": {\"vx\": 861.3557789761987, \"vy\": 0.0, \"vz\": 0.0}, \"acceleration\": {\"ax\": -0.2065002620220184, \"ay\": 0.0, \"az\": 0.0}, \"orientation\": {\"yaw\": 0.0, \"pitch\": 0.0, \"roll\": 0.0}, \"sensor\": \"fusion\", \"extras\": {}, \"record_hash\": \"94ff2867022beefe73378e4ab852877cfa807ef0a0dbcffe57e283b92030e712\", \"anomaly_flag\": -1}}", "sha3": "c861dd9e9ab17da18a02111f37f6c7e43fe7a208a75adc6e16f65983522ddb04fbdef5446d307efa720d1d9764d656dadb0a3e0db5759d66556fcddfb2d50753"}
{"data": "{\"timestamp\": 1756835650.2133813, \"event\": {\"timestamp_ns\": 1756835650166081024, \"agent_id\": \"hurcan\", \"domain\": \"drone\", \"source_format\": \"json\", \"position\": {\"x\": 1461372.3825293365, \"y\": -5311410.072149775, \"z\": 0.0}, \"velocity\": {\"vx\": 861.3370310474602, \"vy\": 0.0, \"vz\": 0.0}, \"acceleration\": {\"ax\": -0.1874792873859405, \"ay\": 0.0, \"az\": 0.0}, \"orientation\": {\"yaw\": 0.0, \"pitch\": 0.0, \"roll\": 0.0}, \"sensor\": \"fusion\", \"extras\": {}, \"record_hash\": \"733dbe9267f6ebf39d7e863e1a98e64e8136e9d1749ba6058c8c6d54ca571267\", \"anomaly_flag\": -1}}", "sha3": "df71eafb3bbf9a66cba2d3fbe548c80fdc0e4a6ebe80b8a4be092bb8b6554687ebb040f640081a4c4a47a146dfcbdf2bed21bf26a989a10534ef0cf0940f5939"}
{"data": "{\"timestamp\": 1756835650.2794857, \"event\": {\"timestamp_ns\": 1756835650234460160, \"agent_id\": \"hurcan\", \"domain\": \"drone\", \"source_format\": \"json\", \"position\": {\"x\": 1461458.5139772948, \"y\": -5311846.196331598, \"z\": 0.0}, \"velocity\": {\"vx\": 861.3144795839158, \"vy\": 0.0, \"vz\": 0.0}, \"acceleration\": {\"ax\": -0.2255146354436874, \"ay\": 0.0, \"az\": 0.0}, \"orientation\": {\"yaw\": 0.0, \"pitch\": 0.0, \"roll\": 0.0}, \"sensor\": \"fusion\", \"extras\": {}, \"record_hash\": \"9662a6d0f924bd3cb903df0b8c052ec79de95e15d6197a90c47fe600abe8d099\", \"anomaly_flag\": -1}}", "sha3": "a5a774e3b2eff98e49b329d24ca24453353bdc4c62596803ba6fb3b6854bb53b2c7d54ca4847e056ddef22d3516c68a5e1f681702b2da8c21cd23dbdd3be60b2"}
{"data": "{\"timestamp\": 1756835650.3780806, \"event\": {\"timestamp_ns\": 1756835650301265920, \"agent_id\": \"hurcan\", \"domain\": \"drone\", \"source_format\": \"json\", \"position\": {\"x\": 1461544.6431603543, \"y\": -5312282.320108721, \"z\": 0.0}, \"velocity\": {\"vx\": 861.2918305967418, \"vy\": 0.0, \"vz\": 0.0}, \"acceleration\": {\"ax\": -0.2264898717403412, \"ay\": 0.0, \"az\": 0.0}, \"orientation\": {\"yaw\": 0.0, \"pitch\": 0.0, \"roll\": 0.0}, \"sensor\": \"fusion\", \"extras\": {}, \"record_hash\": \"6ccac5f89834ce2efbf1285070840f8ff62868cd2bff9105e185873c591df742\", \"anomaly_flag\": -1}}", "sha3": "ab4cbeb718f4accb5ae75115cef2177722ccce3bc09a41f605987f0fc5e8ec9251fac0593e9b5d33d21f55cfba45d92fc116f4009c04e5834304d338a3cd07a8"}
{"data": "{\"timestamp\": 1756835650.4520028, \"event\": {\"timestamp_ns\": 1756835650401822208, \"agent_id\": \"hurcan\", \"domain\": \"drone\", \"source_format\": \"json\", \"position\": {\"x\": 1461630.7704783406, \"y\": -5312718.443490866, \"z\": 0.0}, \"velocity\": {\"vx\": 861.2731798623172, \"vy\": 0.0, \"vz\": 0.0}, \"acceleration\": {\"ax\": -0.1865073442459106, \"ay\": 0.0, \"az\": 0.0}, \"orientation\": {\"yaw\": 0.0, \"pitch\": 0.0, \"roll\": 0.0}, \"sensor\": \"fusion\", \"extras\": {}, \"record_hash\": \"ddc7c65914d3d95910222aaa5fd3f81eee2c64f0c93a2c01dde03652de9db792\", \"anomaly_flag\": -1}}", "sha3": "503aa81943c321d3f64a2f382e1f8a009e5b7c037ccc87bfb0d70e96182bae0adadbc135452a917a432994022b71fda0b30647ee8c829f9751e48020ccc45e0f"}
{"data": "{\"timestamp\": 1756835650.5164855, \"event\": {\"timestamp_ns\": 1756835650472982016, \"agent_id\": \"hurcan\", \"domain\": \"drone\", \"source_format\": \"json\", \"position\": {\"x\": 1461716.895531395, \"y\": -5313154.566468311, \"z\": 0.0}, \"velocity\": {\"vx\": 861.2505305443374, \"vy\": 0.0, \"vz\": 0.0}, \"acceleration\": {\"ax\": -0.2264931797981262, \"ay\": 0.0, \"az\": 0.0}, \"orientation\": {\"yaw\": 0.0, \"pitch\": 0.0, \"roll\": 0.0}, \"sensor\": \"fusion\", \"extras\": {}, \"record_hash\": \"ce029d9f48326df5616712cf61e54ee13eb79412a3e9cdbadb403df95eca03cd\", \"anomaly_flag\": -1}}", "sha3": "84f43d6d9d6ab5430a421ef292433ce190c5f09f53f7f138e20e23bf0dfd7273525d88162df0fef94c02c45e4b9ff82d906ca548d3b5bedeef7808c8267ced32"}
{"data": "{\"timestamp\": 1756835650.5825, \"event\": {\"timestamp_ns\": 1756835650537623040, \"agent_id\": \"hurcan\", \"domain\": \"drone\", \"source_format\": \"json\", \"position\": {\"x\": 1461803.0188901469, \"y\": -5313590.690255283, \"z\": 0.0}, \"velocity\": {\"vx\": 861.2335875187484, \"vy\": 0.0, \"vz\": 0.0}, \"acceleration\": {\"ax\": -0.1694302558898925, \"ay\": 0.0, \"az\": 0.0}, \"orientation\": {\"yaw\": 0.0, \"pitch\": 0.0, \"roll\": 0.0}, \"sensor\": \"fusion\", \"extras\": {}, \"record_hash\": \"2a2a725092c63d02735f47940b877384cec3c1e9bd20e7c0a54fd76e7c8e2721\", \"anomaly_flag\": -1}}", "sha3": "082fac75d605f74d66d1560be8f62dc7ef4565db1aa47fe36300955fc0af1893356d8de7144eb670b54c69b0b8a73823ad84f084df97b7ef1bf38d17500b8693"}
{"data": "{\"timestamp\": 1756835650.651475, \"event\": {\"timestamp_ns\": 1756835650603694080, \"agent_id\": \"hurcan\", \"domain\": \"drone\", \"source_format\": \"json\", \"position\": {\"x\": 1461889.140554629, \"y\": -5314026.814851784, \"z\": 0.0}, \"velocity\": {\"vx\": 861.2166448224751, \"vy\": 0.0, \"vz\": 0.0}, \"acceleration\": {\"ax\": -0.1694269627332687, \"ay\": 0.0, \"az\": 0.0}, \"orientation\": {\"yaw\": 0.0, \"pitch\": 0.0, \"roll\": 0.0}, \"sensor\": \"fusion\", \"extras\": {}, \"record_hash\": \"8f36dd29748c5f6a4f838108ceb029a58987dfe70eae8824528eaa6c93130e82\", \"anomaly_flag\": -1}}", "sha3": "10c3ead92fd2440fece6386f6e474a4dee0df66a68938d37fc8c60ef88f8f3bf9fe99394438772478bfe2061934ed9fffb8bf3d95cd837f6f486a338b6adc823"}
{"data": "{\"timestamp\": 1756835650.7190588, \"event\": {\"timestamp_ns\": 1756835650673389056, \"agent_id\": \"hurcan\", \"domain\": \"drone\", \"source_format\": \"json\", \"position\": {\"x\": 1461975.260163861, \"y\": -5314462.938648564, \"z\": 0.0}, \"velocity\": {\"vx\": 861.1960923213927, \"vy\": 0.0, \"vz\": 0.0}, \"acceleration\": {\"ax\": -0.2055250108242035, \"ay\": 0.0, \"az\": 0.0}, \"orientation\": {\"yaw\": 0.0, \"pitch\": 0.0, \"roll\": 0.0}, \"sensor\": \"fusion\", \"extras\": {}, \"record_hash\": \"7d68f0804f71f3ca7ffaacc25c97f277ba80162c77b901e4b6635db625099fc5\", \"anomaly_flag\": -1}}", "sha3": "925ed156fe7c4e6f63d7971a72d34f8379c5c19552a2195ca59c29d6dafe4ec02d0ee6d6cebdae11ef80c067d09e4510eefd3c856125cc2f3711c898f56d5218"}
{"data": "{\"timestamp\": 1756835650.7837956, \"event\": {\"timestamp_ns\": 1756835650740600064, \"agent_id\": \"hurcan\", \"domain\": \"drone\", \"source_format\": \"json\", \"position\": {\"x\": 1462061.377498508, \"y\": -5314899.062440525, \"z\": 0.0}, \"velocity\": {\"vx\": 861.1733464677302, \"vy\": 0.0, \"vz\": 0.0}, \"acceleration\": {\"ax\": -0.2274585366249084, \"ay\": 0.0, \"az\": 0.0}, \"orientation\": {\"yaw\": 0.0, \"pitch\": 0.0, \"roll\": 0.0}, \"sensor\": \"fusion\", \"extras\": {}, \"record_hash\": \"0f8cd7921fec2cd4b88e4f98c10b9102737183996cc2daac3f344a6e761013b2\", \"anomaly_flag\": -1}}", "sha3": "6f3ff634e07e8f97c38d0fd4e408766f20fc5fbb2a99b3fcf8a62cb6c59de4afa5ffff3e9a05d64a23da511df2674a7b662eb95e046d2d64d010cc6f9fd5093e"}
{"data": "{\"timestamp\": 1756835650.9318984, \"event\": {\"timestamp_ns\": 1756835650831383040, \"agent_id\": \"hurcan\", \"domain\": \"drone\", \"source_format\": \"json\", \"position\": {\"x\": 1462147.4929389227, \"y\": -5315335.187037153, \"z\": 0.0}, \"velocity\": {\"vx\": 861.1544041473834, \"vy\": 0.0, \"vz\": 0.0}, \"acceleration\": {\"ax\": -0.1894232034683227, \"ay\": 0.0, \"az\": 0.0}, \"orientation\": {\"yaw\": 0.0, \"pitch\": 0.0, \"roll\": 0.0}, \"sensor\": \"fusion\", \"extras\": {}, \"record_hash\": \"ee4cf3f492a2883e4e7c7003ec79f2f8951ae1c1cdc437340413e637ae25dc1e\", \"anomaly_flag\": -1}}", "sha3": "8b13b3df0fd2cf2a8a93845d897c857fd2228d6faecff4457e02b018c4532852c5592757fc29ea4bda32435d0e3afc6fef4c959c8cfab66693f65e1e919b3f84"}
{"data": "{\"timestamp\": 1756835651.0124671, \"event\": {\"timestamp_ns\": 1756835650953574912, \"agent_id\": \"hurcan\", \"domain\": \"drone\", \"source_format\": \"json\", \"position\": {\"x\": 1462233.6065045614, \"y\": -5315771.311638685, \"z\": 0.0}, \"velocity\": {\"vx\": 861.1356563855378, \"vy\": 0.0, \"vz\": 0.0}, \"acceleration\": {\"ax\": -0.1874776184558868, \"ay\": 0.0, \"az\": 0.0}, \"orientation\": {\"yaw\": 0.0, \"pitch\": 0.0, \"roll\": 0.0}, \"sensor\": \"fusion\", \"extras\": {}, \"record_hash\": \"41ea6520a841181a1db05b9609cebad39330de36afcb15d00066eee241dfcc39\", \"anomaly_flag\": -1}}", "sha3": "7ef753fc5d082f76d110394ffa43d3e6938c1ff1e83b504d7b0ecc20dfb0c63cc812e8c1c5f4c8b56a818d07d5688c546ef6afa91374dbf718e00d70ad294f6f"}
{"data": "{\"timestamp\": 1756835651.1324027, \"event\": {\"timestamp_ns\": 1756835651034003968, \"agent_id\": \"hurcan\", \"domain\": \"drone\", \"source_format\": \"json\", \"position\": {\"x\": 1462319.7178053178, \"y\": -5316207.435835517, \"z\": 0.0}, \"velocity\": {\"vx\": 861.1130075652568, \"vy\": 0.0, \"vz\": 0.0}, \"acceleration\": {\"ax\": -0.2264882028102875, \"ay\": 0.0, \"az\": 0.0}, \"orientation\": {\"yaw\": 0.0, \"pitch\": 0.0, \"roll\": 0.0}, \"sensor\": \"fusion\", \"extras\": {}, \"record_hash\": \"12c8ffeb21903ccb453615012fe0814091bb86474b2ce1ff9da2837117362fcc\", \"anomaly_flag\": -1}}", "sha3": "874ddf513f8bfa6bbbe05d6fa8e4ea56f1ad40f849831d20e26768a9571d468d6ffdd5164cc220312a8daf2d5ee1312e2b75c4256de5831c0892de630dfa09ca"}
{"data": "{\"timestamp\": 1756835651.2116756, \"event\": {\"timestamp_ns\": 1756835651153726976, \"agent_id\": \"hurcan\", \"domain\": \"drone\", \"source_format\": \"json\", \"position\": {\"x\": 1462405.827402085, \"y\": -5316643.561241759, \"z\": 0.0}, \"velocity\": {\"vx\": 861.0959676731793, \"vy\": 0.0, \"vz\": 0.0}, \"acceleration\": {\"ax\": -0.1703989207744598, \"ay\": 0.0, \"az\": 0.0}, \"orientation\": {\"yaw\": 0.0, \"pitch\": 0.0, \"roll\": 0.0}, \"sensor\": \"fusion\", \"extras\": {}, \"record_hash\": \"d9ae6ec7a4db4eac79c8a380c0ffc41358ba03f30f388829643cf914fad06c9e\", \"anomaly_flag\": -1}}", "sha3": "205f4d37ff51a88a2b6ac81f00726f0de71ff7f264bf5089359d0fcb3e19e53206969dff780fbd6b75190fb866635ec6ce514abc2c35c004d7b372604da96b2a"}
{"data": "{\"timestamp\": 1756835651.303827, \"event\": {\"timestamp_ns\": 1756835651232764928, \"agent_id\": \"hurcan\", \"domain\": \"drone\", \"source_format\": \"json\", \"position\": {\"x\": 1462491.934743673, \"y\": -5317079.685843419, \"z\": 0.0}, \"velocity\": {\"vx\": 861.0734158803193, \"vy\": 0.0, \"vz\": 0.0}, \"acceleration\": {\"ax\": -0.2255179286003113, \"ay\": 0.0, \"az\": 0.0}, \"orientation\": {\"yaw\": 0.0, \"pitch\": 0.0, \"roll\": 0.0}, \"sensor\": \"fusion\", \"extras\": {}, \"record_hash\": \"e0ed0442acd83094a3e18748602f4a937169585ef1f7f148e42111f632834093\", \"anomaly_flag\": -1}}", "sha3": "203c4569e7ae9bd10f5534fedaa098d542457bcf5d833e37b453dc0eb3f0f5d5ba8e25edde78bdc4f2782255b52f2b13a18133e078d1514676c93dddb325da43"}
{"data": "{\"timestamp\": 1756835651.3783596, \"event\": {\"timestamp_ns\": 1756835651325090816, \"agent_id\": \"hurcan\", \"domain\": \"drone\", \"source_format\": \"json\", \"position\": {\"x\": 1462578.0401910457, \"y\": -5317515.811249747, \"z\": 0.0}, \"velocity\": {\"vx\": 861.0544737268655, \"vy\": 0.0, \"vz\": 0.0}, \"acceleration\": {\"ax\": -0.189421534538269, \"ay\": 0.0, \"az\": 0.0}, \"orientation\": {\"yaw\": 0.0, \"pitch\": 0.0, \"roll\": 0.0}, \"sensor\": \"fusion\", \"extras\": {}, \"record_hash\": \"5a65383068394f7b13e16378477e71744d081938a182f693fa17d566531bc802\", \"anomaly_flag\": -1}}", "sha3": "1d206cab982f2ed8a9eac81cca9817cef0e9bb54ae824814c7e74724b6c3be0da47fe9c1f2d89721a02384c6024c3ae399d015617c5b90b51d83605a9d3f7821"}
{"data": "{\"timestamp\": 1756835651.46141, \"event\": {\"timestamp_ns\": 1756835651400224000, \"agent_id\": \"hurcan\", \"domain\": \"drone\", \"source_format\": \"json\", \"position\": {\"x\": 1462664.1437635925, \"y\": -5317951.936660978, \"z\": 0.0}, \"velocity\": {\"vx\": 861.0357254673211, \"vy\": 0.0, \"vz\": 0.0}, \"acceleration\": {\"ax\": -0.1874825954437256, \"ay\": 0.0, \"az\": 0.0}, \"orientation\": {\"yaw\": 0.0, \"pitch\": 0.0, \"roll\": 0.0}, \"sensor\": \"fusion\", \"extras\": {}, \"record_hash\": \"683011b30971d4ac1d66f6a89892b26600f4fe76f9f004f4963d04f65c749c56\", \"anomaly_flag\": -1}}", "sha3": "641a49faa10cad0e2712d601591147674341c86ab01ef43dcc68c06e5406ca714c7e820d38b5cbd3a797568bb899fc74459e709c8a6c918723f89ed83e8d2520"}
{"data": "{\"timestamp\": 1756835651.5262706, \"event\": {\"timestamp_ns\": 1756835651482577920, \"agent_id\": \"hurcan\", \"domain\": \"drone\", \"source_format\": \"json\", \"position\": {\"x\": 1462750.2448810637, \"y\": -5318388.061262767, \"z\": 0.0}, \"velocity\": {\"vx\": 861.011174711999, \"vy\": 0.0, \"vz\": 0.0}, \"acceleration\": {\"ax\": -0.2455075532197952, \"ay\": 0.0, \"az\": 0.0}, \"orientation\": {\"yaw\": 0.0, \"pitch\": 0.0, \"roll\": 0.0}, \"sensor\": \"fusion\", \"extras\": {}, \"record_hash\": \"94b61316b7b4b30308ef226c0972500c87207f3bd342f741863ddd9817dd2cb7\", \"anomaly_flag\": -1}}", "sha3": "3190bd39a01a313ea9c0c65ce64aa8308c270c2d268dc87ed439e42441be3a8236f7b5af9e78157d90ce1a56cd0a0873a5e8f09941a7a3fa064aa76d69e83158"}
{"data": "{\"timestamp\": 1756835651.6132805, \"event\": {\"timestamp_ns\": 1756835651547776000, \"agent_id\": \"hurcan\", \"domain\": \"drone\", \"source_format\": \"json\", \"position\": {\"x\": 1462836.3443042652, \"y\": -5318824.186674084, \"z\": 0.0}, \"velocity\": {\"vx\": 860.9942320157257, \"vy\": 0.0, \"vz\": 0.0}, \"acceleration\": {\"ax\": -0.1694269627332687, \"ay\": 0.0, \"az\": 0.0}, \"orientation\": {\"yaw\": 0.0, \"pitch\": 0.0, \"roll\": 0.0}, \"sensor\": \"fusion\", \"extras\": {}, \"record_hash\": \"02aec9499ee7546916331eb6ee04df112147890d0fd669a72ebbaca03af9fafb\", \"anomaly_flag\": -1}}", "sha3": "da17f2145c62169bd9ede6c57e08319ed66e1a4fcfff2f5ad4899fa8406aafdda79a2483abaf1606a1e895c5050acfaeb9576094fe41ab3f10f78e3e54d67d49"}
{"data": "{\"timestamp\": 1756835651.6800127, \"event\": {\"timestamp_ns\": 1756835651634605824, \"agent_id\": \"hurcan\", \"domain\": \"drone\", \"source_format\": \"json\", \"position\": {\"x\": 1462922.442057758, \"y\": -5319260.312495058, \"z\": 0.0}, \"velocity\": {\"vx\": 860.9775349278418, \"vy\": 0.0, \"vz\": 0.0}, \"acceleration\": {\"ax\": -0.1669708788394928, \"ay\": 0.0, \"az\": 0.0}, \"orientation\": {\"yaw\": 0.0, \"pitch\": 0.0, \"roll\": 0.0}, \"sensor\": \"fusion\", \"extras\": {}, \"record_hash\": \"accbe4748dc9290d66058ce0a813a51c6b93fcf74c47028a4da89b55fc107f5b\", \"anomaly_flag\": -1}}", "sha3": "d9bf6ec0f083302e35e7402d253ee6fe6a60429750f0df1f60777c7e036ab7dd74b5b730084795e474a154fd60102885693b83cdf2e37b39b16943bf8fd4b8e2"}
{"data": "{\"timestamp\": 1756835651.7543306, \"event\": {\"timestamp_ns\": 1756835651701278976, \"agent_id\": \"hurcan\", \"domain\": \"drone\", \"source_format\": \"json\", \"position\": {\"x\": 1463008.5373406317, \"y\": -5319696.438706247, \"z\": 0.0}, \"velocity\": {\"vx\": 860.9528287370173, \"vy\": 0.0, \"vz\": 0.0}, \"acceleration\": {\"ax\": -0.2470619082450867, \"ay\": 0.0, \"az\": 0.0}, \"orientation\": {\"yaw\": 0.0, \"pitch\": 0.0, \"roll\": 0.0}, \"sensor\": \"fusion\", \"extras\": {}, \"record_hash\": \"e18e3cde679d3a0266ae2b4c9aa78c4846d314067509e94ec0b33b879c2ff78b\", \"anomaly_flag\": -1}}", "sha3": "0b9781cdc9589cf7249747e8481c83d42b7fa3890df4c6bfd2d3993ba2aa55e483ca9441bb3546c4e0a2e9bdc439eb8c0fe242d402df4dc09c9dc37ce8deecb0"}
{"data": "{\"timestamp\": 1756835651.8225296, \"event\": {\"timestamp_ns\": 1756835651775726080, \"agent_id\": \"hurcan\", \"domain\": \"drone\", \"source_format\": \"json\", \"position\": {\"x\": 1463094.6299515078, \"y\": -5320132.564103142, \"z\": 0.0}, \"velocity\": {\"vx\": 860.9261087615458, \"vy\": 0.0, \"vz\": 0.0}, \"acceleration\": {\"ax\": -0.2671997547149658, \"ay\": 0.0, \"az\": 0.0}, \"orientation\": {\"yaw\": 0.0, \"pitch\": 0.0, \"roll\": 0.0}, \"sensor\": \"fusion\", \"extras\": {}, \"record_hash\": \"2f7e23f7a16aab6c1fc581bce755866b1824a9c290d667601c7a1b836194616c\", \"anomaly_flag\": -1}}", "sha3": "31f54d945da21cad18989de1d2ceacb1a626861933c550a68bc28f4f05821f920f679ca52adeae2db03c9fd9648edd059ef4d6f5a2fee0084d89e2bcf34e01b6"}
{"data": "{\"timestamp\": 1756835651.8805857, \"event\": {\"timestamp_ns\": 1756835651844012032, \"agent_id\": \"hurcan\", \"domain\": \"drone\", \"source_format\": \"json\", \"position\": {\"x\": 1463180.720683642, \"y\": -5320568.689504947, \"z\": 0.0}, \"velocity\": {\"vx\": 860.9073213417498, \"vy\": 0.0, \"vz\": 0.0}, \"acceleration\": {\"ax\": -0.1878741979598999, \"ay\": 0.0, \"az\": 0.0}, \"orientation\": {\"yaw\": 0.0, \"pitch\": 0.0, \"roll\": 0.0}, \"sensor\": \"fusion\", \"extras\": {}, \"record_hash\": \"d2940410f223a925fad6ddcec45076afd0b528556454d494bbe24123ed6a4886\", \"anomaly_flag\": -1}}", "sha3": "114fe0ae856f3954e173524980537e9d00004106ccd6931dbe06abbd5c0e7bd29cb37d86eaf7ddb9e0d60d473a02330925dbf92504c29fd6faaf0f209a68ac04"}
{"data": "{\"timestamp\": 1756835651.9408438, \"event\": {\"timestamp_ns\": 1756835651901709056, \"agent_id\": \"hurcan\", \"domain\": \"drone\", \"source_format\": \"json\", \"position\": {\"x\": 1463266.8093467017, \"y\": -5321004.814506914, \"z\": 0.0}, \"velocity\": {\"vx\": 860.8866305966345, \"vy\": 0.0, \"vz\": 0.0}, \"acceleration\": {\"ax\": -0.2069074511528015, \"ay\": 0.0, \"az\": 0.0}, \"orientation\": {\"yaw\": 0.0, \"pitch\": 0.0, \"roll\": 0.0}, \"sensor\": \"fusion\", \"extras\": {}, \"record_hash\": \"af2cd1d05a2421012f1e1719b5434a4fae380cb178f4aa325a51fcb17637897f\", \"anomaly_flag\": -1}}", "sha3": "62360b927872a3532aba5a57b3828a0d700aead37330016b9874c6b4a53e3e85ce7154075659adb02234012b62b98c46eb21f2c23df9bab0181fbfa052ee9e86"}
{"data": "{\"timestamp\": 1756835652.0154493, \"event\": {\"timestamp_ns\": 1756835651962521088, \"agent_id\": \"hurcan\", \"domain\": \"drone\", \"source_format\": \"json\", \"position\": {\"x\": 1463352.8955329, \"y\": -5321440.939499205, \"z\": 0.0}, \"velocity\": {\"vx\": 860.8618619818656, \"vy\": 0.0, \"vz\": 0.0}, \"acceleration\": {\"ax\": -0.2476861476898193, \"ay\": 0.0, \"az\": 0.0}, \"orientation\": {\"yaw\": 0.0, \"pitch\": 0.0, \"roll\": 0.0}, \"sensor\": \"fusion\", \"extras\": {}, \"record_hash\": \"b3c8a7cdb133e7ab7ee83eb2428ab88d80bc729b94353ee8555610aaada7f8ea\", \"anomaly_flag\": -1}}", "sha3": "e90090a49d7550ca14afc922b2b3f63c7e7718430d92eb5757433a7304fc92cdc3ba705018c0f3b36eacaad988e6e2216a95cc108299e48725ac98fdad0a642b"}
{"data": "{\"timestamp\": 1756835652.071121, \"event\": {\"timestamp_ns\": 1756835652036689920, \"agent_id\": \"hurcan\", \"domain\": \"drone\", \"source_format\": \"json\", \"position\": {\"x\": 1463438.9800331327, \"y\": -5321877.064901141, \"z\": 0.0}, \"velocity\": {\"vx\": 860.8450023282735, \"vy\": 0.0, \"vz\": 0.0}, \"acceleration\": {\"ax\": -0.1685965359210968, \"ay\": 0.0, \"az\": 0.0}, \"orientation\": {\"yaw\": 0.0, \"pitch\": 0.0, \"roll\": 0.0}, \"sensor\": \"fusion\", \"extras\": {}, \"record_hash\": \"e836f4dc271d366d36c4935a81110c195974a921dbae346e52935920146ee9be\", \"anomaly_flag\": -1}}", "sha3": "8686cc61fa0ce4e025d2be8a0051609f5142fbede56be63a9c050ea45315762cce7abed1b80ec6d4cb6d6b4e4669b33c2cb4e3afd65e0825f1364438d857c4f5"}
{"data": "{\"timestamp\": 1756835652.135322, \"event\": {\"timestamp_ns\": 1756835652093779200, \"agent_id\": \"hurcan\", \"domain\": \"drone\", \"source_format\": \"json\", \"position\": {\"x\": 1463525.0622921078, \"y\": -5322313.189498492, \"z\": 0.0}, \"velocity\": {\"vx\": 860.8225897524921, \"vy\": 0.0, \"vz\": 0.0}, \"acceleration\": {\"ax\": -0.2241257578134536, \"ay\": 0.0, \"az\": 0.0}, \"orientation\": {\"yaw\": 0.0, \"pitch\": 0.0, \"roll\": 0.0}, \"sensor\": \"fusion\", \"extras\": {}, \"record_hash\": \"a3a79284d8e8b6e2f251128dd27dfd7648d1c73bcaee996f1436a69f7ef9fcc9\", \"anomaly_flag\": -1}}", "sha3": "733129b434e818ad02e344cc274734cb1f5c1102a6fbb051933c0d289512e927da8cdcc1327c3c9f9f5403e956c1c7df22db87c32af397efe624dc206274194e"}
{"data": "{\"timestamp\": 1756835652.1963809, \"event\": {\"timestamp_ns\": 1756835652156531200, \"agent_id\": \"hurcan\", \"domain\": \"drone\", \"source_format\": \"json\", \"position\": {\"x\": 1463611.1422890371, \"y\": -5322749.313691133, \"z\": 0.0}, \"velocity\": {\"vx\": 860.7999692921011, \"vy\": 0.0, \"vz\": 0.0}, \"acceleration\": {\"ax\": -0.2262046039104461, \"ay\": 0.0, \"az\": 0.0}, \"orientation\": {\"yaw\": 0.0, \"pitch\": 0.0, \"roll\": 0.0}, \"sensor\": \"fusion\", \"extras\": {}, \"record_hash\": \"0ba0fc79fd971add0168acee4524d36d6f415092a44cea5a0a1ef1cb4ae270f7\", \"anomaly_flag\": -1}}", "sha3": "620a20b4e4068c232c8c6c9115962327259c973f14a12f25a50e3bf31de5d1309a4249e617769a177ac51196a515a700c987e93f08fd6c32585dba8d249a37eb"}
{"data": "{\"timestamp\": 1756835652.263518, \"event\": {\"timestamp_ns\": 1756835652217547008, \"agent_id\": \"hurcan\", \"domain\": \"drone\", \"source_format\": \"json\", \"position\": {\"x\": 1463697.2200077085, \"y\": -5323185.438278827, \"z\": 0.0}, \"velocity\": {\"vx\": 860.7771867130367, \"vy\": 0.0, \"vz\": 0.0}, \"acceleration\": {\"ax\": -0.227825790643692, \"ay\": 0.0, \"az\": 0.0}, \"orientation\": {\"yaw\": 0.0, \"pitch\": 0.0, \"roll\": 0.0}, \"sensor\": \"fusion\", \"extras\": {}, \"record_hash\": \"d3c0345ca37c648acd9a5ed0ce6f1f96c28be7ee2cc429b0a032db595b4d5896\", \"anomaly_flag\": -1}}", "sha3": "66a62edd67ad42d860907bc6fbd702a007aa81ce1e0d6d4523e97d06c42f93711ad5cb4625a74f33cebe331b93cc546b303099dc3ed98d0478ce88c861ea8a89"}
{"data": "{\"timestamp\": 1756835652.3428655, \"event\": {\"timestamp_ns\": 1756835652284670208, \"agent_id\": \"hurcan\", \"domain\": \"drone\", \"source_format\": \"json\", \"position\": {\"x\": 1463783.295668457, \"y\": -5323621.562866546, \"z\": 0.0}, \"velocity\": {\"vx\": 860.7566074837415, \"vy\": 0.0, \"vz\": 0.0}, \"acceleration\": {\"ax\": -0.2057922929525375, \"ay\": 0.0, \"az\": 0.0}, \"orientation\": {\"yaw\": 0.0, \"pitch\": 0.0, \"roll\": 0.0}, \"sensor\": \"fusion\", \"extras\": {}, \"record_hash\": \"f225d64e0d26faa81ce95e7a152d0df712e658c3e8466d7545787f1b91d7a8e7\", \"anomaly_flag\": -1}}", "sha3": "04479aaa9bbc89b65a815fc68bda0dd8829cedcc9828a27355c2d6baabce64536b05aa2c0f5f96618c6c102dce851b4398a502c425bad110b7ab8a9a08dfa78e"}
{"data": "{\"timestamp\": 1756835652.403057, \"event\": {\"timestamp_ns\": 1756835652364124160, \"agent_id\": \"hurcan\", \"domain\": \"drone\", \"source_format\": \"json\", \"position\": {\"x\": 1463869.3696602532, \"y\": -5324057.687463998, \"z\": 0.0}, \"velocity\": {\"vx\": 860.7399179626672, \"vy\": 0.0, \"vz\": 0.0}, \"acceleration\": {\"ax\": -0.1668952107429504, \"ay\": 0.0, \"az\": 0.0}, \"orientation\": {\"yaw\": 0.0, \"pitch\": 0.0, \"roll\": 0.0}, \"sensor\": \"fusion\", \"extras\": {}, \"record_hash\": \"b58d081bc75e4bc79511b547ac3a298b6ec13abce7979dc78b8c5a516a74b8a7\", \"anomaly_flag\": -1}}", "sha3": "56a748db4933e217db6b91043c42d69d42e0edef55c5df8345efc7a1eccb13b817a4f0168649e78086b4050a673a267fa44c9de23cd925a8b0544625f9a36b96"}
{"data": "{\"timestamp\": 1756835652.4639413, \"event\": {\"timestamp_ns\": 1756835652424026112, \"agent_id\": \"hurcan\", \"domain\": \"drone\", \"source_format\": \"json\", \"position\": {\"x\": 1463955.441199758, \"y\": -5324493.812051735, \"z\": 0.0}, \"velocity\": {\"vx\": 860.7153950501648, \"vy\": 0.0, \"vz\": 0.0}, \"acceleration\": {\"ax\": -0.2452291250228881, \"ay\": 0.0, \"az\": 0.0}, \"orientation\": {\"yaw\": 0.0, \"pitch\": 0.0, \"roll\": 0.0}, \"sensor\": \"fusion\", \"extras\": {}, \"record_hash\": \"32cd93f320aec87c91eb826fc4cf5212514c7991807620fcac3eafbfa31116f9\", \"anomaly_flag\": -1}}", "sha3": "abaff5d03b861461133f373b03dc09c2695453059c1bbe9e7c24e08a9e4b809abc18bd86bfc1c7f2cefb329070673e6c9b409f2cab6787d13bf7472e14d9be1c"}
{"data": "{\"timestamp\": 1756835652.5305836, \"event\": {\"timestamp_ns\": 1756835652485164032, \"agent_id\": \"hurcan\", \"domain\": \"drone\", \"source_format\": \"json\", \"position\": {\"x\": 1464041.5108652562, \"y\": -5324929.93704422, \"z\": 0.0}, \"velocity\": {\"vx\": 860.6966549802986, \"vy\": 0.0, \"vz\": 0.0}, \"acceleration\": {\"ax\": -0.1874006986618042, \"ay\": 0.0, \"az\": 0.0}, \"orientation\": {\"yaw\": 0.0, \"pitch\": 0.0, \"roll\": 0.0}, \"sensor\": \"fusion\", \"extras\": {}, \"record_hash\": \"12fba2c4141790abed5d3a8a593ba2383cd59f775cb13edeb872ffa8387becb0\", \"anomaly_flag\": -1}}", "sha3": "9815aa8bd0183beb406ac04fbe24dfa3ecc1a47154359ffe709083dddf20498924550aefcdf6fb9aef6d19772b943ade902b7791f78f6494f6a75719d62507da"}
{"data": "{\"timestamp\": 1756835652.599706, \"event\": {\"timestamp_ns\": 1756835652551620864, \"agent_id\": \"hurcan\", \"domain\": \"drone\", \"source_format\": \"json\", \"position\": {\"x\": 1464127.578463137, \"y\": -5325366.062436591, \"z\": 0.0}, \"velocity\": {\"vx\": 860.6759788070289, \"vy\": 0.0, \"vz\": 0.0}, \"acceleration\": {\"ax\": -0.2067617326974868, \"ay\": 0.0, \"az\": 0.0}, \"orientation\": {\"yaw\": 0.0, \"pitch\": 0.0, \"roll\": 0.0}, \"sensor\": \"fusion\", \"extras\": {}, \"record_hash\": \"64783a11eaaf8eefa87ede8c0022d3fd9dea4a4df2d0e2b9eefb4008dd907299\", \"anomaly_flag\": -1}}", "sha3": "de34b5bf7a50f01af4b4603bda45f2b0602b366515489821a3abfcd0d309fb692d5d70d45d11e735752ef4ab6162338b976204aecc40cdb4c25bc8d8639af9fa"}
{"data": "{\"timestamp\": 1756835652.6571374, \"event\": {\"timestamp_ns\": 1756835652621016064, \"agent_id\": \"hurcan\", \"domain\": \"drone\", \"source_format\": \"json\", \"position\": {\"x\": 1464213.644218492, \"y\": -5325802.18743394, \"z\": 0.0}, \"velocity\": {\"vx\": 860.657553551015, \"vy\": 0.0, \"vz\": 0.0}, \"acceleration\": {\"ax\": -0.1842525601387024, \"ay\": 0.0, \"az\": 0.0}, \"orientation\": {\"yaw\": 0.0, \"pitch\": 0.0, \"roll\": 0.0}, \"sensor\": \"fusion\", \"extras\": {}, \"record_hash\": \"bda70fa6f3be33b19e7ae06979679a85683ca050b897df454abcf7594c81963f\", \"anomaly_flag\": -1}}", "sha3": "399231b619ecc7e78735d3d03690fb7ad32b1c28b59af5d28e0fb5268ba22542192bf04fddbeb0f21faad4558b5c256710bc69865e8acad19bd65234b6c8c994"}
{"data": "{\"timestamp\": 1756835652.7195773, \"event\": {\"timestamp_ns\": 1756835652678270976, \"agent_id\": \"hurcan\", \"domain\": \"drone\", \"source_format\": \"json\", \"position\": {\"x\": 1464299.708112479, \"y\": -5326238.31243615, \"z\": 0.0}, \"velocity\": {\"vx\": 860.6389398698178, \"vy\": 0.0, \"vz\": 0.0}, \"acceleration\": {\"ax\": -0.1861368119716644, \"ay\": 0.0, \"az\": 0.0}, \"orientation\": {\"yaw\": 0.0, \"pitch\": 0.0, \"roll\": 0.0}, \"sensor\": \"fusion\", \"extras\": {}, \"record_hash\": \"5460cef12ac5fe953d3fc84a0ce39147ad02abf9a7571896c4f214368ac44dc6\", \"anomaly_flag\": -1}}", "sha3": "39b52e292e5e863d5f4b6a2c39571163dbdcca8e61db6a7438f9021a7d701dbdc7fa91ff453117702d0c3a63c87d0581494595bd93f634762e0133a44d7c2cc2"}
{"data": "{\"timestamp\": 1756835652.7770069, \"event\": {\"timestamp_ns\": 1756835652740709120, \"agent_id\": \"hurcan\", \"domain\": \"drone\", \"source_format\": \"json\", \"position\": {\"x\": 1464385.7695611534, \"y\": -5326674.437428639, \"z\": 0.0}, \"velocity\": {\"vx\": 860.6144867439237, \"vy\": 0.0, \"vz\": 0.0}, \"acceleration\": {\"ax\": -0.2445312589406967, \"ay\": 0.0, \"az\": 0.0}, \"orientation\": {\"yaw\": 0.0, \"pitch\": 0.0, \"roll\": 0.0}, \"sensor\": \"fusion\", \"extras\": {}, \"record_hash\": \"8e6935832abb41199b9feb7f26d3bb172b2eed64f3db59e3da82778149e87c0c\", \"anomaly_flag\": -1}}", "sha3": "19ab54bcfd3ab79522226b284c4c2a5b3f6b928f2dc7ead1a8f156b72f2e75b95aa15f9d5f64bfd6cb9baeffdfe0404503470e851a992109909063755748b9e1"}
{"data": "{\"timestamp\": 1756835652.8465824, \"event\": {\"timestamp_ns\": 1756835652797805056, \"agent_id\": \"hurcan\", \"domain\": \"drone\", \"source_format\": \"json\", \"position\": {\"x\": 1464471.8291572062, \"y\": -5327110.562026107, \"z\": 0.0}, \"velocity\": {\"vx\": 860.5959605280724, \"vy\": 0.0, \"vz\": 0.0}, \"acceleration\": {\"ax\": -0.1852621585130691, \"ay\": 0.0, \"az\": 0.0}, \"orientation\": {\"yaw\": 0.0, \"pitch\": 0.0, \"roll\": 0.0}, \"sensor\": \"fusion\", \"extras\": {}, \"record_hash\": \"607f76bab00cb7ebbc088da10dc0ec44fd68b4ed85dab81ec1e77dd794886c88\", \"anomaly_flag\": -1}}", "sha3": "085fec47c7f2d707ff09121942a3df3367db96c9b9f1c09b7bfc51fae17542c1813ae8eaebc99f3008002dee436b1f246e019a0f138351c2c29e211385979ba6"}
{"data": "{\"timestamp\": 1756835652.9147446, \"event\": {\"timestamp_ns\": 1756835652867727872, \"agent_id\": \"hurcan\", \"domain\": \"drone\", \"source_format\": \"json\", \"position\": {\"x\": 1464557.8864908754, \"y\": -5327546.686618714, \"z\": 0.0}, \"velocity\": {\"vx\": 860.5733366925683, \"vy\": 0.0, \"vz\": 0.0}, \"acceleration\": {\"ax\": -0.2262383550405502, \"ay\": 0.0, \"az\": 0.0}, \"orientation\": {\"yaw\": 0.0, \"pitch\": 0.0, \"roll\": 0.0}, \"sensor\": \"fusion\", \"extras\": {}, \"record_hash\": \"aa79220ac2f64b9da4c5dd238dfd1711be483d7d88bb5bcacf57a00cc03a454b\", \"anomaly_flag\": -1}}", "sha3": "ee45f5c6b4dccf75a9924dc0fdbe850daa2214dc9efdf8886b34ecce455894bd1c0a4c1575414f573200801e428436dde0900e5d2cc3cfd8d80f3606835a4bac"}
{"data": "{\"timestamp\": 1756835652.9764347, \"event\": {\"timestamp_ns\": 1756835652935991040, \"agent_id\": \"hurcan\", \"domain\": \"drone\", \"source_format\": \"json\", \"position\": {\"x\": 1464643.94158184, \"y\": -5327982.810406697, \"z\": 0.0}, \"velocity\": {\"vx\": 860.5509096462694, \"vy\": 0.0, \"vz\": 0.0}, \"acceleration\": {\"ax\": -0.2242704629898071, \"ay\": 0.0, \"az\": 0.0}, \"orientation\": {\"yaw\": 0.0, \"pitch\": 0.0, \"roll\": 0.0}, \"sensor\": \"fusion\", \"extras\": {}, \"record_hash\": \"51c7d16371c5fafb5e105546f04a8a90494f75006c0a517c6ea1da74e4a0c27a\", \"anomaly_flag\": -1}}", "sha3": "1bd243a835b79295b91459d9f8903867c17276ef520ccea8b801d9f7329fb56f72fed914531b574523a0b2eff82d2ad71395701ff526a6bab5a118e9a678f53a"}
{"data": "{\"timestamp\": 1756835653.0357769, \"event\": {\"timestamp_ns\": 1756835652997797888, \"agent_id\": \"hurcan\", \"domain\": \"drone\", \"source_format\": \"json\", \"position\": {\"x\": 1464729.995011095, \"y\": -5328418.9346042825, \"z\": 0.0}, \"velocity\": {\"vx\": 860.5342925507989, \"vy\": 0.0, \"vz\": 0.0}, \"acceleration\": {\"ax\": -0.1661709547042846, \"ay\": 0.0, \"az\": 0.0}, \"orientation\": {\"yaw\": 0.0, \"pitch\": 0.0, \"roll\": 0.0}, \"sensor\": \"fusion\", \"extras\": {}, \"record_hash\": \"1d66e1815162e549f3e0821719e03a47b60f771dd7ab1d753b1ae6947f364297\", \"anomaly_flag\": -1}}", "sha3": "c39dd5f9b06f7bee6fc9aed4ad30cd8106fb00d17416d65ab65c5adc354011c36abcbadf7444414e987ae06aee14d8a94eebddd679730cdd6f7ff0a7d62140f3"}
{"data": "{\"timestamp\": 1756835653.0952623, \"event\": {\"timestamp_ns\": 1756835653056898048, \"agent_id\": \"hurcan\", \"domain\": \"drone\", \"source_format\": \"json\", \"position\": {\"x\": 1464816.0465621045, \"y\": -5328855.0596064925, \"z\": 0.0}, \"velocity\": {\"vx\": 860.5155100945797, \"vy\": 0.0, \"vz\": 0.0}, \"acceleration\": {\"ax\": -0.1878245621919632, \"ay\": 0.0, \"az\": 0.0}, \"orientation\": {\"yaw\": 0.0, \"pitch\": 0.0, \"roll\": 0.0}, \"sensor\": \"fusion\", \"extras\": {}, \"record_hash\": \"0ef275c205e20babb7af62a79fb4a037f6b2ad71584fb958e82073ff7d352dae\", \"anomaly_flag\": -1}}", "sha3": "f86983d786d36017bac9294f964a4768b0c4d6617f7b2b4dfde82d50f0bceaa68f421009663bd09d5ead348ced9eaf214ab6a3e299bc6613574dcabbbe3a3438"}
{"data": "{\"timestamp\": 1756835653.1561575, \"event\": {\"timestamp_ns\": 1756835653116684800, \"agent_id\": \"hurcan\", \"domain\": \"drone\", \"source_format\": \"json\", \"position\": {\"x\": 1464902.096245517, \"y\": -5329291.185013444, \"z\": 0.0}, \"velocity\": {\"vx\": 860.4968341250386, \"vy\": 0.0, \"vz\": 0.0}, \"acceleration\": {\"ax\": -0.1867596954107284, \"ay\": 0.0, \"az\": 0.0}, \"orientation\": {\"yaw\": 0.0, \"pitch\": 0.0, \"roll\": 0.0}, \"sensor\": \"fusion\", \"extras\": {}, \"record_hash\": \"6f475892b23623ebe3aa52393739c7bf5fc7bf4f1c17865480f11f89eb5efab4\", \"anomaly_flag\": -1}}", "sha3": "595723bd70206d586623c82384ea189f53984085aef5b391d3fa739fb5168fac26963f2e26ff9d418ad0121db482011008cd9092a12529bea20da1931e8fa1e2"}
{"data": "{\"timestamp\": 1756835653.2143161, \"event\": {\"timestamp_ns\": 1756835653177112064, \"agent_id\": \"hurcan\", \"domain\": \"drone\", \"source_format\": \"json\", \"position\": {\"x\": 1464988.1438876064, \"y\": -5329727.310020514, \"z\": 0.0}, \"velocity\": {\"vx\": 860.4764208931889, \"vy\": 0.0, \"vz\": 0.0}, \"acceleration\": {\"ax\": -0.2041323184967041, \"ay\": 0.0, \"az\": 0.0}, \"orientation\": {\"yaw\": 0.0, \"pitch\": 0.0, \"roll\": 0.0}, \"sensor\": \"fusion\", \"extras\": {}, \"record_hash\": \"5d725158947971dd81658864dd0767252b1aac1147fbbc71a311130be635226b\", \"anomaly_flag\": -1}}", "sha3": "6944415c94ad5e4820209a58863318c630f6176ed584fb2d7abb3327318e0504e7f029ac374c7670e7aa4174eb2d932d2816f2d189623a7d2c91c43a75976841"}
{"data": "{\"timestamp\": 1756835653.2711556, \"event\": {\"timestamp_ns\": 1756835653235310080, \"agent_id\": \"hurcan\", \"domain\": \"drone\", \"source_format\": \"json\", \"position\": {\"x\": 1465074.1894575774, \"y\": -5330163.435827347, \"z\": 0.0}, \"velocity\": {\"vx\": 860.4556997094717, \"vy\": 0.0, \"vz\": 0.0}, \"acceleration\": {\"ax\": -0.2072118371725082, \"ay\": 0.0, \"az\": 0.0}, \"orientation\": {\"yaw\": 0.0, \"pitch\": 0.0, \"roll\": 0.0}, \"sensor\": \"fusion\", \"extras\": {}, \"record_hash\": \"11572d6570bcc7b2977fd4a992aaec5c73c3b9dbe8741eb470e3d2536cf90bdf\", \"anomaly_flag\": -1}}", "sha3": "ef7ecba4922d8cdd063fc8b9f152424976e331bd9fe05a03e05ace1a4ae8d79fc6b8c0ee6fb5eec771e6f6d3d95439cd92bf057ce250a3d145c68ba63cce0bc6"}
{"data": "{\"timestamp\": 1756835653.3329523, \"event\": {\"timestamp_ns\": 1756835653293609984, \"agent_id\": \"hurcan\", \"domain\": \"drone\", \"source_format\": \"json\", \"position\": {\"x\": 1465160.232766838, \"y\": -5330599.561229439, \"z\": 0.0}, \"velocity\": {\"vx\": 860.4330926064815, \"vy\": 0.0, \"vz\": 0.0}, \"acceleration\": {\"ax\": -0.2260710299015045, \"ay\": 0.0, \"az\": 0.0}, \"orientation\": {\"yaw\": 0.0, \"pitch\": 0.0, \"roll\": 0.0}, \"sensor\": \"fusion\", \"extras\": {}, \"record_hash\": \"31fcab2e6917b47b9db3fec9876f89e39efe8f1c284671650a9e0369c94213af\", \"anomaly_flag\": -1}}", "sha3": "3127144f07c5a5d955a014aa87764f7c9aeea8c32935cbf7d30c1682b1f91499ee5941b525c0ef35b9e65fa8702134d0f0b8a3f1003f8cb7558af95fffa0c334"}
{"data": "{\"timestamp\": 1756835653.3958478, \"event\": {\"timestamp_ns\": 1756835653354126080, \"agent_id\": \"hurcan\", \"domain\": \"drone\", \"source_format\": \"json\", \"position\": {\"x\": 1465246.2743920449, \"y\": -5331035.687840898, \"z\": 0.0}, \"velocity\": {\"vx\": 860.416252068099, \"vy\": 0.0, \"vz\": 0.0}, \"acceleration\": {\"ax\": -0.1684053838253021, \"ay\": 0.0, \"az\": 0.0}, \"orientation\": {\"yaw\": 0.0, \"pitch\": 0.0, \"roll\": 0.0}, \"sensor\": \"fusion\", \"extras\": {}, \"record_hash\": \"375d38077836c64810b9afd4e676b518dd98316eb05900d54d35236158243bde\", \"anomaly_flag\": -1}}", "sha3": "583ed69c53abe9e6d24fa1f62f23a2e9c75a2dfbc8f03888909d29b2640bc186518767b832d41e52cc8f65aecce5f72becdf07e57449b17284fc528afd7d4a14"}
{"data": "{\"timestamp\": 1756835653.4582517, \"event\": {\"timestamp_ns\": 1756835653416963072, \"agent_id\": \"hurcan\", \"domain\": \"drone\", \"source_format\": \"json\", \"position\": {\"x\": 1465332.3141394397, \"y\": -5331471.815656861, \"z\": 0.0}, \"velocity\": {\"vx\": 860.3974739481176, \"vy\": 0.0, \"vz\": 0.0}, \"acceleration\": {\"ax\": -0.1877811998128891, \"ay\": 0.0, \"az\": 0.0}, \"orientation\": {\"yaw\": 0.0, \"pitch\": 0.0, \"roll\": 0.0}, \"sensor\": \"fusion\", \"extras\": {}, \"record_hash\": \"496988e33afdcfc173e3c9d969af3b167d014e8c670d2629b76745ab10c96baa\", \"anomaly_flag\": -1}}", "sha3": "426f676f64eb246a1afd764d5864572f98ff6f75d2bbdba5a6c5c83d7e9394e5f2ff4d15c364cb92e8df7024c9debd979ef4f04f277e8d0e53179c0b28db414f"}
{"data": "{\"timestamp\": 1756835653.5200198, \"event\": {\"timestamp_ns\": 1756835653480325888, \"agent_id\": \"hurcan\", \"domain\": \"drone\", \"source_format\": \"json\", \"position\": {\"x\": 1465418.352028244, \"y\": -5331907.943477686, \"z\": 0.0}, \"velocity\": {\"vx\": 860.3788880426849, \"vy\": 0.0, \"vz\": 0.0}, \"acceleration\": {\"ax\": -0.1858590543270111, \"ay\": 0.0, \"az\": 0.0}, \"orientation\": {\"yaw\": 0.0, \"pitch\": 0.0, \"roll\": 0.0}, \"sensor\": \"fusion\", \"extras\": {}, \"record_hash\": \"e18779af6636bdfa45acf93426b36d3a5ecd8bee3c149e3391bcc63ff3ec5ffc\", \"anomaly_flag\": -1}}", "sha3": "bfb7116614d81c16980f99c1da57bfdf1623c5115c0cf3783ff03228a64858682d2a705ab909d67f9c26c9529164a60aafad34932b73c1962d314192e7232ab3"}
{"data": "{\"timestamp\": 1756835653.590328, \"event\": {\"timestamp_ns\": 1756835653541177088, \"agent_id\": \"hurcan\", \"domain\": \"drone\", \"source_format\": \"json\", \"position\": {\"x\": 1465504.3876726003, \"y\": -5332344.070893767, \"z\": 0.0}, \"velocity\": {\"vx\": 860.3564435650076, \"vy\": 0.0, \"vz\": 0.0}, \"acceleration\": {\"ax\": -0.2244447767734528, \"ay\": 0.0, \"az\": 0.0}, \"orientation\": {\"yaw\": 0.0, \"pitch\": 0.0, \"roll\": 0.0}, \"sensor\": \"fusion\", \"extras\": {}, \"record_hash\": \"5fc2a1fd4925f551881eac847f304f0baa5afa7ff94ab6ca6fd293e085a2dae7\", \"anomaly_flag\": -1}}", "sha3": "dc89de4d049ad37abceb8064eb6d0bd7a21191dc7273cdad304f498ecbb65886096d8ea396e356d25591287921cb9d27f63b37bfa1e29fb45a93d34f09d40277"}
{"data": "{\"timestamp\": 1756835653.653951, \"event\": {\"timestamp_ns\": 1756835653611248128, \"agent_id\": \"hurcan\", \"domain\": \"drone\", \"source_format\": \"json\", \"position\": {\"x\": 1465590.4212724864, \"y\": -5332780.197909967, \"z\": 0.0}, \"velocity\": {\"vx\": 860.3359988619054, \"vy\": 0.0, \"vz\": 0.0}, \"acceleration\": {\"ax\": -0.2044470310211181, \"ay\": 0.0, \"az\": 0.0}, \"orientation\": {\"yaw\": 0.0, \"pitch\": 0.0, \"roll\": 0.0}, \"sensor\": \"fusion\", \"extras\": {}, \"record_hash\": \"fbbe74ded1ca822a57f0bc9eacdefa92c35365c223be424bb0adef18ece9f2d1\", \"anomaly_flag\": -1}}", "sha3": "663b771ac821f5acae0f9d8fe0b38f9b55ffaea29b5a44a6a5cd829c4e4067dfdf17c961ad12e6e8c70120a4aaedf5736849d46c029f6c5d0f9b754832238123"}
{"data": "{\"timestamp\": 1756835653.714122, \"event\": {\"timestamp_ns\": 1756835653674854912, \"agent_id\": \"hurcan\", \"domain\": \"drone\", \"source_format\": \"json\", \"position\": {\"x\": 1465676.4529852427, \"y\": -5333216.326130672, \"z\": 0.0}, \"velocity\": {\"vx\": 860.3171275619829, \"vy\": 0.0, \"vz\": 0.0}, \"acceleration\": {\"ax\": -0.1887129992246628, \"ay\": 0.0, \"az\": 0.0}, \"orientation\": {\"yaw\": 0.0, \"pitch\": 0.0, \"roll\": 0.0}, \"sensor\": \"fusion\", \"extras\": {}, \"record_hash\": \"f4336f754dc684fa21a9587858f3d4fc5be7c1143ed4db5e232ce910d2d04502\", \"anomaly_flag\": -1}}", "sha3": "0bb7c8fa4c1f3b1d5de6ba49dbdffce7e17521a16f95efa8692ef474b99acaa33c23124e7cd499cbf232285c7963b9266f70d01323f8da57813d00961433ec93"}
{"data": "{\"timestamp\": 1756835653.7756557, \"event\": {\"timestamp_ns\": 1756835653735469056, \"agent_id\": \"hurcan\", \"domain\": \"drone\", \"source_format\": \"json\", \"position\": {\"x\": 1465762.4822670063, \"y\": -5333652.4535418935, \"z\": 0.0}, \"velocity\": {\"vx\": 860.292817636248, \"vy\": 0.0, \"vz\": 0.0}, \"acceleration\": {\"ax\": -0.243099257349968, \"ay\": 0.0, \"az\": 0.0}, \"orientation\": {\"yaw\": 0.0, \"pitch\": 0.0, \"roll\": 0.0}, \"sensor\": \"fusion\", \"extras\": {}, \"record_hash\": \"3c165a193c5c7ecc0651953714e1fdb8602f448f6bf03246e32ec950f4c155e9\", \"anomaly_flag\": -1}}", "sha3": "f66900c784ee45776740e656d23ebd3dd37eecfea26e09bd11bb935f8b0c5084f106454fcdf78985e29d5a82b5bad82b20cfb12337c99b6782daa12fc4816dfc"}
{"data": "{\"timestamp\": 1756835653.8377826, \"event\": {\"timestamp_ns\": 1756835653796689920, \"agent_id\": \"hurcan\", \"domain\": \"drone\", \"source_format\": \"json\", \"position\": {\"x\": 1465848.5092871485, \"y\": -5334088.580948255, \"z\": 0.0}, \"velocity\": {\"vx\": 860.2702014226878, \"vy\": 0.0, \"vz\": 0.0}, \"acceleration\": {\"ax\": -0.2261621356010437, \"ay\": 0.0, \"az\": 0.0}, \"orientation\": {\"yaw\": 0.0, \"pitch\": 0.0, \"roll\": 0.0}, \"sensor\": \"fusion\", \"extras\": {}, \"record_hash\": \"1b0889d94c8b0c56ab0568f42b2565a22d9255be0460fab01fcdc756334b3fea\", \"anomaly_flag\": -1}}", "sha3": "ee8db4608e5b16a5d8b844c69e892cd1b7a0ee9ceb5b5d61d7977f06e9bbc2b34234d357d385512c1cbd7911a84ad23de61894024a5a63f21713a4ea7254645e"}
{"data": "{\"timestamp\": 1756835653.896426, \"event\": {\"timestamp_ns\": 1756835653858956032, \"agent_id\": \"hurcan\", \"domain\": \"drone\", \"source_format\": \"json\", \"position\": {\"x\": 1465934.5348328205, \"y\": -5334524.709568842, \"z\": 0.0}, \"velocity\": {\"vx\": 860.2554567207063, \"vy\": 0.0, \"vz\": 0.0}, \"acceleration\": {\"ax\": -0.1474470198154449, \"ay\": 0.0, \"az\": 0.0}, \"orientation\": {\"yaw\": 0.0, \"pitch\": 0.0, \"roll\": 0.0}, \"sensor\": \"fusion\", \"extras\": {}, \"record_hash\": \"6f84ab1b21f056d85435531b51355708d51057b3188f6567cb47b3c3f9546762\", \"anomaly_flag\": -1}}", "sha3": "c62545c1591d13e1d7d3c1775b5bb681bc89932d57ead944496ef9a33e080aed24ec11ee8bc62dca87e7e7743f845f021f9363b0050b55ffa2c76dab4b8ce380"}
{"data": "{\"timestamp\": 1756835653.9571588, \"event\": {\"timestamp_ns\": 1756835653917496832, \"agent_id\": \"hurcan\", \"domain\": \"drone\", \"source_format\": \"json\", \"position\": {\"x\": 1466020.55793831, \"y\": -5334960.837379945, \"z\": 0.0}, \"velocity\": {\"vx\": 860.2310548950398, \"vy\": 0.0, \"vz\": 0.0}, \"acceleration\": {\"ax\": -0.2440182566642761, \"ay\": 0.0, \"az\": 0.0}, \"orientation\": {\"yaw\": 0.0, \"pitch\": 0.0, \"roll\": 0.0}, \"sensor\": \"fusion\", \"extras\": {}, \"record_hash\": \"327abc8292faed0a6af57ca31815d0ecba614d7c838f8a28939147fc13a2741a\", \"anomaly_flag\": -1}}", "sha3": "2292ecd7305a18f7a2d89e308d530df5f408b013309053347334b710bbf46857a908cae6f819e0076c2dc3c80c2510cd4abb7ce3fe192fc28de4e0730996111b"}
{"data": "{\"timestamp\": 1756835654.0165436, \"event\": {\"timestamp_ns\": 1756835653979185152, \"agent_id\": \"hurcan\", \"domain\": \"drone\", \"source_format\": \"json\", \"position\": {\"x\": 1466106.5788079873, \"y\": -5335396.964786307, \"z\": 0.0}, \"velocity\": {\"vx\": 860.2086967725719, \"vy\": 0.0, \"vz\": 0.0}, \"acceleration\": {\"ax\": -0.2235812246799469, \"ay\": 0.0, \"az\": 0.0}, \"orientation\": {\"yaw\": 0.0, \"pitch\": 0.0, \"roll\": 0.0}, \"sensor\": \"fusion\", \"extras\": {}, \"record_hash\": \"c007d0830232f8d8beb327244317f664d9dbd7f1d598cede480b63f7ec12d4e3\", \"anomaly_flag\": -1}}", "sha3": "c35ea833fb8b43957da8462c79bafcdf157de8bdd87685d98abdb2d5858ee3f48617d5cc09522faa41f292548f3002663cf0fdbb4ec099883b7015c3769efb1d"}
{"data": "{\"timestamp\": 1756835654.0799158, \"event\": {\"timestamp_ns\": 1756835654037463808, \"agent_id\": \"hurcan\", \"domain\": \"drone\", \"source_format\": \"json\", \"position\": {\"x\": 1466192.5970392348, \"y\": -5335833.091378324, \"z\": 0.0}, \"velocity\": {\"vx\": 860.1823124755587, \"vy\": 0.0, \"vz\": 0.0}, \"acceleration\": {\"ax\": -0.2638429701328277, \"ay\": 0.0, \"az\": 0.0}, \"orientation\": {\"yaw\": 0.0, \"pitch\": 0.0, \"roll\": 0.0}, \"sensor\": \"fusion\", \"extras\": {}, \"record_hash\": \"03841f5095c2a181d0d9e9520c3886dbacc07190601e6573c8812838e7311900\", \"anomaly_flag\": -1}}", "sha3": "23fc6485c94347fc603126cc0050992ee090ffa2085ac32949da4a6a95c1d503e1cbff5c034a47f4c4f175aa170f3730425d8b9ebd54edc13b8cd789f22718ed"}
{"data": "{\"timestamp\": 1756835654.1351087, \"event\": {\"timestamp_ns\": 1756835654101017856, \"agent_id\": \"hurcan\", \"domain\": \"drone\", \"source_format\": \"json\", \"position\": {\"x\": 1466278.6136102676, \"y\": -5336269.217980061, \"z\": 0.0}, \"velocity\": {\"vx\": 860.1657103289332, \"vy\": 0.0, \"vz\": 0.0}, \"acceleration\": {\"ax\": -0.166021466255188, \"ay\": 0.0, \"az\": 0.0}, \"orientation\": {\"yaw\": 0.0, \"pitch\": 0.0, \"roll\": 0.0}, \"sensor\": \"fusion\", \"extras\": {}, \"record_hash\": \"52412db7148074afb95f513424226691e444b3a68810cd6f8338460830cba789\", \"anomaly_flag\": -1}}", "sha3": "78041ad30d466c9f8f9ae2970a58921aca3418e60ee88e0935426c87ce32e7b828e35af0ed17746009e3daa38203f522ba2020caae20051c4409cef4cdf96b24"}
{"data": "{\"timestamp\": 1756835654.198017, \"event\": {\"timestamp_ns\": 1756835654156380928, \"agent_id\": \"hurcan\", \"domain\": \"drone\", \"source_format\": \"json\", \"position\": {\"x\": 1466364.6279375963, \"y\": -5336705.344177055, \"z\": 0.0}, \"velocity\": {\"vx\": 860.1432732869353, \"vy\": 0.0, \"vz\": 0.0}, \"acceleration\": {\"ax\": -0.2243704199790954, \"ay\": 0.0, \"az\": 0.0}, \"orientation\": {\"yaw\": 0.0, \"pitch\": 0.0, \"roll\": 0.0}, \"sensor\": \"fusion\", \"extras\": {}, \"record_hash\": \"7165830b97a270c42b411ae2a9d540ac4d8b2efed38df69b8d9234fc05eaed27\", \"anomaly_flag\": -1}}", "sha3": "313008ccf81292d360ed5677fd5a4b5a68ca8c2212ab729ea4f608eaa33087ee3f92ab15f5df8259269e1dc1d7f13fe8ddecb77e125be970d0558303b1ef5159"}
{"data": "{\"timestamp\": 1756835654.2571032, \"event\": {\"timestamp_ns\": 1756835654219238144, \"agent_id\": \"hurcan\", \"domain\": \"drone\", \"source_format\": \"json\", \"position\": {\"x\": 1466450.6403967347, \"y\": -5337141.471178674, \"z\": 0.0}, \"velocity\": {\"vx\": 860.1245913837517, \"vy\": 0.0, \"vz\": 0.0}, \"acceleration\": {\"ax\": -0.1868190318346024, \"ay\": 0.0, \"az\": 0.0}, \"orientation\": {\"yaw\": 0.0, \"pitch\": 0.0, \"roll\": 0.0}, \"sensor\": \"fusion\", \"extras\": {}, \"record_hash\": \"7490ca3dbed90cfac2aaede9033368dec9f0853d24c5f7b21fec47efb1bbc077\", \"anomaly_flag\": -1}}", "sha3": "c52b51cb84548923131b877f72ae26fe26e7e2cf4ce84e2fe085377df15cc1f510110bac1db03c56892cd3d9f09614ce2e131ef0416cae217893c59ad60dc877"}
{"data": "{\"timestamp\": 1756835654.3216789, \"event\": {\"timestamp_ns\": 1756835654278601984, \"agent_id\": \"hurcan\", \"domain\": \"drone\", \"source_format\": \"json\", \"position\": {\"x\": 1466536.6511789463, \"y\": -5337577.598589895, \"z\": 0.0}, \"velocity\": {\"vx\": 860.107822114643, \"vy\": 0.0, \"vz\": 0.0}, \"acceleration\": {\"ax\": -0.1676926910877227, \"ay\": 0.0, \"az\": 0.0}, \"orientation\": {\"yaw\": 0.0, \"pitch\": 0.0, \"roll\": 0.0}, \"sensor\": \"fusion\", \"extras\": {}, \"record_hash\": \"537c13e192550f3d65baf51df0cff3c448e4367863e8ba3e275663076b642d8c\", \"anomaly_flag\": -1}}", "sha3": "a48368e75206726de54fe4c75ca2e18840effe55a1aed6c4aef3614e020ebe05d10ba64a7522a2c99cba347eb8770722a555603afd55f1d1ae7d761a44b86fa8"}
{"data": "{\"timestamp\": 1756835654.3825939, \"event\": {\"timestamp_ns\": 1756835654343200000, \"agent_id\": \"hurcan\", \"domain\": \"drone\", \"source_format\": \"json\", \"position\": {\"x\": 1466622.6600984784, \"y\": -5338013.726405859, \"z\": 0.0}, \"velocity\": {\"vx\": 860.0891953219141, \"vy\": 0.0, \"vz\": 0.0}, \"acceleration\": {\"ax\": -0.1862679272890091, \"ay\": 0.0, \"az\": 0.0}, \"orientation\": {\"yaw\": 0.0, \"pitch\": 0.0, \"roll\": 0.0}, \"sensor\": \"fusion\", \"extras\": {}, \"record_hash\": \"ea6e99472c053b7d676536acaa3c14f579c6640636c033e5a9874d4047f712c6\", \"anomaly_flag\": -1}}", "sha3": "6a727b7b9c69a48cfe809fc3d54fe201a2d7eca46ade290e84270b16b11033c0fc396862612276fb1df8ecc37431792c7e76dea3c3cf1e80722c5e93d8ec3370"}
{"data": "{\"timestamp\": 1756835654.4473577, \"event\": {\"timestamp_ns\": 1756835654403378944, \"agent_id\": \"hurcan\", \"domain\": \"drone\", \"source_format\": \"json\", \"position\": {\"x\": 1466708.6667691786, \"y\": -5338449.85381708, \"z\": 0.0}, \"velocity\": {\"vx\": 860.0667070020403, \"vy\": 0.0, \"vz\": 0.0}, \"acceleration\": {\"ax\": -0.2248831987380981, \"ay\": 0.0, \"az\": 0.0}, \"orientation\": {\"yaw\": 0.0, \"pitch\": 0.0, \"roll\": 0.0}, \"sensor\": \"fusion\", \"extras\": {}, \"record_hash\": \"46b3dbdbca5a70ddccc09656b52e7ce0d3fa602b6bfdb4de44fad12237bc9d96\", \"anomaly_flag\": -1}}", "sha3": "211fad650804f146a3587613fac26f59009df3792f3dd70067e729898b7894e73b0b18cddcd0aabb3a0ad2633948ae5489c042385fd636134035ab7a45432484"}
{"data": "{\"timestamp\": 1756835654.5138526, \"event\": {\"timestamp_ns\": 1756835654468398080, \"agent_id\": \"hurcan\", \"domain\": \"drone\", \"source_format\": \"json\", \"position\": {\"x\": 1466794.6712086815, \"y\": -5338885.980423678, \"z\": 0.0}, \"velocity\": {\"vx\": 860.0443950284686, \"vy\": 0.0, \"vz\": 0.0}, \"acceleration\": {\"ax\": -0.2231197357177734, \"ay\": 0.0, \"az\": 0.0}, \"orientation\": {\"yaw\": 0.0, \"pitch\": 0.0, \"roll\": 0.0}, \"sensor\": \"fusion\", \"extras\": {}, \"record_hash\": \"0a0d9203b4b9450164cc953a55211335073911c48bd648a85f5911ca666ff162\", \"anomaly_flag\": -1}}", "sha3": "f60b0fc7edca9ef8a182bf5ad064d3fbb0b6f38648f4d23547c779a8595bba7eef6a3b3de925dabf2850bbe60a66808f3c3d35d64cd43767dfaffcc0537e33cd"}
{"data": "{\"timestamp\": 1756835654.5772846, \"event\": {\"timestamp_ns\": 1756835654535244032, \"agent_id\": \"hurcan\", \"domain\": \"drone\", \"source_format\": \"json\", \"position\": {\"x\": 1466880.673004986, \"y\": -5339322.106615813, \"z\": 0.0}, \"velocity\": {\"vx\": 860.0179630447592, \"vy\": 0.0, \"vz\": 0.0}, \"acceleration\": {\"ax\": -0.2643198370933533, \"ay\": 0.0, \"az\": 0.0}, \"orientation\": {\"yaw\": 0.0, \"pitch\": 0.0, \"roll\": 0.0}, \"sensor\": \"fusion\", \"extras\": {}, \"record_hash\": \"5df6664c2816bcc790fdfa743593bdcdcb9885c37bc29b10cb2ee5e0be1ba407\", \"anomaly_flag\": -1}}", "sha3": "fa254d54e97fd9c64a7c43372d38c74c7f53b73aab6ea5b0ff4c3da004d9d92166a1d909d76bc6fa215c4361c3612418dde61cc7733701874f57a37026dd9d5b"}
{"data": "{\"timestamp\": 1756835654.640369, \"event\": {\"timestamp_ns\": 1756835654598772992, \"agent_id\": \"hurcan\", \"domain\": \"drone\", \"source_format\": \"json\", \"position\": {\"x\": 1466966.6727575269, \"y\": -5339758.232807949, \"z\": 0.0}, \"velocity\": {\"vx\": 859.9975254092778, \"vy\": 0.0, \"vz\": 0.0}, \"acceleration\": {\"ax\": -0.2043763548135757, \"ay\": 0.0, \"az\": 0.0}, \"orientation\": {\"yaw\": 0.0, \"pitch\": 0.0, \"roll\": 0.0}, \"sensor\": \"fusion\", \"extras\": {}, \"record_hash\": \"3669ff4183131cb4254dc6cdb2ed1c1490b2cf7c4f7082d6af66154de8ef0328\", \"anomaly_flag\": -1}}", "sha3": "eb16515e1a1aba36b2623da14d950e8f61b0ebfaa697581cfe3c20f4ff5f0c325f42578b42658d513200d5405960000924da388bb479ad1e0e2d8c1cfb2871f9"}
{"data": "{\"timestamp\": 1756835654.707798, \"event\": {\"timestamp_ns\": 1756835654661423872, \"agent_id\": \"hurcan\", \"domain\": \"drone\", \"source_format\": \"json\", \"position\": {\"x\": 1467052.6702561541, \"y\": -5340194.358595342, \"z\": 0.0}, \"velocity\": {\"vx\": 859.9749862734641, \"vy\": 0.0, \"vz\": 0.0}, \"acceleration\": {\"ax\": -0.2253913581371307, \"ay\": 0.0, \"az\": 0.0}, \"orientation\": {\"yaw\": 0.0, \"pitch\": 0.0, \"roll\": 0.0}, \"sensor\": \"fusion\", \"extras\": {}, \"record_hash\": \"5efc734ad185d26bf4f89403210fe2f823e9d9311c08374483c7ee082d191cb2\", \"anomaly_flag\": -1}}", "sha3": "b7f68eb07a5ee1ce2245158fcf30039de0a102b542d16cb59d81de70397cb7720d64bd11f4f76bb516021a18fc94b91288116ff91772da73895a01eea606f3de"}
{"data": "{\"timestamp\": 1756835654.7667973, \"event\": {\"timestamp_ns\": 1756835654728713984, \"agent_id\": \"hurcan\", \"domain\": \"drone\", \"source_format\": \"json\", \"position\": {\"x\": 1467138.6659020423, \"y\": -5340630.484387596, \"z\": 0.0}, \"velocity\": {\"vx\": 859.9564588819112, \"vy\": 0.0, \"vz\": 0.0}, \"acceleration\": {\"ax\": -0.1852739155292511, \"ay\": 0.0, \"az\": 0.0}, \"orientation\": {\"yaw\": 0.0, \"pitch\": 0.0, \"roll\": 0.0}, \"sensor\": \"fusion\", \"extras\": {}, \"record_hash\": \"3a832f83f203546276ae6812199f87eb68792ba814f4e87428332cdaa7e0dcf3\", \"anomaly_flag\": -1}}", "sha3": "15770bd7a6ab39efb15c961c3a2d576a0f1d49d68c210d31c8bb069c8cf4063c34739a5c1321f2838bbfc08f639938b2f5171c18a2359b3f5e328be93a472391"}
